name,lat,lon
"Abbott, CA",39.0205556,-121.6244444
"Aberdeen, CA",36.9780556,-118.2525000
"Abilene, CA",36.1455556,-119.0527778
"Abrams Lake Mobile Estates, CA",41.3380556,-122.3541667
"Acampo, CA",38.1747222,-121.2775000
"Accent Homes Mobile Home Park, CA",37.4300000,-122.4291667
"Acebedo, CA",35.8319444,-120.2008333
"Acolita, CA",33.0711111,-115.1838889
"Acorn, CA",34.6527778,-120.4922222
"Actis, CA",34.9586111,-118.1477778
"Acton, CA",34.4700000,-118.1958333
"Adams, CA",38.8563889,-122.7186111
"Adams Square, CA",34.1336111,-118.2402778
"Adams Station, CA",41.8427778,-123.9913889
"Adela, CA",37.7886111,-120.8622222
"Adelaida, CA",35.6455556,-120.8725000
"Adelanto, CA",34.5827778,-117.4083333
"Adin, CA",41.1938889,-120.9441667
"Adobe Corner, CA",37.4261111,-122.2652778
"Advance, CA",36.5158333,-118.9016667
"Aerial Acres, CA",35.0877778,-117.7911111
"Aetna Springs, CA",38.6536111,-122.4816667
"Afton, CA",39.4200000,-121.9652778
"Ager, CA",41.8663889,-122.4594444
"Agnew, CA",37.3947222,-121.9580556
"Agoura, CA",34.1430556,-118.7369444
"Agoura Hills, CA",34.1363889,-118.7736111
"Agra, CA",33.3333333,-117.4991667
"Agua Caliente, CA",38.3241667,-122.4869444
"Agua Dulce, CA",34.4963889,-118.3247222
"Agua Fria, CA",37.4850000,-120.0191667
"Aguanga, CA",33.4427778,-116.8641667
"Ahwahnee, CA",37.3655556,-119.7252778
"Ahwahnee Estates, CA",37.3708333,-119.7027778
"Ainsworth Corner, CA",41.9986111,-121.5586111
"Akers, CA",37.9983333,-121.2825000
"Al Tahoe, CA",38.9419444,-119.9825000
"Alabama Hill, CA",38.3550000,-120.5908333
"Alabama Hills, CA",36.5677778,-118.0888889
"Alameda, CA",37.7652778,-122.2405556
"Alamitos, CA",37.2505556,-121.8661111
"Alamo, CA",37.8502778,-122.0311111
"Alamo Oaks, CA",37.8394444,-121.9919444
"Alamorio, CA",32.9791667,-115.4605556
"Alba, CA",37.7980556,-121.0386111
"Albany, CA",37.8869444,-122.2966667
"Alberhill, CA",33.7272222,-117.3988889
"Albion, CA",39.2236111,-123.7675000
"Albrae, CA",37.4955556,-121.9883333
"Alder Creek, CA",38.6347222,-121.2005556
"Alder Springs, CA",37.0661111,-119.4011111
"Aldercroft Heights, CA",37.1608333,-121.9677778
"Alderglen Springs, CA",38.8352778,-123.0516667
"Alderpoint, CA",40.1763889,-123.6105556
"Alemandra, CA",39.1488889,-121.6869444
"Alessandro, CA",33.8861111,-117.2694444
"Alford Place, CA",40.2183333,-122.6655556
"Algerine, CA",37.9111111,-120.3822222
"Algoso, CA",35.3597222,-118.9241667
"Alhambra, CA",34.0952778,-118.1261111
"Alicia, CA",39.1027778,-121.5805556
"Alico, CA",36.5697222,-117.9622222
"Alimur Park Mobile Home Park, CA",36.9866667,-121.9605556
"Aliso, CA",33.7269444,-117.8322222
"Aliso Viejo, CA",33.6083333,-117.7444444
"Alla, CA",33.9811111,-118.4288889
"Alleghany, CA",39.4697222,-120.8422222
"Allen, CA",38.6172222,-120.1097222
"Allendale, CA",38.4447222,-121.9419444
"Allensworth, CA",35.8636111,-119.3880556
"Alliance, CA",40.8886111,-124.0866667
"Alliance Redwood, CA",38.4338889,-122.9719444
"Almanor, CA",40.2175000,-121.1730556
"Almanor West, CA",40.2363889,-121.2033333
"Almond, CA",33.8588889,-117.9838889
"Almonte, CA",37.8900000,-122.5238889
"Alondra Park, CA",33.8894444,-118.3300000
"Alpaugh, CA",35.8877778,-119.4863889
"Alphine Village, CA",38.7730556,-119.8169444
"Alpine, CA",32.8350000,-116.7655556
"Alpine Heights, CA",32.8180556,-116.7800000
"Alpine Meadows, CA",39.1786111,-120.2266667
"Alpine Village, CA",33.6061111,-116.4688889
"Alray, CA",34.3283333,-117.4819444
"Alsace, CA",33.9786111,-118.4147222
"Alta, CA",39.2066667,-120.8102778
"Alta Hill, CA",39.2300000,-121.0755556
"Alta Loma, CA",34.1222222,-117.5972222
"Alta Mesa, CA",37.3988889,-122.1336111
"Alta Sierra, CA",39.1416667,-121.0527778
"Alta Sierra Estates, CA",39.1141667,-121.0541667
"Alta Sierra Ranches, CA",39.1044444,-121.0236111
"Alta Vista, CA",37.4127778,-118.5416667
"Alta Vista Park, CA",39.2275000,-121.0655556
"Altacanyada, CA",34.2222222,-118.2111111
"Altadena, CA",34.1897222,-118.1302778
"Altamont, CA",37.7438889,-121.6616667
"Altaville, CA",38.0838889,-120.5608333
"Alten, CA",38.3813889,-122.8052778
"Alto, CA",37.9044444,-122.5244444
"Alton, CA",40.5475000,-124.1397222
"Alturas, CA",41.4872222,-120.5413889
"Alum Rock, CA",37.3661111,-121.8261111
"Alviso, CA",37.4261111,-121.9741667
"Amador City, CA",38.4194444,-120.8230556
"Amber Hills, CA",34.1422222,-117.2077778
"Ambler, CA",36.3080556,-119.2813889
"Ambler Park, CA",36.5763889,-121.7191667
"Amboy, CA",34.5577778,-115.7436111
"Ambrose, CA",41.5019444,-120.9802778
"American Canyon, CA",38.1750000,-122.2597222
"Amesti, CA",36.9636111,-121.7780556
"Amos, CA",33.1180556,-115.2550000
"Ampere, CA",38.1025000,-121.2422222
"Amsterdam, CA",37.4302778,-120.5411111
"Anaheim, CA",33.8352778,-117.9136111
"Anaheim Hills, CA",33.8444444,-117.7763889
"Anchor Bay, CA",38.8027778,-123.5766667
"Anderson, CA",40.4483333,-122.2966667
"Andersonia, CA",39.9780556,-123.8061111
"Andesite, CA",41.5325000,-122.2036111
"Andover, CA",39.3105556,-120.2461111
"Andrade Corner, CA",34.6486111,-118.3761111
"Angelino Heights, CA",34.0702778,-118.2538889
"Angels Camp, CA",38.0683333,-120.5386111
"Angelus Oaks, CA",34.1458333,-116.9816667
"Angiola, CA",35.9891667,-119.4750000
"Angwin, CA",38.5758333,-122.4488889
"Anita, CA",39.8108333,-121.9772222
"Annapolis, CA",38.7219444,-123.3686111
"Annette, CA",35.6508333,-120.1780556
"Ansel, CA",34.9050000,-118.1533333
"Antelope, CA",38.7083333,-121.3288889
"Antelope Acres, CA",34.7544444,-118.2886111
"Antelope Center, CA",34.5800000,-117.9683333
"Antelope Hills, CA",33.6055556,-117.1661111
"Antes, CA",36.3086111,-119.1297222
"Antioch, CA",38.0050000,-121.8047222
"Antlers, CA",40.8955556,-122.3700000
"Antonio, CA",34.8352778,-120.5688889
"Anza, CA",33.5550000,-116.6727778
"Apex, CA",38.7269444,-120.8222222
"Apollo, CA",35.3416667,-116.8736111
"Apple Valley, CA",34.5008333,-117.1850000
"Apple Valley Estates, CA",38.0111111,-120.3277778
"Apple Valley Highlands, CA",34.3911111,-117.2166667
"Applegate, CA",39.0008333,-120.9913889
"Aptos, CA",36.9772222,-121.8983333
"Arabian Gardens Mobile Home Park, CA",33.7305556,-116.2405556
"Arastraville, CA",37.9980556,-120.2258333
"Araz Junction, CA",32.7472222,-114.7136111
"Arbee, CA",39.2111111,-121.9947222
"Arbios, CA",36.7766667,-120.3969444
"Arboga, CA",39.0513889,-121.5547222
"Arbolada, CA",34.4497222,-119.2572222
"Arbor, CA",37.9616667,-121.7222222
"Arbuckle, CA",39.0175000,-122.0566667
"Arcade, CA",38.4758333,-121.5786111
"Arcadia, CA",34.1397222,-118.0344444
"Arcata, CA",40.8666667,-124.0816667
"Archer, CA",34.4205556,-115.3647222
"Arcilla, CA",33.7833333,-117.4786111
"Arden Town, CA",38.5741667,-121.3819444
"Arena, CA",37.3708333,-120.6752778
"Argos, CA",34.7258333,-116.2500000
"Arguello, CA",34.5783333,-120.6419444
"Argus, CA",35.7472222,-117.3944444
"Arlanza, CA",33.9427778,-117.4647222
"Arlight, CA",34.5777778,-120.6383333
"Arlington, CA",33.9202778,-117.4455556
"Arlington Station, CA",33.9141667,-117.4402778
"Arlynda Corners, CA",40.5950000,-124.2538889
"Armistead, CA",35.5477778,-117.9266667
"Armona, CA",36.3158333,-119.7075000
"Armstrong, CA",39.3283333,-120.2352778
"Arnold, CA",38.2555556,-120.3500000
"Arnold Heights, CA",33.8936111,-117.2780556
"Aromas, CA",36.8886111,-121.6419444
"Arrowbear Lake, CA",34.2108333,-117.0825000
"Arrowhead Equestrian Estates, CA",34.3577778,-117.2488889
"Arrowhead Highlands, CA",34.2300000,-117.2619444
"Arrowhead Junction, CA",34.9427778,-114.8236111
"Arrowhead Springs, CA",34.1866667,-117.2608333
"Arroyo Fairways Mobile Home Club, CA",33.7458333,-116.9111111
"Arroyo Grande, CA",35.1186111,-120.5897222
"Arroyo Mobile Home Park, CA",34.3733333,-119.3061111
"Arroyo Vista, CA",38.7233333,-121.0536111
"Arroz, CA",38.6208333,-121.9700000
"Artesia, CA",33.8658333,-118.0822222
"Artois, CA",39.6197222,-122.1927778
"Arts Trailer Court, CA",34.2236111,-119.1397222
"Arvin, CA",35.2091667,-118.8275000
"Asco, CA",37.6830556,-121.8716667
"Ash Creek Junction, CA",41.2675000,-122.0766667
"Ash Hill, CA",34.7069444,-116.0541667
"Ashford Junction, CA",35.9097222,-116.6725000
"Ashland, CA",37.6947222,-122.1127778
"Ashrama, CA",37.3072222,-121.4686111
"Aspen Springs, CA",37.5547222,-118.7122222
"Aspen Valley, CA",37.8275000,-119.7702778
"Aspendell, CA",37.2380556,-118.5975000
"Asti, CA",38.7630556,-122.9719444
"Asuncion, CA",35.5150000,-120.6783333
"Asylum, CA",39.1336111,-123.1994444
"Atascadero, CA",35.4894444,-120.6697222
"Athens, CA",33.9200000,-118.2802778
"Atherton, CA",37.4613889,-122.1966667
"Athlone, CA",37.2080556,-120.3569444
"Atlanta, CA",37.8130556,-121.1197222
"Atlas, CA",38.4291667,-122.2469444
"Atolia, CA",35.3147222,-117.6083333
"Atwater, CA",37.3477778,-120.6080556
"Atwood, CA",33.8655556,-117.8300000
"Auberry, CA",37.0808333,-119.4844444
"Auburn, CA",38.8966667,-121.0758333
"Auburn Hills Mobile Estates, CA",38.9261111,-121.0872222
"Auburn Lake Trails, CA",38.9144444,-120.9513889
"Auckland, CA",36.5880556,-119.1058333
"August, CA",37.9788889,-121.2611111
"Aukum, CA",38.5572222,-120.7255556
"Aurant, CA",34.0780556,-118.1633333
"Aurora, CA",37.6600000,-121.0016667
"Austin, CA",37.2425000,-121.9972222
"Avalon, CA",33.3427778,-118.3269444
"Avalon Village, CA",33.8127778,-118.2630556
"Avena, CA",37.8430556,-121.0652778
"Avenal, CA",36.0041667,-120.1280556
"Avery, CA",38.2044444,-120.3688889
"Avery Place, CA",40.1819444,-121.7794444
"Avila Beach, CA",35.1800000,-120.7308333
"Avila Place, CA",41.0430556,-120.8666667
"Avinsino Corner, CA",38.6936111,-120.6755556
"Avocado, CA",36.7894444,-119.4030556
"Avocado Heights, CA",34.0361111,-117.9902778
"Avon, CA",38.0327778,-122.0741667
"Azalea, CA",41.2783333,-122.3011111
"Azure Vista, CA",32.7194444,-117.2622222
"Azusa, CA",34.1336111,-117.9066667
"Baden, CA",37.6497222,-122.4330556
"Badger, CA",36.6313889,-119.0122222
"Badwater, CA",36.2297222,-116.7661111
"Bagdad, CA",34.5827778,-115.8747222
"Bahia, CA",38.0966667,-122.1019444
"Bailhache, CA",38.6036111,-122.8536111
"Bak, CA",38.4575000,-122.6702778
"Baker, CA",35.2650000,-116.0736111
"Bakersfield, CA",35.3733333,-119.0177778
"Balance Rock, CA",35.8061111,-118.6511111
"Balboa, CA",33.5869444,-117.9000000
"Balboa Island, CA",33.5944444,-117.8908333
"Balch, CA",35.0427778,-116.0266667
"Balch Camp, CA",36.9030556,-119.1222222
"Balderson Station, CA",38.9347222,-120.7530556
"Baldwin Hills, CA",34.0019500,-118.3569500
"Baldwin Lake, CA",34.2794444,-116.7963889
"Baldwin Park, CA",34.0852778,-117.9600000
"Baldy Mesa, CA",34.4591667,-117.4502778
"Bale, CA",38.5541667,-122.5094444
"Ballarat, CA",36.0477778,-117.2225000
"Ballard, CA",34.6358333,-120.1122222
"Ballena, CA",33.0652778,-116.7458333
"Ballico, CA",37.4544444,-120.7050000
"Ballou, CA",34.0491667,-117.6061111
"Baltimore Park, CA",37.9308333,-122.5313889
"Baltimore Town, CA",39.3877778,-120.5391667
"Banadelle Ranchos, CA",36.9666667,-119.8930556
"Bancroft, CA",37.9338889,-122.0461111
"Bancroft Point, CA",32.7369444,-116.9847222
"Bandini, CA",34.0066667,-118.1669444
"Banfield Place, CA",40.0866667,-122.6075000
"Bangle, CA",33.8244444,-118.2277778
"Bangor, CA",39.3886111,-121.4041667
"Bankhead Springs, CA",32.6497222,-116.2430556
"Banner, CA",33.0688889,-116.5452778
"Banner Crest, CA",39.2355556,-121.0180556
"Banning, CA",33.9255556,-116.8755556
"Bannister, CA",35.2655556,-119.0997222
"Bannock, CA",34.9366667,-114.8630556
"Banta, CA",37.7544444,-121.3697222
"Bar J Ranch, CA",38.6619444,-121.0097222
"Barber, CA",39.7147222,-121.8344444
"Barber City, CA",33.7588889,-118.0233333
"Bard, CA",32.7891667,-114.5552778
"Bardi, CA",37.7647222,-121.1641667
"Bardsdale, CA",34.3716667,-118.9319444
"Barlow, CA",38.4250000,-122.8575000
"Barnwell, CA",35.2930556,-115.2350000
"Baroda, CA",34.6866667,-120.5916667
"Barona, CA",32.9358333,-116.8672222
"Baronet Estates, CA",36.5630556,-121.7538889
"Barrett, CA",37.6400000,-120.2847222
"Barrett Junction, CA",32.6113889,-116.7063889
"Barro, CA",38.5261111,-122.4916667
"Barstow, CA",34.8986111,-117.0219444
"Barstow Heights, CA",34.8697222,-117.0552778
"Barsug, CA",34.9575000,-120.5719444
"Bartle, CA",41.2577778,-121.8200000
"Bartlett, CA",36.4766667,-118.0300000
"Bartlett Springs, CA",39.1838889,-122.7033333
"Bartolo, CA",34.0063889,-118.0613889
"Barton, CA",38.4547222,-120.5291667
"Basin, CA",35.0430556,-116.2941667
"Bass Lake, CA",37.3247222,-119.5652778
"Bass Lake Annex, CA",37.2713889,-119.5330556
"Bassett, CA",34.0497222,-117.9958333
"Bassetts, CA",39.6197222,-120.5863889
"Batavia, CA",38.4063889,-121.8586111
"Bateman Place, CA",40.6236111,-121.7375000
"Batto, CA",38.2836111,-122.4358333
"Baumberg, CA",37.6208333,-122.0991667
"Baxter, CA",39.2130556,-120.7800000
"Bay Park, CA",32.7816667,-117.2055556
"Bay Point, CA",38.0291667,-121.9605556
"Bay Shores, CA",33.6147222,-117.9100000
"Bayles Place, CA",40.1494444,-122.6405556
"Bayliss, CA",39.5827778,-122.0447222
"Bayo Vista, CA",38.0369444,-122.2602778
"Bayshore, CA",37.7063889,-122.4122222
"Bayside, CA",40.8425000,-124.0625000
"Bayside Village, CA",32.7813889,-117.2025000
"Bayview, CA",40.7727778,-124.1827778
"Bayview District, CA",37.7341667,-122.3902778
"Baywood Park, CA",35.3263889,-120.8341667
"Beachwood Trailer Park, CA",33.4666667,-117.6741667
"Beacon Station, CA",35.1325000,-116.2080556
"Beal Place, CA",40.5977778,-121.7486111
"Beall Place, CA",40.0275000,-123.8286111
"Bealville, CA",35.2722222,-118.6252778
"Bear Creek, CA",37.2972222,-120.4163889
"Bear River Pines, CA",39.1694444,-120.9669444
"Bear Valley, CA",38.4647222,-120.0388889
"Bear Valley Springs, CA",35.1591667,-118.6275000
"Beatrice, CA",40.6700000,-124.2013889
"Beatty Junction, CA",36.5880556,-116.9422222
"Beaumont, CA",33.9294444,-116.9763889
"Beckwourth, CA",39.8202778,-120.3777778
"Bee Rock, CA",35.7872222,-120.9380556
"Beegum, CA",40.3450000,-122.8569444
"Beeks Place, CA",33.8202778,-117.6377778
"Bel Air, CA",34.0833333,-118.4477778
"Bel Marin Keys, CA",38.0822222,-122.5136111
"Belden, CA",40.0061111,-121.2480556
"Belfast, CA",40.4436111,-120.4505556
"Belfort, CA",38.4163889,-119.2661111
"Bell, CA",33.9775000,-118.1861111
"Bell Gardens, CA",33.9652778,-118.1505556
"Bell Mountain, CA",34.6241667,-117.2061111
"Bell Springs, CA",39.9519444,-123.5841667
"Bella Vista, CA",40.6408333,-122.2313889
"Bella Vista Park, CA",39.2444444,-121.0497222
"Belle Haven, CA",37.4763889,-122.1583333
"Belle Monte, CA",37.5191667,-122.2958333
"Belleview, CA",40.5061111,-124.1197222
"Belleview Acres, CA",38.0158333,-120.2780556
"Bellevue, CA",38.4019444,-122.7125000
"Bellevue Heights, CA",34.5702778,-117.2797222
"Bellflower, CA",33.8816667,-118.1161111
"Bellota, CA",38.0530556,-121.0127778
"Belltown, CA",34.0116667,-117.3825000
"Bellvale, CA",37.3119444,-122.3200000
"Bellwood Estates, CA",38.0205556,-120.2997222
"Belmont, CA",37.5202778,-122.2747222
"Belmont Shore, CA",33.7572222,-118.1361111
"Belvedere, CA",37.8727778,-122.4633333
"Belvedere Heights, CA",33.9836111,-117.3100000
"Ben Ali, CA",38.6219444,-121.4213889
"Ben Hur, CA",37.3516667,-119.9566667
"Ben Lomond, CA",37.0891667,-122.0852778
"Bena, CA",35.3266667,-118.7388889
"Benbow, CA",40.0686111,-123.7833333
"Bend, CA",40.2552778,-122.2075000
"Benicia, CA",38.0494444,-122.1575000
"Benito, CA",36.8216667,-120.4352778
"Benton, CA",37.8191667,-118.4755556
"Benton Crossing, CA",37.6991667,-118.7630556
"Benton Hot Springs, CA",37.8002778,-118.5280556
"Berenda, CA",37.0402778,-120.1525000
"Berg, CA",39.1808333,-121.6263889
"Berkeley, CA",37.8716667,-122.2716667
"Bermuda Dunes, CA",33.7427778,-116.2883333
"Bermuda Palms Mobile Park, CA",33.7102778,-116.2538889
"Bern, CA",35.6891667,-120.5386111
"Berry Creek, CA",39.6452778,-121.4022222
"Berry Glenn, CA",41.3175000,-124.0400000
"Berryessa, CA",37.3863889,-121.8594444
"Berryessa Highlands, CA",38.5147222,-122.1866667
"Bertram, CA",33.3783333,-115.7825000
"Bestville, CA",41.3008333,-123.1419444
"Beswick, CA",41.9669444,-122.2019444
"Bethany Park, CA",37.0758333,-121.9919444
"Bethel Island, CA",38.0150000,-121.6394444
"Bethune, CA",34.0797222,-117.3058333
"Betteravia, CA",34.9177778,-120.5138889
"Betteravia Junction, CA",34.9275000,-120.5327778
"Beulah Park, CA",37.0113889,-122.0225000
"Beulah Picnic Ground, CA",32.8488889,-116.5497222
"Beveridge, CA",36.7044444,-117.9141667
"Beverly Glen, CA",34.1077778,-118.4447222
"Beverly Hills, CA",34.0736111,-118.3994444
"Bicknell, CA",34.8166667,-120.3922222
"Bieber, CA",41.1213889,-121.1430556
"Big Bar, CA",40.7411111,-123.2547222
"Big Bear City, CA",34.2611111,-116.8441667
"Big Bear Lake, CA",34.2438889,-116.9105556
"Big Bend, CA",41.0208333,-121.9100000
"Big Bunch, CA",36.7572222,-119.5372222
"Big Creek, CA",37.2050000,-119.2450000
"Big Lagoon, CA",41.1605556,-124.1325000
"Big Meadow, CA",38.4150000,-120.1141667
"Big Oak Flat, CA",37.8236111,-120.2572222
"Big Pine, CA",37.1650000,-118.2886111
"Big Pines, CA",34.3788889,-117.6891667
"Big River, CA",34.1400000,-114.3605556
"Big Rock Springs, CA",34.4352778,-117.8347222
"Big Springs, CA",41.5955556,-122.4038889
"Big Sur, CA",36.2702778,-121.8063889
"Big Trees, CA",38.2775000,-120.3094444
"Big Trees Village, CA",38.3097222,-120.2605556
"Big Valley, CA",38.1319444,-120.4269444
"Biggs, CA",39.4125000,-121.7116667
"Bijou, CA",38.9466667,-119.9675000
"Bijou Park, CA",38.9494444,-119.9577778
"Bingham, CA",33.8461111,-118.0583333
"Binghamton, CA",38.3513889,-121.8216667
"Binney Junction, CA",39.1575000,-121.5891667
"Biola, CA",36.8022222,-120.0152778
"Biola Junction, CA",36.8008333,-119.8677778
"Birch Meadow Acres, CA",39.1547222,-121.0244444
"Birchville, CA",39.3277778,-121.1433333
"Birds Landing, CA",38.1327778,-121.8697222
"Bishop, CA",37.3636111,-118.3941667
"Biskra Palms, CA",33.7900000,-116.2522222
"Bissell, CA",34.9947222,-118.0013889
"Bitney Corner, CA",39.2319444,-121.1077778
"Bitterwater, CA",36.3802778,-121.0016667
"Bivalve, CA",38.0925000,-122.8261111
"Bixby Knolls, CA",33.8355556,-118.1758333
"Bixler, CA",37.9402778,-121.6211111
"Black Butte, CA",41.3916667,-122.3600000
"Black Forest, CA",40.2591667,-121.3763889
"Black Jack Bluffs, CA",37.8897222,-120.5830556
"Black Meadow Landing, CA",34.3519444,-114.1969444
"Black Oak Estates, CA",38.0366667,-120.2269444
"Black Oaks, CA",38.8308333,-122.8313889
"Black Point, CA",38.1102778,-122.5044444
"Blackhawk, CA",37.8208333,-121.9066667
"Blackrock, CA",36.9291667,-118.2325000
"Blackslough Landing, CA",37.9944444,-121.4177778
"Blackwells Corner, CA",35.6150000,-119.8669444
"Blairsden, CA",39.7811111,-120.6155556
"Blakes Landing, CA",38.1944444,-122.9183333
"Blanchard, CA",37.7313889,-120.3244444
"Blanco, CA",36.6786111,-121.7416667
"Blavo, CA",39.5716667,-121.7322222
"Blocksburg, CA",40.2761111,-123.6352778
"Bloomfield, CA",38.3138889,-122.8500000
"Bloomington, CA",34.0702778,-117.3950000
"Blossom Valley, CA",32.8638889,-116.8597222
"Blue Canyon, CA",39.2572222,-120.7100000
"Blue Hills, CA",37.2880556,-122.0311111
"Blue Jay, CA",34.2461111,-117.2088889
"Blue Lake, CA",40.8830556,-123.9827778
"Blue Lake Junction, CA",38.2586111,-120.3305556
"Blue Lake Springs, CA",38.2597222,-120.3230556
"Blue Tent, CA",39.3102778,-120.9725000
"Bluegum, CA",39.5836111,-122.1922222
"Bluewater, CA",34.1744444,-114.2705556
"Blunt, CA",40.2419444,-122.2900000
"Bly, CA",33.9925000,-117.4938889
"Blythe, CA",33.6102778,-114.5955556
"Blythe Marina Mobile Estates, CA",33.6077778,-114.5338889
"Boal, CA",32.6136111,-117.0883333
"Boards Crossing, CA",38.3044444,-120.2330556
"Bob Hoaglin Place, CA",40.0944444,-123.3275000
"Boca, CA",39.3861111,-120.0930556
"Bodega, CA",38.3452778,-122.9727778
"Bodega Bay, CA",38.3333333,-123.0469444
"Bodfish, CA",35.5880556,-118.4911111
"Bodie, CA",38.2122222,-119.0111111
"Bogue, CA",39.0980556,-121.6238889
"Boiling Point, CA",34.5222222,-118.2613889
"Bolam, CA",41.5141667,-122.2480556
"Boles, CA",41.5391667,-121.0580556
"Bolinas, CA",37.9094444,-122.6852778
"Bollinger Place, CA",39.8436111,-122.8786111
"Bolsa, CA",33.7450000,-117.9541667
"Bolsa Knolls, CA",36.7338889,-121.6369444
"Bombay, CA",38.6869444,-121.4791667
"Bombay Beach, CA",33.3508333,-115.7288889
"Bonadelle Ranchos Five, CA",36.9930556,-119.9819444
"Bonadelle Ranchos Nine, CA",36.9600000,-119.7972222
"Bonanza Springs, CA",38.8644444,-122.6858333
"Bonds Corner, CA",32.6936111,-115.3363889
"Bonetti, CA",38.6747222,-120.4536111
"Bonilla, CA",38.2780556,-122.4366667
"Bonita, CA",32.6577778,-117.0291667
"Bonnefoy, CA",38.3605556,-120.7500000
"Bonnie Bell, CA",33.9491667,-116.6427778
"Bonnie View, CA",39.3825000,-122.6838889
"Bonny Doon, CA",37.0416667,-122.1494444
"Bonsall, CA",33.2888889,-117.2247222
"Boonville, CA",39.0091667,-123.3650000
"Bootjack, CA",37.4650000,-119.8855556
"Borden, CA",36.9300000,-120.0255556
"Bormister, CA",41.3552778,-120.5361111
"Boron, CA",34.9994444,-117.6488889
"Boronda, CA",36.6988889,-121.6738889
"Borosolvay, CA",35.7350000,-117.4008333
"Borrego, CA",33.2211111,-116.3333333
"Borrego Springs, CA",33.2558333,-116.3741667
"Boston Ravine, CA",39.2080556,-121.0686111
"Bostonia, CA",32.8075000,-116.9355556
"Boulder Bay, CA",34.2397222,-116.9455556
"Boulder Creek, CA",37.1261111,-122.1211111
"Boulder Oaks, CA",32.9572222,-116.9247222
"Boulder Park, CA",32.6588889,-116.1000000
"Boulevard, CA",32.6636111,-116.2727778
"Boulevard Gardens, CA",33.7269444,-117.9897222
"Bouquet Canyon, CA",34.4833000,-118.4286000
"Bouquet Junction, CA",34.4227778,-118.5397222
"Bowerbank, CA",35.3994444,-119.4075000
"Bowles, CA",36.6041667,-119.7500000
"Bowman, CA",38.9419444,-121.0463889
"Bowman Place, CA",39.7894444,-123.5616667
"Box Canyon, CA",34.2183000,-118.6278000
"Box Springs, CA",33.9466667,-117.2955556
"Boyers Landing, CA",38.9516667,-121.8380556
"Boyes Hot Springs, CA",38.3138889,-122.4808333
"Boyle Heights, CA",34.0338889,-118.2044444
"Boys Republic, CA",33.9969444,-117.7236111
"Bracken Brae, CA",37.1394444,-122.1427778
"Brackney, CA",37.0688889,-122.0811111
"Bracut, CA",40.8275000,-124.0822222
"Bradbury, CA",34.1469444,-117.9700000
"Bradley, CA",35.8633333,-120.7997222
"Bradys, CA",35.7022222,-117.8677778
"Bragur, CA",34.9352778,-120.5455556
"Brainard, CA",40.8122222,-124.1091667
"Bramlet Place, CA",40.2605556,-123.1619444
"Brandon Corner, CA",38.5858333,-120.9333333
"Brandy City, CA",39.5377778,-121.0241667
"Branscomb, CA",39.6536111,-123.6244444
"Brant, CA",35.2916667,-115.3697222
"Brawley, CA",32.9786111,-115.5294444
"Bray, CA",41.6441667,-121.9697222
"Brazos, CA",38.2083333,-122.3050000
"Brea, CA",33.9166667,-117.8991667
"Brea Chem, CA",33.9169444,-117.8683333
"Bredehoft Place, CA",39.7827778,-122.9383333
"Brela, CA",38.5752778,-120.9647222
"Brents Junction, CA",34.1483333,-118.6969444
"Brentwood, CA",37.9319444,-121.6947222
"Brentwood Heights, CA",34.0636111,-118.4738889
"Brentwood Park, CA",38.0450000,-120.2458333
"Bretz Mill, CA",37.0375000,-119.2388889
"Briarwood Canyon, CA",38.6750000,-121.0138889
"Briceburg, CA",37.6050000,-119.9658333
"Briceland, CA",40.1080556,-123.8988889
"Bridgehaven, CA",38.4336111,-123.0997222
"Bridgehead, CA",38.0050000,-121.7544444
"Bridgeport, CA",38.2558333,-119.2302778
"Bridgeville, CA",40.4694444,-123.7986111
"Briggs Terrace, CA",34.2408333,-118.2258333
"Brighton, CA",38.5494444,-121.4161111
"Brightside, CA",37.5991667,-121.9233333
"Brisbane, CA",37.6808333,-122.3988889
"Brito, CA",36.9925000,-120.7077778
"Broadmoor, CA",37.6866667,-122.4816667
"Broadmoor Village, CA",37.6900000,-122.4800000
"Broadview Farms, CA",36.8219444,-120.5058333
"Broadwell, CA",34.8738889,-116.1925000
"Brockman, CA",40.9638889,-120.4980556
"Brockmans Corner, CA",37.3761111,-118.4313889
"Brockway, CA",39.2266667,-120.0111111
"Brockway Vista, CA",39.2380556,-120.0141667
"Broderick, CA",38.5911111,-121.5161111
"Bromela, CA",35.0177778,-120.5827778
"Bronco, CA",39.3863889,-120.0216667
"Brookdale, CA",37.1063889,-122.1050000
"Brookhurst, CA",33.8444444,-117.9577778
"Brooklyn Heights, CA",34.0486111,-118.2111111
"Brooks, CA",38.7416667,-122.1469444
"Brooks Mill, CA",41.2794444,-120.3097222
"Brookshire, CA",37.7591667,-122.0272222
"Brooktrails, CA",39.4438889,-123.3841667
"Brown, CA",35.7736111,-117.8491667
"Brown Place, CA",40.0252778,-122.5886111
"Browning, CA",33.7333333,-117.8013889
"Browns Corner, CA",38.6777778,-121.8013889
"Browns Flat, CA",38.0038889,-120.3841667
"Browns Valley, CA",39.2422222,-121.4080556
"Brownsville, CA",39.4733333,-121.2680556
"Bruceville, CA",38.3358333,-121.4161111
"Brush Creek, CA",39.6905556,-121.3380556
"Bryants, CA",38.7188889,-120.4755556
"Bryman, CA",34.6747222,-117.3447222
"Bryn Mawr, CA",34.0483333,-117.2300000
"Bryson, CA",35.8066667,-121.0894444
"Bryte, CA",38.5947222,-121.5405556
"Buchanan, CA",37.9147222,-120.1875000
"Buchli, CA",38.2150000,-122.3316667
"Buck Meadows, CA",37.8127778,-120.0633333
"Buckeye, CA",38.9238889,-120.7969444
"Buckhorn, CA",34.4008333,-118.8147222
"Buckhorn Estates, CA",37.9533333,-120.2716667
"Buckingham Park, CA",39.0155556,-122.7569444
"Bucks Lake, CA",39.8708333,-121.1833333
"Bucks Lodge, CA",39.8755556,-121.1736111
"Bucksport, CA",40.7752778,-124.1911111
"Bucktail, CA",40.7041667,-122.8488889
"Bucktown, CA",38.3908333,-122.0230556
"Buellton, CA",34.6136111,-120.1916667
"Buena, CA",33.1733333,-117.2077778
"Buena Park, CA",33.8675000,-117.9972222
"Buena Vista, CA",38.2944444,-120.9122222
"Buffalo Hill, CA",38.9086111,-120.8463889
"Buhach, CA",37.3363889,-120.5808333
"Bull Creek, CA",40.3358333,-124.0252778
"Bullard, CA",38.6091667,-120.9602778
"Bully Hill, CA",40.7977778,-122.1919444
"Bumblebee, CA",38.2263889,-119.9961111
"Bummerville, CA",38.4013889,-120.5047222
"Bunker, CA",38.3508333,-121.7572222
"Bunker Hill, CA",38.4266667,-120.8272222
"Buntingville, CA",40.2858333,-120.4838889
"Burbank, CA",34.1808333,-118.3080556
"Burbank Junction, CA",34.1852778,-118.3172222
"Burbeck, CA",39.4300000,-123.4425000
"Burdell, CA",38.1580556,-122.5641667
"Burlingame, CA",37.5841667,-122.3650000
"Burlington, CA",40.3086111,-123.9080556
"Burness, CA",36.7650000,-119.6575000
"Burney, CA",40.8825000,-121.6597222
"Burnham, CA",37.8919444,-121.1477778
"Burnt Ranch, CA",40.8091667,-123.4730556
"Burr, CA",36.2452778,-119.1141667
"Burrel, CA",36.4883333,-119.9841667
"Burson, CA",38.1838889,-120.8894444
"Burton Mill, CA",35.5005556,-118.4061111
"Bush, CA",34.1500000,-115.7022222
"Butano Park, CA",37.2333333,-122.3261111
"Butler, CA",34.1325000,-117.9644444
"Butte City, CA",39.4647222,-121.9888889
"Butte Meadows, CA",40.0813889,-121.5500000
"Butte Street Junction, CA",34.0180556,-118.2308333
"Butterfield Lake Estates, CA",33.4800000,-116.9625000
"Buttonwillow, CA",35.4005556,-119.4686111
"Byron, CA",37.8672222,-121.6369444
"Bystrom, CA",37.6208333,-120.9847222
"Cabazon, CA",33.9175000,-116.7863889
"Cabin Cove, CA",36.4655556,-118.6530556
"Cable, CA",35.1691667,-118.4752778
"Cabrillo Village, CA",34.2741667,-119.1547222
"Cachuma Village, CA",34.5861111,-119.9900000
"Cactus, CA",32.8622222,-114.8961111
"Cactus City, CA",33.6783333,-115.9630556
"Cadenasso, CA",38.7144444,-122.1280556
"Cadiz, CA",34.5200000,-115.5119444
"Cadwell, CA",38.3583333,-122.7766667
"Cahuilla, CA",33.5408333,-116.7430556
"Cahuilla Hills, CA",33.6886111,-116.4155556
"Cain Rock, CA",40.1369444,-123.5916667
"Cairns Corner, CA",36.2125000,-119.1347222
"Cajon, CA",34.2988889,-117.4555556
"Cajon Junction, CA",34.3116667,-117.4738889
"Cal-Ida, CA",39.5261111,-121.0147222
"Calabasas, CA",34.1577778,-118.6375000
"Calabasas Highlands, CA",34.1308333,-118.6444444
"Calada, CA",35.5797222,-115.3705556
"Calaveritas, CA",38.1580556,-120.6088889
"Calavo Gardens, CA",32.7627778,-116.9602778
"Calders Corner, CA",35.3836111,-119.2502778
"Caldor, CA",38.6061111,-120.4316667
"Caldwell Pines, CA",38.8455556,-122.8069444
"Calexico, CA",32.6788889,-115.4980556
"Calexico Lodge, CA",32.6661111,-116.2800000
"Calflax, CA",36.3425000,-120.1019444
"Calgro, CA",36.4897222,-119.2847222
"Calico, CA",35.6327778,-119.2055556
"Caliente, CA",35.2911111,-118.6269444
"California City, CA",35.1258333,-117.9850000
"California Heights, CA",33.8266667,-118.1758333
"California Hot Springs, CA",35.8802778,-118.6727778
"California Pines, CA",41.4100000,-120.6780556
"California Valley, CA",35.3200000,-120.0058333
"Calimesa, CA",34.0038889,-117.0611111
"Calimesa Mobile Home Ranch, CA",33.9736111,-117.0361111
"Calipatria, CA",33.1255556,-115.5133333
"Calistoga, CA",38.5788889,-122.5786111
"Calla, CA",37.7758333,-121.1819444
"Callahan, CA",41.3097222,-122.8002778
"Callender, CA",35.0530556,-120.5952778
"Calneva, CA",40.1527778,-120.0077778
"Calpack, CA",37.2969444,-120.3511111
"Calpella, CA",39.2336111,-123.2027778
"Calpine, CA",39.6663889,-120.4386111
"Calvada Springs, CA",35.9683333,-115.8941667
"Calville, CA",40.9363889,-124.0991667
"Calwa, CA",36.7105556,-119.7575000
"Calzona, CA",34.1288889,-114.4102778
"Camanche Village, CA",38.2700000,-120.9722222
"Camarillo, CA",34.2163889,-119.0366667
"Cambria, CA",35.5641667,-121.0797222
"Cambria Pines, CA",35.5675000,-121.0930556
"Cambrian Park, CA",37.2569444,-121.9297222
"Cambridge Oaks, CA",38.6669444,-121.0025000
"Camden, CA",36.4311111,-119.7969444
"Camelot Hills, CA",33.7683333,-117.3352778
"Cameo, CA",36.7647222,-119.7022222
"Cameron, CA",35.0966667,-118.2966667
"Cameron Airpark Estates, CA",38.6811111,-120.9875000
"Cameron Corners, CA",32.6288889,-116.4702778
"Cameron Creek Colony, CA",36.3172222,-119.2038889
"Cameron Park, CA",38.6688889,-120.9861111
"Camino, CA",38.7383333,-120.6738889
"Camino Heights, CA",38.7327778,-120.7111111
"Camp Bartlett, CA",34.4280556,-119.1072222
"Camp Connell, CA",38.3094444,-120.2772222
"Camp Earnest, CA",38.0130556,-120.2250000
"Camp Eighteen, CA",39.6269444,-121.1691667
"Camp Evers, CA",37.0427778,-122.0238889
"Camp Klamath, CA",41.5405556,-124.0486111
"Camp Meeker, CA",38.4252778,-122.9583333
"Camp Nelson, CA",36.1427778,-118.6083333
"Camp Owens, CA",35.7686111,-118.4300000
"Camp Pardee, CA",38.2480556,-120.8433333
"Camp Pendola, CA",38.2147222,-120.1480556
"Camp Richardson, CA",38.9344444,-120.0391667
"Camp Rose, CA",38.6152778,-122.8300000
"Camp Sierra, CA",37.1905556,-119.2588889
"Camp Spaulding, CA",39.3191667,-120.6369444
"Camp Thayer, CA",38.4911111,-123.0625000
"Campana, CA",38.8841667,-120.5194444
"Campbell, CA",37.2872222,-121.9488889
"Campbell Hot Springs, CA",39.5750000,-120.3469444
"Campbellville, CA",40.0258333,-121.7219444
"Camphora, CA",36.4530556,-121.3700000
"Campland on the Bay Trailer Park, CA",32.7958333,-117.2233333
"Campo, CA",32.6063889,-116.4680556
"Campo Seco, CA",38.2272222,-120.8522222
"Camptonville, CA",39.4519444,-121.0475000
"Camulos, CA",34.4066667,-118.7558333
"Cana, CA",39.8402778,-121.9930556
"Canada Home Mobile Home Park, CA",37.4319444,-122.4263889
"Canby, CA",41.4438889,-120.8691667
"Canby Cross, CA",41.8188889,-121.5425000
"Canebrake, CA",35.7283333,-118.1375000
"Cannery Row, CA",36.6133333,-121.8966667
"Cannon, CA",38.3044444,-121.9461111
"Canoga Park, CA",34.2011111,-118.5972222
"Cantil, CA",35.3088889,-117.9675000
"Cantrall Mill, CA",41.3191667,-120.3263889
"Cantua Creek, CA",36.5013889,-120.3152778
"Canyon, CA",37.8316667,-122.1866667
"Canyon Acres, CA",33.5530556,-117.7716667
"Canyon City, CA",32.5950000,-116.5269444
"Canyon Country, CA",34.4233333,-118.4711111
"Canyon Crest Heights, CA",33.9805556,-117.3280556
"Canyon Lake, CA",33.6850000,-117.2722222
"Canyon View, CA",38.1925000,-120.3555556
"Canyondam, CA",40.1719444,-121.0716667
"Capay, CA",38.7077778,-122.0469444
"Cape Horn, CA",39.1291667,-120.9236111
"Capetown, CA",40.4663889,-124.3661111
"Capistrano Beach, CA",33.4625000,-117.6708333
"Capital Hill, CA",35.6277778,-120.6797222
"Capitan, CA",34.4633333,-120.0422222
"Capitola, CA",36.9752778,-121.9522222
"Caravan Mobile Home Park, CA",39.1269444,-123.1586111
"Carbona, CA",37.6961111,-121.4111111
"Carbondale, CA",38.4088889,-121.0058333
"Card Place, CA",39.8080556,-123.4036111
"Cardiff-by-the-Sea, CA",33.0216667,-117.2802778
"Carefree Mobile Village, CA",33.9238889,-116.5619444
"Caribou, CA",40.0805556,-121.1566667
"Carlotta, CA",40.5375000,-124.0594444
"Carlsbad, CA",33.1580556,-117.3497222
"Carlton, CA",33.9019444,-117.8363889
"Carlton Hills, CA",32.8527778,-116.9938889
"Carmel Highlands, CA",36.5041667,-121.9305556
"Carmel Valley, CA",36.4797222,-121.7313889
"Carmel Valley Manor, CA",36.5316667,-121.8250000
"Carmel Valley Village, CA",36.4861111,-121.7227778
"Carmel-by-the-Sea, CA",36.5552778,-121.9222222
"Carmen City, CA",38.0475000,-120.6897222
"Carmenita, CA",33.8913889,-118.0452778
"Carmet, CA",38.3744444,-123.0752778
"Carmichael, CA",38.6172222,-121.3272222
"Carnadero, CA",36.9763889,-121.5422222
"Carnelian Bay, CA",39.2269444,-120.0808333
"Carnelian Heights, CA",39.2097222,-120.1005556
"Carpenter, CA",37.6133333,-122.0433333
"Carpenter Place, CA",39.7347222,-122.9286111
"Carpinteria, CA",34.3988889,-119.5175000
"Carquinez Heights, CA",38.0763889,-122.2388889
"Carr, CA",34.9311111,-120.5108333
"Carrick, CA",41.4475000,-122.3627778
"Carrolton, CA",37.7986111,-121.0691667
"Carrville, CA",41.0650000,-122.7030556
"Carson, CA",33.8313889,-118.2811111
"Carson Hill, CA",38.0283333,-120.5055556
"Cartago, CA",36.3208333,-118.0255556
"Caruthers, CA",36.5427778,-119.8322222
"Carvin Creek Homesites, CA",39.6286111,-120.5769444
"Casa Blanca, CA",33.9330556,-117.4016667
"Casa Conejo, CA",34.1836111,-118.9425000
"Casa Loma, CA",39.2005556,-120.7755556
"Casa de Oro, CA",32.7488889,-116.9800000
"Casa del Norte Mobile Home Community, CA",34.2230556,-119.1033333
"Cascade, CA",39.7000000,-121.1772222
"Cascade Shores, CA",39.2650000,-120.9100000
"Cascadel Woods, CA",37.2305556,-119.4541667
"Casey Corner, CA",39.1972222,-121.1769444
"Casitas Mobile Home Park, CA",34.3711111,-119.3050000
"Casitas Springs, CA",34.3713889,-119.3055556
"Casmalia, CA",34.8380556,-120.5302778
"Caspar, CA",39.3636111,-123.8147222
"Cassel, CA",40.9191667,-121.5466667
"Castaic, CA",34.4888889,-118.6219444
"Castaic Junction, CA",34.4408333,-118.6055556
"Castella, CA",41.1386111,-122.3166667
"Castellammare, CA",34.0425000,-118.5602778
"Castle Crag, CA",41.1627778,-122.2908333
"Castle Gardens, CA",37.3566667,-120.5797222
"Castle Park, CA",32.6102778,-117.0666667
"Castle Rock Springs, CA",38.7702778,-122.7155556
"Castro City, CA",37.4025000,-122.1025000
"Castro Valley, CA",37.6941667,-122.0852778
"Castroville, CA",36.7658333,-121.7569444
"Caswell, CA",34.7222222,-118.7975000
"Cathedral City, CA",33.7797222,-116.4644444
"Catheys Valley, CA",37.4325000,-120.0969444
"Catlett, CA",38.8452778,-121.5375000
"Cave City, CA",38.2025000,-120.5075000
"Cavin, CA",34.3952778,-118.8486111
"Cawelo, CA",35.4994444,-119.1647222
"Cayton, CA",41.0619444,-121.6327778
"Cayucos, CA",35.4427778,-120.8911111
"Cazadero, CA",38.5333333,-123.0841667
"Cecile, CA",36.7008333,-119.7166667
"Cecilville, CA",41.1411111,-123.1388889
"Cedar Crest, CA",37.2450000,-119.2002778
"Cedar Glen, CA",34.2538889,-117.1638889
"Cedar Grove, CA",38.7527778,-120.6322222
"Cedar Mill, CA",39.9441667,-120.9222222
"Cedar Pines Vista, CA",38.0338889,-120.2255556
"Cedar Ridge, CA",39.1988889,-121.0200000
"Cedar Rock Lodge, CA",38.0216667,-120.2458333
"Cedar Slope, CA",36.1452778,-118.5775000
"Cedar Springs, CA",34.3505556,-117.8841667
"Cedar Stock, CA",40.8463889,-122.8286111
"Cedar Vista, CA",38.1694444,-120.4069444
"Cedarbrook, CA",36.7069444,-119.0072222
"Cedarpines Park, CA",34.2500000,-117.3250000
"Cedarville, CA",41.5291667,-120.1722222
"Cella, CA",36.6916667,-119.4538889
"Ceneda, CA",35.3544444,-117.8963889
"Centerville, CA",36.7338889,-119.4969444
"Centerville District, CA",37.5541667,-121.9980556
"Central, CA",38.3927778,-121.5719444
"Central Camp, CA",37.3494444,-119.4827778
"Centralia, CA",38.3202778,-121.2436111
"Century City, CA",34.0555556,-118.4169444
"Ceres, CA",37.5950000,-120.9566667
"Cerritos, CA",33.8583333,-118.0638889
"Cerro, CA",37.9916667,-122.5302778
"Cerro Villa Heights, CA",33.8266667,-117.8033333
"Chabot Terrace, CA",38.1472222,-122.2450000
"Chadbourne, CA",38.2438889,-122.0827778
"Chaffee, CA",35.0666667,-118.1702778
"Chalfant Valley, CA",37.5294444,-118.3625000
"Chalk Bank Landing, CA",41.9122222,-121.6416667
"Challenge, CA",39.4875000,-121.2225000
"Chamberlands Estates, CA",39.0694444,-120.1513889
"Chambers Lodge, CA",39.0733333,-120.1402778
"Chambless, CA",34.5613889,-115.5438889
"Champagne, CA",34.0344444,-117.5625000
"Champagne Fountain, CA",37.2758333,-122.0075000
"Chaney Ranch, CA",36.6558333,-120.5780556
"Channel Islands Beach, CA",34.1580556,-119.2222222
"Chaparral Heights, CA",38.0025000,-120.2508333
"Chapman, CA",34.1483333,-118.0825000
"Chapmantown, CA",39.7205556,-121.8155556
"Chappo, CA",33.2930556,-117.3611111
"Charter Oak, CA",34.1030556,-117.8450000
"Chase, CA",35.1838889,-115.5025000
"Chatsworth, CA",34.2572222,-118.6002778
"Chatsworth Lake Manor, CA",34.2408333,-118.6361111
"Cheeseville, CA",41.5211111,-122.8986111
"Chemeketa Park, CA",37.1625000,-121.9797222
"Chemurgic, CA",37.4641667,-120.9177778
"Cherokee, CA",39.3702778,-121.0419444
"Cherokee Strip, CA",35.4672222,-119.2597222
"Cherry Creek Acres, CA",39.1041667,-121.0816667
"Cherry Valley, CA",33.9725000,-116.9763889
"Cherryland, CA",37.6794444,-122.1022222
"Chester, CA",40.3063889,-121.2308333
"Chianti, CA",38.7372222,-122.9411111
"Chico, CA",39.7286111,-121.8363889
"Chilcoot, CA",39.7977778,-120.1386111
"Childs Meadows, CA",40.3602778,-121.4908333
"China Lake, CA",35.6508333,-117.6608333
"China Lake Acres, CA",35.6405556,-117.7630556
"Chinatown, CA",37.8000000,-122.2691667
"Chinese Camp, CA",37.8711111,-120.4322222
"Chino, CA",34.0122222,-117.6880556
"Chino Hills, CA",33.8936111,-117.7263889
"Chinowths Corner, CA",36.3269444,-119.3347222
"Chipps, CA",38.0513889,-121.9138889
"Chiquita, CA",38.6350000,-122.8733333
"Chiriaco Summit, CA",33.6608333,-115.7205556
"Chittenden, CA",36.9033333,-121.6072222
"Chloride City, CA",36.7066667,-116.8813889
"Cholame, CA",35.7238889,-120.2955556
"Chorro, CA",35.3266667,-120.6766667
"Chowchilla, CA",37.1230556,-120.2591667
"Chrisman, CA",34.2977778,-119.3011111
"Christensen, CA",41.2808333,-120.5675000
"Christie, CA",38.0030556,-122.2055556
"Chrome, CA",39.7291667,-122.5483333
"Chualar, CA",36.5705556,-121.5175000
"Chubbuck, CA",34.3650000,-115.2852778
"Chula Vista, CA",32.6400000,-117.0833333
"Cienega, CA",34.0211111,-118.3275000
"Cienega Seabreeze Mobile Home Park, CA",35.0969444,-120.6036111
"Cima, CA",35.2377778,-115.4983333
"Cimarron, CA",36.2986111,-119.8127778
"Cimarron Estates Mobile Home Park, CA",34.8644444,-120.4011111
"Cinco, CA",35.2633333,-118.0352778
"Cincotta, CA",36.7613889,-119.7536111
"Cisco, CA",39.3016667,-120.5458333
"Cisco Grove, CA",39.3100000,-120.5388889
"Citro, CA",36.3927778,-119.0236111
"Citrona, CA",38.6336111,-121.9702778
"Citrus, CA",34.1150000,-117.8908333
"Citrus Gardens Mobile Home Park, CA",33.1519444,-117.1180556
"Citrus Heights, CA",38.7072222,-121.2800000
"Citrus View, CA",32.9647222,-115.5650000
"City Ranch, CA",34.6017000,-118.1895000
"City Terrace, CA",34.0500000,-118.1819444
"Clair, CA",33.8066667,-117.9836111
"Clairemont, CA",32.7972222,-117.1916667
"Clam Beach, CA",40.9947222,-124.1108333
"Claraville, CA",35.4422222,-118.3286111
"Clare Mill, CA",39.4163889,-123.4269444
"Claremont, CA",34.0966667,-117.7188889
"Claribel, CA",37.7144444,-120.8244444
"Clarksburg, CA",38.4205556,-121.5261111
"Clarksville, CA",38.6550000,-121.0513889
"Clarsona, CA",38.3738889,-120.9825000
"Claus, CA",37.6866667,-120.9188889
"Claussenius, CA",38.8466667,-120.6127778
"Clay, CA",38.3361111,-121.1583333
"Clayton, CA",37.9411111,-121.9347222
"Clear Creek, CA",40.2980556,-121.0475000
"Clear Lake Keys, CA",39.0208333,-122.6613889
"Clear Lake Riviera, CA",38.9541667,-122.7197222
"Clearing House, CA",37.6650000,-119.8663889
"Clearlake, CA",38.9583333,-122.6252778
"Clearlake Highlands, CA",38.9555556,-122.6416667
"Clearlake Oaks, CA",39.0263889,-122.6708333
"Clearlake Park, CA",38.9666667,-122.6500000
"Clearwater, CA",33.8963889,-118.1591667
"Clement Junction, CA",34.0141667,-118.2377778
"Clements, CA",38.1908333,-121.0872222
"Cleone, CA",39.4900000,-123.7844444
"Cliff Haven, CA",33.6325000,-117.9147222
"Clifton, CA",33.8275000,-118.3788889
"Cliftwood Mobile Home Park, CA",36.9900000,-121.9386111
"Clima, CA",38.2494444,-122.0705556
"Clint, CA",36.4313889,-119.7725000
"Clinton, CA",38.3761111,-120.6672222
"Clio, CA",39.7433333,-120.5791667
"Clipper Gap, CA",38.9694444,-121.0163889
"Clipper Mills, CA",39.5327778,-121.1563889
"Clotho, CA",36.7213889,-119.6088889
"Clover Flat, CA",32.6619444,-116.4136111
"Cloverdale, CA",38.8055556,-123.0161111
"Clovis, CA",36.8252778,-119.7019444
"Clyde, CA",38.0255556,-122.0283333
"Coachella, CA",33.6802778,-116.1730556
"Coalinga, CA",36.1397222,-120.3591667
"Coarsegold, CA",37.2622222,-119.7000000
"Cobb, CA",38.8222222,-122.7219444
"Coburn, CA",36.2886111,-121.1516667
"Cochrane, CA",37.7311111,-121.3586111
"Cockatoo Grove, CA",32.6430556,-116.9830556
"Codora, CA",39.4588889,-122.0211111
"Coffee, CA",41.1030556,-122.7769444
"Coffee Creek, CA",41.0891667,-122.7077778
"Coffing, CA",38.4563889,-121.3180556
"Cohasset, CA",39.9255556,-121.7300000
"Cold Fork, CA",40.1719444,-122.6722222
"Cold Springs, CA",38.1625000,-120.0522222
"Cole, CA",42.0022222,-122.6391667
"Coleman, CA",39.1775000,-120.9747222
"Coleville, CA",38.5663889,-119.5061111
"Colfax, CA",39.1008333,-120.9522222
"Colfax Spring, CA",37.8208333,-120.0266667
"Colima, CA",33.9447222,-118.0127778
"Colina Vista, CA",33.4625000,-117.1152778
"College City, CA",39.0058333,-122.0083333
"College Heights, CA",34.1066667,-117.6883333
"College Park, CA",37.3422222,-121.8986111
"Collegeville, CA",37.9050000,-121.1463889
"Collierville, CA",38.2147222,-121.2677778
"Collins, CA",38.1658333,-122.2513889
"Collinsville, CA",38.0769444,-121.8488889
"Colma, CA",37.6769444,-122.4586111
"Coloma, CA",38.8000000,-120.8891667
"Colonia Juarez, CA",33.7125000,-117.9466667
"Colonia Manzanilla, CA",33.7605556,-117.9333333
"Colton, CA",34.0738889,-117.3127778
"Columbia, CA",38.0363889,-120.4002778
"Columbia Village, CA",38.0238889,-120.4005556
"Colusa, CA",39.2144444,-122.0083333
"Colusa Junction, CA",39.1477778,-121.6591667
"Cometa, CA",37.8566667,-120.9450000
"Commerce, CA",34.0005556,-118.1588889
"Community Center, CA",34.2691667,-118.7366667
"Como, CA",33.6988889,-117.7927778
"Comptche, CA",39.2650000,-123.5900000
"Compton, CA",33.8958333,-118.2191667
"Comstock Acres, CA",39.1591667,-120.1486111
"Comstock Ranch, CA",38.0500000,-120.2616667
"Conant, CA",41.1127778,-122.3244444
"Conaway, CA",38.6772222,-121.6719444
"Concepcion, CA",34.4536111,-120.4538889
"Concord, CA",37.9780556,-122.0300000
"Concow, CA",39.7458333,-121.4936111
"Conejo, CA",36.5183333,-119.7180556
"Conejo Valley Trailer Park, CA",34.1830556,-118.9061111
"Confederate Corners, CA",36.6447222,-121.6633333
"Confidence, CA",38.0475000,-120.2002778
"Coniston, CA",38.4150000,-121.5591667
"Conner, CA",35.1800000,-119.1150000
"Cooks Valley, CA",40.0013889,-123.7850000
"Cooley Landing, CA",37.4766667,-122.1205556
"Coolidge Springs, CA",33.3941667,-116.0494444
"Cooper, CA",39.2197222,-123.0030556
"Cooperstown, CA",37.7433333,-120.5436111
"Copco, CA",41.9833333,-122.3602778
"Copeland, CA",39.9555556,-122.0625000
"Copic, CA",41.8652778,-121.3408333
"Copper City, CA",39.7230556,-122.8083333
"Copper Cove Subdivision, CA",37.9269444,-120.6302778
"Copper Cove Village, CA",37.9597222,-120.6344444
"Copperopolis, CA",37.9811111,-120.6408333
"Coppervale, CA",40.3466667,-120.9038889
"Copple Place, CA",40.0086111,-122.6286111
"Coram, CA",40.7102778,-122.4402778
"Corcoran, CA",36.0980556,-119.5594444
"Cordelia, CA",38.2105556,-122.1347222
"Cordelia Junction, CA",38.2169444,-122.1386111
"Cordero Junction, CA",38.2877778,-121.9533333
"Cordova, CA",38.5102778,-121.4741667
"Cornell, CA",34.1144444,-118.7769444
"Corning, CA",39.9277778,-122.1780556
"Cornwall, CA",38.0205556,-121.8777778
"Coromar, CA",34.4341667,-119.8666667
"Corona, CA",33.8752778,-117.5655556
"Corona del Mar, CA",33.5980556,-117.8722222
"Coronado, CA",32.6858333,-117.1822222
"Coronado Gardens Mobile Home Park, CA",33.7013889,-116.2388889
"Corporal, CA",36.9297222,-121.5469444
"Corral de Tierra, CA",36.5700000,-121.7313889
"Corralitos, CA",36.9886111,-121.8052778
"Corriganville, CA",34.2675000,-118.6666667
"Corte Madera, CA",37.9255556,-122.5263889
"Cortena, CA",39.2191667,-122.1850000
"Cortez, CA",37.4752778,-120.7386111
"Cory, CA",39.7683333,-122.1486111
"Coso, CA",35.9783333,-117.9286111
"Coso Junction, CA",36.0450000,-117.9463889
"Costa Mesa, CA",33.6411111,-117.9177778
"Cosumne, CA",38.4925000,-121.1738889
"Cosy Dell, CA",34.2788889,-117.4527778
"Cota, CA",33.8394444,-118.2066667
"Cotati, CA",38.3269444,-122.7061111
"Cotners Corner, CA",34.4713889,-117.1708333
"Coto De Caza, CA",33.6041667,-117.5861111
"Cottage Corners, CA",36.8694444,-121.3994444
"Cottage Grove, CA",41.6027778,-123.5044444
"Cottage Springs, CA",38.3561111,-120.2108333
"Cotton Center, CA",36.0661111,-119.1419444
"Cottonwood, CA",40.3858333,-122.2797222
"Cougar, CA",41.5833333,-122.1841667
"Coulterville, CA",37.7105556,-120.1969444
"Counsman, CA",38.7494444,-121.4913889
"Country Club, CA",37.9688889,-121.3397222
"Country Manor Estates, CA",33.4813889,-117.1108333
"Country Mobile Estates, CA",34.4830556,-117.8300000
"Country Road Estates, CA",33.6027778,-117.0894444
"Country Villa Estates Mobile Home Park, CA",36.9855556,-121.9450000
"Courtland, CA",38.3311111,-121.5675000
"Covelo, CA",39.7930556,-123.2469444
"Covina, CA",34.0900000,-117.8894444
"Cow Creek, CA",38.2405556,-119.9911111
"Cowan Heights, CA",33.7777778,-117.7730556
"Cowell, CA",37.9527778,-121.9883333
"Cox, CA",33.8388889,-114.7719444
"Coyote, CA",37.2166667,-121.7394444
"Coyote Wells, CA",32.7386111,-115.9666667
"Coyoteville, CA",38.5513889,-120.6888889
"Cozzens Corner, CA",38.7011111,-122.9508333
"Crabtree, CA",36.8436111,-119.0888889
"Crabtree Place, CA",40.1536111,-123.3502778
"Crafton, CA",34.0630556,-117.1208333
"Craig, CA",39.3375000,-121.5630556
"Cranmore, CA",38.9880556,-121.8055556
"Crannell, CA",41.0119444,-124.0836111
"Crater, CA",37.2161111,-117.6863889
"Creed, CA",38.2433333,-121.8541667
"Creekside, CA",36.6105556,-121.6919444
"Crescent City, CA",41.7561111,-124.2005556
"Crescent Mills, CA",40.0966667,-120.9097222
"Crescent Ridge Village, CA",38.6533333,-121.0777778
"Cressey, CA",37.4197222,-120.6663889
"Crest, CA",32.8072222,-116.8672222
"Crest Park, CA",34.2338889,-117.1955556
"Cresta, CA",39.8436111,-121.4033333
"Crestline, CA",34.2419444,-117.2847222
"Crestmore, CA",34.0444444,-117.3952778
"Creston, CA",35.5188889,-120.5227778
"Crestview, CA",37.7525000,-118.9833333
"Crocker Place, CA",39.5569444,-123.0538889
"Crockett, CA",38.0525000,-122.2119444
"Croft, CA",38.5816667,-120.4336111
"Crolona Heights, CA",38.0547222,-122.2175000
"Cromberg, CA",39.8602778,-120.6905556
"Crome, CA",35.4416667,-119.1991667
"Cromir, CA",36.8044444,-120.4208333
"Cronese Valley, CA",35.1000000,-116.2725000
"Cross Roads, CA",34.2144444,-114.2150000
"Crowley, CA",39.4091667,-123.4244444
"Crown, CA",38.2666667,-122.6558333
"Crown Jewel, CA",34.0772222,-117.2091667
"Crown Village, CA",38.6952778,-121.0841667
"Crows Landing, CA",37.3938889,-121.0705556
"Crucero, CA",35.0472222,-116.1647222
"Crystal Cove, CA",33.5752778,-117.8405556
"Crystal Falls, CA",38.0202778,-120.2708333
"Crystal Lake, CA",39.3227778,-120.5691667
"Crystal Spring, CA",34.2333333,-118.1000000
"Crystalaire, CA",34.4900000,-117.7851000
"Cubbler Place, CA",39.7527778,-123.1486111
"Cudahy, CA",33.9605556,-118.1844444
"Cuesta Oaks, CA",38.0022222,-120.3844444
"Cuesta Serena, CA",37.9466667,-120.3850000
"Cuesta-by-the-Sea, CA",35.3183333,-120.8458333
"Culver City, CA",34.0211111,-118.3955556
"Culver Junction, CA",34.0283333,-118.3894444
"Cummings, CA",39.8333333,-123.6308333
"Cuna Vista Mobile Home Park, CA",35.0969444,-120.6019444
"Cunard, CA",38.8138889,-121.6847222
"Cunningham, CA",38.3625000,-122.7766667
"Cupertino, CA",37.3230556,-122.0311111
"Curlew, CA",32.9333333,-115.4047222
"Curry Village, CA",37.7369444,-119.5716667
"Curtis, CA",41.2005556,-121.7655556
"Curtis Creek Ranch, CA",37.9708333,-120.2911111
"Curtner, CA",37.4697222,-121.9225000
"Cushenbury, CA",34.3538889,-116.8575000
"Cushing, CA",35.4261111,-120.6030556
"Cutler, CA",36.5233333,-119.2858333
"Cutten, CA",40.7700000,-124.1416667
"Cuttings Wharf, CA",38.2266667,-122.3077778
"Cuyama, CA",34.9352778,-119.6141667
"Cygnus, CA",38.1527778,-122.0880556
"Cypave, CA",33.9194444,-118.3272222
"Cypress, CA",33.8169444,-118.0363889
"Cypress Grove, CA",33.9911111,-118.4202778
"Cypress Hill, CA",39.2286111,-121.0583333
"D Flourney, CA",41.2400000,-120.5313889
"Daggett, CA",34.8633333,-116.8872222
"Dagon, CA",38.3447222,-120.9602778
"Dairyland, CA",37.0183333,-120.3094444
"Dairyville, CA",40.1300000,-122.1200000
"Daisie, CA",38.3147222,-121.6427778
"Dales, CA",40.3138889,-122.0705556
"Dalton, CA",41.9363889,-121.4183333
"Daly City, CA",37.7058333,-122.4608333
"Dan Ryan Place, CA",41.1497222,-120.8161111
"Dana, CA",41.1116667,-121.5636111
"Dana Point, CA",33.4669444,-117.6972222
"Dana Point Marina Mobile Home Estates, CA",33.4655556,-117.6833333
"Danby, CA",34.6355556,-115.3472222
"Danielson, CA",38.2383333,-122.1038889
"Dantoni, CA",39.1650000,-121.5152778
"Dantuma Place, CA",40.2936111,-121.7988889
"Danville, CA",37.8216667,-121.9988889
"Daphnedale Park, CA",41.5091667,-120.5438889
"Dardanelle, CA",38.3411111,-119.8327778
"Darlington, CA",38.7291667,-120.4005556
"Darlingtonia, CA",41.8363889,-123.9419444
"Darrah, CA",37.5180556,-119.8341667
"Darwin, CA",36.2680556,-117.5908333
"Date City, CA",32.7930556,-115.3091667
"Daulton, CA",37.1191667,-119.9811111
"Davenport, CA",37.0116667,-122.1908333
"Davenport Landing, CA",37.0244444,-122.2147222
"Davis, CA",38.5450000,-121.7394444
"Davis Creek, CA",41.7333333,-120.3708333
"Dawes, CA",38.9491667,-123.0838889
"Dawson Place, CA",39.9238889,-122.7063889
"Day, CA",41.2116667,-121.3733333
"Day Valley, CA",37.0358333,-121.8613889
"Dayton, CA",39.6486111,-121.8711111
"Dayton Avenue, CA",34.0838889,-118.2216667
"De Anza Trailer Harbor, CA",32.7933333,-117.2150000
"De Anza Village, CA",33.9883333,-117.4525000
"De Luz, CA",33.4369444,-117.3236111
"De Luz Heights, CA",33.4311111,-117.2758333
"De Sabla, CA",39.8744444,-121.6113889
"DeCamp, CA",39.4402778,-123.3550000
"DeHaven, CA",39.6602778,-123.7838889
"DeLuz, CA",33.3588889,-117.2700000
"DeSabla, CA",39.8738889,-121.6016667
"Deacon Lee Place, CA",41.4808333,-122.9280556
"Deadwood, CA",39.7425000,-121.5236111
"Dean, CA",36.5208333,-121.4611111
"Dean Place, CA",39.2233333,-121.7800000
"Dearborn Park, CA",37.2588889,-122.3169444
"Death Valley Junction, CA",36.3022222,-116.4127778
"Declez, CA",34.0652778,-117.4836111
"Declezville, CA",34.0444444,-117.4805556
"Dedrick, CA",40.8627778,-123.0355556
"Deep Springs, CA",37.3716667,-117.9841667
"Deer Creek, CA",40.2600000,-121.3919444
"Deer Creek Colony, CA",35.9783333,-118.9991667
"Deer Creek Park, CA",39.2583333,-120.9461111
"Deer Crossing, CA",36.6900000,-119.0477778
"Deer Haven, CA",34.4083333,-117.5972222
"Deer Lake Highlands, CA",34.2838889,-118.5958333
"Deer Park, CA",38.5327778,-122.4686111
"Deer View, CA",38.8433333,-120.6666667
"Deetz, CA",41.3580556,-122.3822222
"Dehesa, CA",32.7813889,-116.8522222
"Del Aire, CA",33.9161111,-118.3686111
"Del Amo, CA",33.8463889,-118.2094444
"Del Dios, CA",33.0727778,-117.1183333
"Del Francia Mobile Estates, CA",34.4355556,-119.2794444
"Del Loma, CA",40.7786111,-123.3311111
"Del Mar, CA",32.9594444,-117.2644444
"Del Mar Heights, CA",32.9483333,-117.2600000
"Del Monte, CA",36.6008333,-121.8680556
"Del Monte Forest, CA",36.5863889,-121.9463889
"Del Monte Heights, CA",36.6116667,-121.8311111
"Del Paso, CA",38.6527778,-121.4722222
"Del Paso Heights, CA",38.6361111,-121.4191667
"Del Prado Bolsa, CA",33.7427778,-117.9838889
"Del Prado Mobile Park Club, CA",33.7763889,-117.9238889
"Del Ray, CA",33.9852778,-118.4244444
"Del Rey, CA",36.6591667,-119.5927778
"Del Rey Oaks, CA",36.5933333,-121.8338889
"Del Rio, CA",37.7436111,-121.0108333
"Del Rio Woods, CA",38.6230556,-122.8383333
"Del Rosa, CA",34.1488889,-117.2425000
"Del Sur, CA",34.6897222,-118.2877778
"Del Valle, CA",34.4194444,-118.6555556
"Delano, CA",35.7688889,-119.2461111
"Delevan, CA",39.3541667,-122.1900000
"Delft Colony, CA",36.5119444,-119.4450000
"Delhi, CA",37.4322222,-120.7775000
"Delleker, CA",39.8088889,-120.4969444
"Delmonico Place, CA",39.9755556,-123.3172222
"Delphos, CA",39.1902778,-122.1688889
"Delta, CA",33.9197222,-118.3208333
"Demuth, CA",41.3377778,-121.2650000
"Denair, CA",37.5263889,-120.7958333
"Denny, CA",40.9441667,-123.3855556
"Denverton, CA",38.2247222,-121.8963889
"Derby Acres, CA",35.2472222,-119.5944444
"Derner, CA",41.2991667,-120.5594444
"Des Moines, CA",33.9319444,-117.9669444
"Descanso, CA",32.8527778,-116.6150000
"Descanso Junction, CA",32.8411111,-116.6119444
"Desert Beach, CA",33.5127778,-115.9263889
"Desert Camp, CA",33.5336111,-115.9825000
"Desert Center, CA",33.7125000,-115.4013889
"Desert Groves Mobile Home Park, CA",33.6986111,-116.2388889
"Desert Heights, CA",34.2011111,-116.1408333
"Desert Hills Trailer Park, CA",33.7841667,-116.4780556
"Desert Hot Springs, CA",33.9611111,-116.5008333
"Desert Knolls, CA",34.5244444,-117.2644444
"Desert Lake, CA",35.0025000,-117.6980556
"Desert Lodge, CA",33.2105556,-116.3263889
"Desert Sands Mobile Home Park, CA",33.2552778,-116.3952778
"Desert Shores, CA",33.4041667,-116.0388889
"Desert View, CA",33.8013889,-116.6400000
"Desert View Highlands, CA",34.5908333,-118.1516667
"Desert View Housing Area, CA",34.8683333,-116.9638889
"Devil Canyon, CA",34.1977778,-117.3316667
"Devils Elbow, CA",39.3458333,-122.4277778
"Devon, CA",34.8419444,-120.5183333
"Devonshire, CA",37.5013889,-122.2827778
"Devore, CA",34.2163889,-117.4005556
"Devore Heights, CA",34.2372222,-117.4147222
"Dew Drop, CA",39.0872222,-121.0855556
"Dewitt, CA",38.0677778,-122.5386111
"Di Giorgio, CA",35.2527778,-118.8505556
"Diablo, CA",37.8350000,-121.9569444
"Diamond, CA",38.0216667,-121.8922222
"Diamond A Ranch Estates, CA",38.3041667,-122.5441667
"Diamond Bar, CA",34.0286111,-117.8094444
"Diamond Bar B Ranch, CA",37.9675000,-120.2819444
"Diamond Springs, CA",38.6947222,-120.8138889
"Dibble Place, CA",41.1894444,-120.8958333
"Dillard, CA",38.4013889,-121.2558333
"Dillon Beach, CA",38.2508333,-122.9641667
"Dinkey Creek, CA",37.0861111,-119.1566667
"Dinsmore, CA",40.4916667,-123.6058333
"Dinsmores, CA",40.7200000,-123.7377778
"Dinuba, CA",36.5433333,-119.3861111
"Dirigo, CA",41.1494444,-122.3094444
"Discovery Bay, CA",37.9086111,-121.5991667
"Ditch Camp Five, CA",38.7652778,-120.5472222
"Dixie, CA",40.9441667,-121.1708333
"Dixieland, CA",32.7908333,-115.7694444
"Dixon, CA",38.4455556,-121.8222222
"Dobbins, CA",39.3716667,-121.2050000
"Doble, CA",34.2986111,-116.8208333
"Dodge Place, CA",39.9038889,-121.6783333
"Dodgeland, CA",39.5447222,-121.9066667
"Dog Town, CA",38.1702778,-119.1963889
"Doghouse Junction, CA",32.6002778,-116.8402778
"Dogtown, CA",38.2138889,-121.0875000
"Dolanco Junction, CA",33.8450000,-118.2991667
"Dollar Point, CA",39.1880556,-120.0988889
"Dolley, CA",33.8655556,-118.0902778
"Dolomite, CA",36.5530556,-117.9444444
"Dolores, CA",33.8330556,-118.2255556
"Dominguez, CA",33.8347222,-118.2177778
"Dominguez Junction, CA",33.8633333,-118.2169444
"Donner, CA",39.3163889,-120.3311111
"Donner Lake Village, CA",39.3252778,-120.2847222
"Donner Pines Tract, CA",39.3291667,-120.2447222
"Donner Woods, CA",39.3180556,-120.2894444
"Dora Belle, CA",37.1127778,-119.3200000
"Dorr Place, CA",38.6205556,-123.0905556
"Dorrington, CA",38.3013889,-120.2761111
"Dorris, CA",41.9675000,-121.9169444
"Dos Cabezas, CA",32.7458333,-116.1394444
"Dos Palmas Corners, CA",33.9247222,-116.5011111
"Dos Palos, CA",36.9861111,-120.6255556
"Dos Palos Y, CA",37.0488889,-120.6344444
"Dos Rios, CA",39.7169444,-123.3522222
"Douds Landing, CA",38.2127778,-120.3244444
"Dougherty, CA",37.7111111,-121.9086111
"Douglas City, CA",40.6522222,-122.9436111
"Douglas Flat, CA",38.1144444,-120.4538889
"Douglas Junction, CA",33.8558333,-118.1638889
"Douglas Park, CA",41.7875000,-124.0616667
"Dove Canyon, CA",33.6316667,-117.5655556
"Dow, CA",35.5041667,-119.1716667
"Downey, CA",33.9400000,-118.1316667
"Downey Road, CA",33.9688889,-118.1052778
"Downieville, CA",39.5594444,-120.8258333
"Doyle, CA",40.0280556,-120.1027778
"Doyles Corner, CA",40.8775000,-121.5591667
"Dozier, CA",38.2855556,-121.8155556
"Drake, CA",34.4705556,-120.3027778
"Drakesbad, CA",40.4444444,-121.4033333
"Drawbridge, CA",37.4663889,-121.9738889
"Dresser, CA",37.5925000,-121.9547222
"Drytown, CA",38.4411111,-120.8533333
"Duarte, CA",34.1394444,-117.9763889
"Dublin, CA",37.7022222,-121.9347222
"Ducor, CA",35.8916667,-119.0463889
"Dudmore, CA",33.8566667,-118.3500000
"Dufour, CA",38.7619444,-121.8419444
"Dugan, CA",38.6044444,-120.9577778
"Dulah, CA",34.3125000,-119.3588889
"Dulzura, CA",32.6441667,-116.7805556
"Dumont, CA",35.6930556,-116.1750000
"Duncan Corners, CA",34.4705556,-117.3986111
"Duncan Springs, CA",38.9522222,-123.1236111
"Duncans Mills, CA",38.4538889,-123.0538889
"Dunderberg Mill, CA",38.1038889,-119.2494444
"Dunes, CA",32.7830556,-114.7963889
"Dunlap, CA",36.7383333,-119.1200000
"Dunlap Acres, CA",34.0311111,-117.1066667
"Dunlap Place, CA",39.8538889,-123.4308333
"Dunmovin, CA",36.0886111,-117.9602778
"Dunn, CA",35.0450000,-116.4369444
"Dunneville, CA",36.9405556,-121.4094444
"Dunnigan, CA",38.8852778,-121.9686111
"Dunsmuir, CA",41.2083333,-122.2708333
"Durham, CA",39.6463889,-121.7988889
"Durmid, CA",33.4308333,-115.8322222
"Dustin Acres, CA",35.2194444,-119.3897222
"Dutch Flat, CA",39.2061111,-120.8366667
"Dutch Village, CA",33.5966667,-117.1088889
"Dutton, CA",38.0761111,-121.8822222
"Dyer, CA",33.7100000,-117.8536111
"Eagle Mountain, CA",33.8575000,-115.4863889
"Eagle Ranch, CA",34.4777778,-117.4069444
"Eagle Rock, CA",34.1388889,-118.2130556
"Eagle Tree, CA",38.2013889,-121.5122222
"Eagles Nest, CA",33.2880556,-116.5933333
"Eagleville, CA",41.3163889,-120.1147222
"Earlimart, CA",35.8841667,-119.2713889
"Earp, CA",34.1647222,-114.3002778
"East Arboga, CA",39.0569444,-121.5505556
"East Arcadia, CA",34.1055556,-118.0166667
"East Biggs, CA",39.4152778,-121.6527778
"East Blythe, CA",33.6105556,-114.5730556
"East Colton Heights, CA",34.0483333,-117.2972222
"East Compton, CA",33.8980556,-118.1944444
"East Farmersville, CA",36.3016667,-119.1938889
"East Foothills, CA",37.3811111,-121.8163889
"East Garrison, CA",36.6530556,-121.7313889
"East Gridley, CA",39.3633333,-121.6608333
"East Hemet, CA",33.7400000,-116.9380556
"East Highlands, CA",34.1097222,-117.1697222
"East Irvine, CA",33.6758333,-117.7588889
"East La Mirada, CA",33.9244444,-117.9880556
"East Los Angeles, CA",34.0238889,-118.1711111
"East Nicolaus, CA",38.9102778,-121.5438889
"East Oakdale, CA",37.7880556,-120.8027778
"East Orosi, CA",36.5480556,-119.2597222
"East Palo Alto, CA",37.4688889,-122.1400000
"East Pasadena, CA",34.1461111,-118.0933333
"East Petaluma, CA",38.2400000,-122.6330556
"East Pleasanton, CA",37.6736111,-121.8288889
"East Porterville, CA",36.0575000,-118.9747222
"East Quincy, CA",39.9341667,-120.8969444
"East Richmond, CA",37.9436111,-122.3141667
"East Richmond Heights, CA",37.9450000,-122.3125000
"East San Diego, CA",32.7494444,-117.1091667
"East Shore, CA",40.2366667,-121.0761111
"East Side, CA",38.1352778,-121.2422222
"East Sonora, CA",37.9777778,-120.3602778
"East Village, CA",35.5663889,-121.0777778
"East Whittier, CA",33.9633333,-118.0172222
"East Windsor, CA",38.5441667,-122.8008333
"Easter Cross, CA",32.8397222,-117.2436111
"Eastlake, CA",32.6597222,-116.9780556
"Eastlake Greens, CA",32.6433333,-116.9616667
"Eastman Place, CA",40.5113889,-121.7313889
"Easton, CA",36.6502778,-119.7897222
"Eastport, CA",37.8397222,-122.1794444
"Ebbetts Pass Highlands, CA",38.2086111,-120.3686111
"Eberly, CA",37.5725000,-121.9922222
"Echo, CA",35.3008333,-116.8041667
"Echo Lake, CA",38.8338889,-120.0405556
"Echo Ridge Estates, CA",39.2472222,-121.0500000
"Echo Ridge Trails, CA",39.2472222,-121.0555556
"Eckley, CA",38.0538889,-122.2016667
"Eden, CA",33.8780556,-117.0541667
"Eden Gardens, CA",32.9872222,-117.2572222
"Eden Hot Springs, CA",33.8955556,-117.0544444
"Edendale, CA",38.4850000,-123.0016667
"Edenvale, CA",37.2650000,-121.8169444
"Eder, CA",39.2997222,-120.2913889
"Edgar, CA",32.7888889,-115.7325000
"Edgemar, CA",37.6538889,-122.4897222
"Edgemont, CA",33.9202778,-117.2777778
"Edgewood, CA",41.4583333,-122.4305556
"Edison, CA",35.3475000,-118.8708333
"Edmiston, CA",36.7788889,-119.5394444
"Edmundson Acres, CA",35.2288889,-118.8222222
"Edna, CA",35.2038889,-120.6119444
"Edom, CA",33.8069444,-116.3902778
"Edwards, CA",34.9261111,-117.9341667
"Edwin, CA",38.3786111,-120.9866667
"Egan, CA",33.7322222,-117.0111111
"Eileen, CA",41.9630556,-123.1041667
"El Bonita, CA",38.5122222,-122.9827778
"El Cajon, CA",32.7947222,-116.9616667
"El Camino, CA",40.0411111,-122.1694444
"El Camino 76 Trailer Park, CA",33.2291667,-117.3327778
"El Campo, CA",37.8975000,-122.4641667
"El Casco, CA",33.9811111,-117.1175000
"El Centro, CA",32.7919444,-115.5622222
"El Cerrito, CA",37.9158333,-122.3105556
"El Dorado, CA",38.6827778,-120.8466667
"El Dorado Hills, CA",38.6858333,-121.0811111
"El Encano Heights, CA",34.4369444,-119.8836111
"El Granada, CA",37.5027778,-122.4683333
"El Granada Mobile Home Park, CA",37.5086111,-122.4983333
"El Macero, CA",38.5469444,-121.6930556
"El Merrie Dell, CA",34.2952778,-118.3777778
"El Mirador, CA",36.1777778,-119.0175000
"El Mirage, CA",34.6022222,-117.6302778
"El Modena, CA",33.7877778,-117.8086111
"El Monte, CA",34.0686111,-118.0266667
"El Moro Beach Mobile Home Park, CA",33.5633333,-117.8208333
"El Nido, CA",37.1350000,-120.4911111
"El Pinal, CA",37.9805556,-121.2811111
"El Portal, CA",37.6747222,-119.7830556
"El Rancho Mobile Home Park, CA",33.8875000,-118.1908333
"El Rio, CA",34.2322222,-119.1716667
"El Rio Villa, CA",38.5347222,-121.9430556
"El Rita, CA",35.2175000,-118.5555556
"El Roble, CA",39.0897222,-123.1797222
"El Segundo, CA",33.9191667,-118.4155556
"El Sereno, CA",34.0811111,-118.1769444
"El Sereno Estates Mobile Home Park, CA",34.4341667,-119.2941667
"El Sobrante, CA",37.9772222,-122.2941667
"El Sueno, CA",34.4436111,-119.7702778
"El Toro, CA",33.6469444,-117.6827778
"El Toro Mobile Home Estates, CA",33.6202778,-117.6922222
"El Verano, CA",38.2977778,-122.4905556
"Elayon, CA",34.3644444,-118.5225000
"Elba, CA",36.2311111,-119.3122222
"Elders Corner, CA",38.9566667,-121.1000000
"Elderwood, CA",36.4716667,-119.1213889
"Eldridge, CA",38.3488889,-122.5097222
"Eldton, CA",37.7261111,-122.4483333
"Electra, CA",38.3322222,-120.6702778
"Elfin Forest, CA",33.0736111,-117.1633333
"Elftman, CA",33.8402778,-118.2222222
"Elk, CA",39.1302778,-123.7166667
"Elk Creek, CA",39.6052778,-122.5380556
"Elk Grove, CA",38.4088889,-121.3705556
"Elk River, CA",40.7363889,-124.1730556
"Elkhorn, CA",36.8244444,-121.7394444
"Ellicott, CA",36.9216667,-121.8358333
"Elliott Corner, CA",37.4627778,-119.7736111
"Ellis, CA",33.7719444,-117.2183333
"Ellis Place, CA",36.5211111,-119.0180556
"Ellwood, CA",34.4316667,-119.8869444
"Elm View, CA",36.5475000,-119.7902778
"Elmco, CA",35.9925000,-119.0419444
"Elmira, CA",38.3483333,-121.9088889
"Elmo, CA",35.6794444,-119.3294444
"Elmore Desert Ranch, CA",33.1036111,-115.7997222
"Elora, CA",35.1380556,-115.5280556
"Elsa, CA",36.2508333,-121.1377778
"Elsey, CA",39.6075000,-121.5933333
"Elvas, CA",38.5833333,-121.4475000
"Elverta, CA",38.7138889,-121.4616667
"Elvira, CA",32.8375000,-117.2325000
"Embarcadero, CA",38.2400000,-122.4486111
"Emerald Bay, CA",38.9600000,-120.0969444
"Emerald Lake, CA",37.4666667,-122.2619444
"Emerald Lake Hills, CA",37.4647222,-122.2669444
"Emeryville, CA",37.8313889,-122.2841667
"Emigrant Gap, CA",39.2969444,-120.6716667
"Emmaton, CA",38.0802778,-121.7311111
"Empire, CA",37.6383333,-120.9011111
"Encanto, CA",32.7119444,-117.0494444
"Enchanted Hills, CA",38.3830556,-122.4250000
"Encinal, CA",39.2155556,-121.6605556
"Encinitas, CA",33.0369444,-117.2911111
"Encino, CA",34.1591667,-118.5002778
"Engineer Springs, CA",32.6280556,-116.7641667
"Englewood, CA",40.3966667,-123.9377778
"English Town, CA",37.1794444,-121.8380556
"Eniwetok Housing Area, CA",34.8716667,-116.9622222
"Ennis, CA",34.0094444,-117.4286111
"Ensley, CA",38.8075000,-121.6716667
"Enson, CA",36.5591667,-119.3741667
"Enterprise, CA",38.5402778,-120.8461111
"Epworth, CA",34.3150000,-118.8911111
"Equestrian Village, CA",38.7233333,-121.0736111
"Erickson, CA",41.6502778,-122.1133333
"Escalle, CA",37.9433333,-122.5438889
"Escalon, CA",37.7975000,-120.9955556
"Escondido, CA",33.1191667,-117.0855556
"Escondido Junction, CA",33.1816667,-117.3677778
"Escondido Village, CA",37.4263889,-122.1541667
"Esparto, CA",38.6922222,-122.0161111
"Esperanza, CA",33.8755556,-117.7558333
"Esquon, CA",39.6058333,-121.7658333
"Essex, CA",34.7336111,-115.2441667
"Estelle, CA",33.1763889,-115.5077778
"Estrella, CA",35.7055556,-120.6091667
"Estrellita, CA",40.8594444,-122.7897222
"Etheda Springs, CA",36.6941667,-119.0063889
"Etiwanda, CA",34.1261111,-117.5227778
"Etna, CA",41.4569444,-122.8936111
"Ettawa Springs, CA",38.8511111,-122.6950000
"Ettersburg, CA",40.1386111,-123.9961111
"Eucalyptus Hills, CA",32.8797222,-116.9458333
"Eugene, CA",37.8930556,-120.8458333
"Eureka, CA",40.8022222,-124.1625000
"Evans Place, CA",41.0600000,-120.2286111
"Evelyn, CA",36.1466667,-116.3152778
"Everglade, CA",38.9825000,-121.7663889
"Evergreen, CA",37.3097222,-121.7825000
"Evergreen Estates, CA",39.2436111,-121.0441667
"Exeter, CA",36.2961111,-119.1411111
"Facht Place, CA",40.2425000,-121.9622222
"Fagan, CA",39.3361111,-121.6825000
"Fair Oaks, CA",38.6447222,-121.2711111
"Fair Oaks Ranch, CA",34.4265000,-118.4223000
"Fair Play, CA",38.5936111,-120.6594444
"Fairbanks, CA",38.8658333,-120.6691667
"Fairfax, CA",37.9872222,-122.5877778
"Fairfield, CA",38.2494444,-122.0388889
"Fairhaven, CA",40.7852778,-124.2016667
"Fairmead, CA",37.0763889,-120.1919444
"Fairmont, CA",34.7347222,-118.4238889
"Fairoaks, CA",35.1186111,-120.6013889
"Fairport, CA",41.9852778,-120.3208333
"Fairview, CA",37.6786111,-122.0447222
"Fairville, CA",38.1780556,-122.4444444
"Fairway Acres, CA",37.9675000,-120.4027778
"Fairway Park, CA",37.6208333,-122.4872222
"Fales Hot Springs, CA",38.3511111,-119.3991667
"Fall River Mills, CA",41.0047222,-121.4372222
"Fallbrook, CA",33.3763889,-117.2502778
"Fallbrook Junction, CA",33.2233333,-117.3933333
"Fallen Leaf, CA",38.8830556,-120.0716667
"Falling Springs, CA",34.3016667,-117.8383333
"Fallon, CA",38.2747222,-122.9047222
"False Klamath, CA",41.5919444,-124.0941667
"Famoso, CA",35.5980556,-119.2072222
"Fane, CA",36.3700000,-119.1336111
"Faria, CA",34.3180556,-119.3866667
"Farley, CA",39.6147222,-123.3661111
"Farmersville, CA",36.2977778,-119.2058333
"Farmington, CA",37.9300000,-120.9991667
"Farr, CA",33.1302778,-117.3286111
"Farwell, CA",37.5983333,-121.9441667
"Favinger Place, CA",40.0447222,-121.9763889
"Fawnskin, CA",34.2680556,-116.9416667
"Fayette, CA",36.2019444,-119.0638889
"Feather Falls, CA",39.5933333,-121.2552778
"Feather River Inn, CA",39.7905556,-120.6286111
"Feather River Park, CA",39.7783333,-120.6286111
"Felix, CA",38.0283333,-120.7147222
"Fellows, CA",35.1786111,-119.5402778
"Felton, CA",37.0513889,-122.0722222
"Femmons, CA",37.9383333,-120.0213889
"Fenner, CA",34.8158333,-115.1783333
"Fergus, CA",37.3194444,-120.5372222
"Fern, CA",40.6883333,-121.9305556
"Fern Ann Falls, CA",34.2847222,-118.6155556
"Fern Valley, CA",33.7586111,-116.6972222
"Fernbridge, CA",40.6163889,-124.2000000
"Fernbrook, CA",32.9680556,-116.9108333
"Ferndale, CA",40.5763889,-124.2627778
"Fernwood, CA",40.8691667,-123.8494444
"Ferrum, CA",33.4586111,-115.8600000
"Fetters Hot Springs, CA",38.3200000,-122.4850000
"Fickle Hill, CA",40.8638889,-124.0416667
"Fiddlers Green, CA",39.7288889,-122.7141667
"Fiddletown, CA",38.5038889,-120.7544444
"Fieldbrook, CA",40.9658333,-124.0344444
"Fields Landing, CA",40.7247222,-124.2138889
"Fiesta Shores, CA",32.7822222,-117.2197222
"Fig Orchard, CA",35.3086111,-118.5816667
"Figarden, CA",36.8227778,-119.8613889
"Fillmore, CA",34.3991667,-118.9172222
"Fine Gold, CA",37.1908333,-119.6177778
"Finley, CA",39.0044444,-122.8744444
"Finley Place, CA",40.2933333,-121.7919444
"Firebaugh, CA",36.8588889,-120.4550000
"Firebrick, CA",38.3344444,-120.9241667
"Firestone Park, CA",33.9630556,-118.2316667
"Fish Camp, CA",37.4786111,-119.6394444
"Fish Rock, CA",38.8050000,-123.5841667
"Fish Springs, CA",37.0750000,-118.2527778
"Fishel, CA",34.3125000,-115.2413889
"Fisher, CA",40.9416667,-124.1172222
"Fisher Place, CA",38.2352778,-120.4497222
"Five Brooks, CA",38.0011111,-122.7566667
"Five Corners, CA",37.8269444,-121.1430556
"Five Mile Terrace, CA",38.7383333,-120.7119444
"Five Points, CA",36.4294444,-120.1019444
"Fizzben Heights, CA",34.4213889,-117.0894444
"Flamingo Heights, CA",34.2405556,-116.4380556
"Fleener Place, CA",41.8477778,-121.5894444
"Fleetridge, CA",32.7277778,-117.2472222
"Fleta, CA",35.0033333,-118.1572222
"Fletcher Place, CA",41.7375000,-120.5136111
"Flinn Springs, CA",32.8550000,-116.8516667
"Flonellis, CA",38.5694444,-120.9636111
"Florence, CA",33.9744444,-118.2472222
"Florin, CA",38.4961111,-121.4077778
"Floriston, CA",39.3947222,-120.0202778
"Flosden Acres, CA",38.1363889,-122.2511111
"Flourney, CA",41.2350000,-120.2972222
"Flournoy, CA",39.9205556,-122.4350000
"Floyd, CA",36.7350000,-119.9919444
"Fluhr, CA",37.3627778,-120.5766667
"Flumeville, CA",38.9294444,-123.7086111
"Fly-In Acres, CA",38.2319444,-120.3361111
"Flynn, CA",34.9786111,-115.7313889
"Folsom, CA",38.6780556,-121.1750000
"Folsom Junction, CA",38.6683333,-121.1811111
"Fondo, CA",33.1113889,-115.6236111
"Fontana, CA",34.0922222,-117.4341667
"Fontenay Villa, CA",37.0811111,-121.9730556
"Foothill Farms, CA",38.6763889,-121.3352778
"Foothill Ranch, CA",33.6863889,-117.6600000
"Foothills of San Marcos Mobile Home Park, CA",33.1527778,-117.1377778
"Foppiano, CA",38.0219444,-121.2402778
"Forbestown, CA",39.5172222,-121.2661111
"Ford City, CA",35.1544444,-119.4552778
"Forebay, CA",39.2366667,-120.7355556
"Forest, CA",39.4913889,-120.8519444
"Forest Falls, CA",34.0883333,-116.9194444
"Forest Glen, CA",40.3733333,-123.3241667
"Forest Hills, CA",38.5080556,-122.9233333
"Forest Knolls, CA",38.0152778,-122.6875000
"Forest Lake, CA",38.8180556,-122.7166667
"Forest Meadows, CA",38.1680556,-120.4044444
"Forest Park, CA",34.4472222,-118.4277778
"Forest Ranch, CA",39.8822222,-121.6716667
"Forest Springs, CA",37.1388889,-122.1477778
"Foresta, CA",37.6983333,-119.7541667
"Foresthill, CA",39.0202778,-120.8169444
"Forestville, CA",38.4736111,-122.8891667
"Fornis, CA",38.8925000,-120.8602778
"Fort Bidwell, CA",41.8605556,-120.1502778
"Fort Bragg, CA",39.4458333,-123.8041667
"Fort Dick, CA",41.8680556,-124.1477778
"Fort Goff, CA",41.8622222,-123.2555556
"Fort Irwin, CA",35.2627778,-116.6838889
"Fort Jones, CA",41.6077778,-122.8391667
"Fort McDowell, CA",37.8627778,-122.4216667
"Fort Romie, CA",36.4002778,-121.3452778
"Fort Roosevelt, CA",36.3175000,-119.6569444
"Fort Rosecrans, CA",32.6841667,-117.2452778
"Fort Ross, CA",38.5141667,-123.2425000
"Fort Seward, CA",40.2230556,-123.6422222
"Fort Winfield Scott, CA",37.8016667,-122.4725000
"Fortuna, CA",40.5983333,-124.1561111
"Foster, CA",32.9083333,-116.9252778
"Foster City, CA",37.5586111,-122.2700000
"Foster Park, CA",34.3527778,-119.3041667
"Fountain Place, CA",38.8511111,-119.9330556
"Fountain Springs, CA",35.8911111,-118.9147222
"Fountain Valley, CA",33.7091667,-117.9527778
"Four Acres, CA",39.0086111,-120.7875000
"Four Corners, CA",32.9777778,-116.7763889
"Four Pines, CA",39.6100000,-123.0116667
"Four Points, CA",34.5425000,-118.0291667
"Fourth Crossing, CA",38.1313889,-120.6336111
"Fouts Springs, CA",39.3533333,-122.6638889
"Fowler, CA",36.6305556,-119.6775000
"Fowler Place, CA",40.2022222,-122.5594444
"Frances, CA",33.7119444,-117.7636111
"Franciscan Village, CA",38.7069444,-121.0805556
"Franklin, CA",38.3791667,-121.4533333
"Frazier Corners, CA",40.6375000,-122.2355556
"Frazier Park, CA",34.8227778,-118.9438889
"Fraziers Landing, CA",39.0050000,-121.8180556
"Freda, CA",34.1022222,-114.9097222
"Fredalba, CA",34.2016667,-117.1313889
"Fredericks, CA",38.3736111,-122.7936111
"Fredericksburg, CA",38.8288889,-119.7858333
"Freedom, CA",36.9352778,-121.7719444
"Freeport, CA",38.4619444,-121.5005556
"Freestone, CA",38.3725000,-122.9144444
"Fremont, CA",37.5483333,-121.9875000
"French Camp, CA",37.8841667,-121.2700000
"French Corral, CA",39.3061111,-121.1602778
"French Gulch, CA",40.7008333,-122.6372222
"French Hill, CA",41.8250000,-123.9713889
"Frenchtown, CA",38.6413889,-120.9102778
"Fresh Pond, CA",38.7602778,-120.5288889
"Freshwater, CA",40.7616667,-124.0605556
"Freshwater Corners, CA",40.7855556,-124.0841667
"Fresno, CA",36.7477778,-119.7713889
"Fresno Crossing, CA",37.2372222,-119.7741667
"Friant, CA",36.9877778,-119.7108333
"Friend Place, CA",40.4858333,-123.3625000
"Friendly Hills, CA",33.9536111,-118.0027778
"Friendly Valley, CA",34.3803000,-118.5198000
"Friendly Village Mobile Home Park, CA",34.2766667,-118.8019444
"Frink, CA",33.3625000,-115.6472222
"Frost, CA",34.5108333,-117.2766667
"Fruitdale, CA",32.6016667,-117.0916667
"Fruitland, CA",40.2958333,-123.8241667
"Fruitridge Manor, CA",38.5250000,-121.4411111
"Fruitvale, CA",35.3833333,-119.0822222
"Fruto, CA",39.5900000,-122.4488889
"Fuchs, CA",38.3475000,-120.4550000
"Fuller, CA",32.8602778,-115.4052778
"Fuller Acres, CA",35.3000000,-118.9108333
"Fullerton, CA",33.8702778,-117.9244444
"Fulton, CA",38.4963889,-122.7688889
"Fulton Wells, CA",33.9427778,-118.0816667
"Furnace Creek, CA",36.4580556,-116.8700000
"Gabilan Acres, CA",36.7552778,-121.6183333
"Gage, CA",33.9752778,-118.1258333
"Gale, CA",34.8561111,-116.8413889
"Galivan, CA",33.5694444,-117.6730556
"Gallaway, CA",38.8691667,-123.6522222
"Gallinas, CA",38.0202778,-122.5241667
"Galt, CA",38.2547222,-121.2988889
"Ganns, CA",38.4044444,-120.1580556
"Garberville, CA",40.1002778,-123.7938889
"Garden Acres, CA",37.9638889,-121.2283333
"Garden Farms, CA",35.4180556,-120.6052778
"Garden Grove, CA",33.7738889,-117.9405556
"Garden Valley, CA",38.8541667,-120.8583333
"Gardena, CA",33.8883333,-118.3080556
"Gardenland, CA",38.6111111,-121.4738889
"Garey, CA",34.8886111,-120.3138889
"Garlock, CA",35.4025000,-117.7891667
"Garnet, CA",33.9019444,-116.5447222
"Garnsey, CA",34.1686111,-118.4011111
"Garvanza, CA",34.1163889,-118.1794444
"Gas Point, CA",40.4155556,-122.5333333
"Gasquet, CA",41.8455556,-123.9683333
"Gaston, CA",39.3941667,-120.7405556
"Gate Place, CA",39.9291667,-120.5766667
"Gateley, CA",38.0072222,-122.3088889
"Gateway, CA",39.3261111,-120.2025000
"Gato, CA",34.4575000,-120.3766667
"Gavilan Hills, CA",33.7844444,-117.3683333
"Gaviota, CA",34.4716667,-120.2138889
"Gazelle, CA",41.5208333,-122.5191667
"Gelatt, CA",39.3211111,-120.2902778
"Gemco, CA",34.2091667,-118.4366667
"Genes Mobile Home Park, CA",37.3647222,-118.4238889
"Genesee, CA",40.0430556,-120.7527778
"Genevra, CA",39.0700000,-122.0905556
"Georgetown, CA",38.9069444,-120.8375000
"Gepford, CA",36.3983333,-119.8083333
"Gerber, CA",40.0563889,-122.1491667
"Geyserville, CA",38.7077778,-122.9013889
"Giant, CA",37.9905556,-122.3561111
"Gibbs Ranch, CA",37.9883333,-120.4044444
"Gibson, CA",41.0119444,-122.4077778
"Gibsonville, CA",39.7402778,-120.9077778
"Giffen Cantua Ranch, CA",36.4747222,-120.3913889
"Gilberts, CA",38.6369444,-120.4916667
"Gillete, CA",36.1738889,-119.0352778
"Gilliam Place, CA",40.1372222,-122.5869444
"Gillis, CA",37.9341667,-121.3819444
"Gilman Hot Springs, CA",33.8358333,-116.9880556
"Gilroy, CA",37.0058333,-121.5672222
"Girvan, CA",40.5127778,-122.3788889
"Glamis, CA",32.9975000,-115.0711111
"Glasgow, CA",34.9836111,-115.8688889
"Glen Arbor, CA",37.0744444,-122.0811111
"Glen Avon, CA",34.0116667,-117.4838889
"Glen Ellen, CA",38.3641667,-122.5230556
"Glen Frazer, CA",37.9983333,-122.1616667
"Glen Martin, CA",34.1458333,-116.9847222
"Glen Oaks, CA",32.8383333,-116.8030556
"Glen Valley, CA",33.8619444,-117.3252778
"Glenblair, CA",39.4577778,-123.7241667
"Glenbrook, CA",38.8516667,-122.7575000
"Glenburn, CA",40.0616667,-121.5141667
"Glencoe, CA",38.3541667,-120.5838889
"Glencove, CA",38.0686111,-122.2058333
"Glendale, CA",34.1425000,-118.2541667
"Glendale Junction, CA",34.0752778,-118.2241667
"Glendora, CA",34.1361111,-117.8644444
"Glenhaven, CA",39.0263889,-122.7319444
"Glenn, CA",39.5219444,-122.0127778
"Glennville, CA",35.7288889,-118.7027778
"Glenoak Hills, CA",33.5375000,-116.9797222
"Glenoaks Country, CA",33.5311111,-117.0055556
"Glenridge Park, CA",39.0444444,-120.1233333
"Glenview, CA",38.9000000,-122.7580556
"Glenwood, CA",37.1083333,-121.9855556
"Glenwood Mobile Estates, CA",37.3805556,-118.4177778
"Globe, CA",36.1011111,-118.8272222
"Globe Mill, CA",40.8844444,-123.0227778
"Glorietta, CA",37.8622222,-122.1669444
"Gloster, CA",34.9561111,-118.1477778
"Goat Rock, CA",38.5816667,-123.1202778
"Goffs, CA",34.9191667,-115.0619444
"Goggins, CA",39.0408333,-120.5069444
"Gold Flat, CA",39.2461111,-121.0233333
"Gold Hill, CA",38.7611111,-120.8836111
"Gold Ridge, CA",38.7533333,-120.5672222
"Gold River, CA",38.6263889,-121.2455556
"Gold Run, CA",39.1808333,-120.8547222
"Gold Trail Park, CA",38.7527778,-120.8488889
"Golden Chain Mobile Home Park, CA",38.9380556,-121.0916667
"Golden Hills, CA",35.1425000,-118.4894444
"Golden Mesa, CA",34.5358333,-117.3341667
"Golden Oaks Mobile Estates, CA",34.4352778,-119.2777778
"Golden Oaks Mobile Home Park, CA",34.4330556,-119.2947222
"Golden Torch Trailer Park, CA",38.2969444,-120.2861111
"Golden Valley Acres, CA",34.4227778,-117.4422222
"Goldleaf, CA",36.7222222,-119.7169444
"Goldmont Forest, CA",38.0233333,-120.2513889
"Goldstone, CA",35.2972222,-116.9130556
"Goldtree, CA",35.3219444,-120.6813889
"Goler Heights, CA",35.4269444,-117.7450000
"Goleta, CA",34.4358333,-119.8266667
"Gomez, CA",41.0361111,-121.5152778
"Gonzales, CA",36.5066667,-121.4433333
"Good Hope, CA",33.7647222,-117.2661111
"Good Meadow, CA",33.7661111,-117.2833333
"Goodale, CA",36.3780556,-119.0433333
"Goodmans Corner, CA",38.2050000,-120.9861111
"Goodmill, CA",36.7808333,-119.0225000
"Goodyears Bar, CA",39.5400000,-120.8833333
"Gorda, CA",35.9325000,-121.4677778
"Gordola, CA",36.9752778,-122.1333333
"Gordon, CA",36.8961111,-119.7288889
"Gorman, CA",34.7961111,-118.8516667
"Gosford, CA",35.3111111,-119.0905556
"Goshen, CA",36.3511111,-119.4191667
"Gottsville, CA",41.8675000,-122.7400000
"Government Camp, CA",40.6916667,-122.3891667
"Governors Village, CA",38.6888889,-121.0802778
"Grabtown, CA",37.4222222,-122.3427778
"Graeagle, CA",39.7663889,-120.6175000
"Graham Place, CA",40.4266667,-123.4069444
"Graino, CA",39.0358333,-121.9611111
"Granada Hills, CA",34.2647222,-118.5222222
"Grand Island, CA",39.0661111,-121.8672222
"Grand Terrace, CA",34.0338889,-117.3127778
"Grande Mobile Manor Mobile Home Park, CA",35.1072222,-120.5891667
"Grandview, CA",34.8900000,-117.1058333
"Grangeville, CA",36.3436111,-119.7077778
"Granite Bay, CA",38.7633333,-121.1627778
"Granite Hills, CA",32.8030556,-116.9038889
"Granite Springs, CA",37.7011111,-120.2947222
"Graniteville, CA",39.4408333,-120.7386111
"Grant, CA",36.2555556,-117.9930556
"Grant Grove Village, CA",36.7400000,-118.9616667
"Grantville, CA",32.7875000,-117.0963889
"Grapeland, CA",34.1250000,-117.5616667
"Grapevine, CA",34.9416667,-118.9291667
"Grapit, CA",39.6811111,-122.1930556
"Grass Flat, CA",39.6758333,-120.9341667
"Grass Lake, CA",41.6350000,-122.1902778
"Grass Valley, CA",39.2191667,-121.0600000
"Graton, CA",38.4363889,-122.8686111
"Gravenstein, CA",38.4047222,-122.8066667
"Gravesboro, CA",36.7730556,-119.4105556
"Grays Flat, CA",40.0177778,-121.0625000
"Grayson, CA",37.5638889,-121.1783333
"Greekstore, CA",39.0769444,-120.5575000
"Green, CA",38.3458333,-121.6386111
"Green Acres, CA",33.7380556,-117.0755556
"Green Brae, CA",37.9486111,-122.5236111
"Green Springs Ranch, CA",38.7016667,-121.0336111
"Green Springs Valley, CA",38.7097222,-121.0472222
"Green Valley, CA",34.6216667,-118.4130556
"Green Valley Acres, CA",38.7125000,-121.0708333
"Green Valley Lake, CA",34.2408333,-117.0763889
"Green Valley Mobile Estates, CA",33.0550000,-117.2641667
"Green Valley Mobile Home Park, CA",33.1827778,-117.2797222
"Greenacres, CA",35.3833333,-119.1088889
"Greenbrier Mobile Home Park, CA",32.8322222,-117.0133333
"Greendale, CA",38.3736111,-121.5850000
"Greenfield, CA",36.3208333,-121.2427778
"Greenhorn, CA",39.9044444,-120.7497222
"Greenley Oaks, CA",37.9852778,-120.3602778
"Greensport, CA",34.0675000,-117.1033333
"Greenview, CA",41.5508333,-122.9044444
"Greenville, CA",40.1397222,-120.9500000
"Greenwater, CA",36.1794444,-116.6155556
"Greenwich Village, CA",34.1813889,-118.8636111
"Greenwood, CA",38.8966667,-120.9116667
"Gregg, CA",36.8816667,-119.9358333
"Grenada, CA",41.6472222,-122.5188889
"Gridley, CA",39.3638889,-121.6925000
"Griffin Place, CA",39.9694444,-122.7852778
"Grimes, CA",39.0744444,-121.8927778
"Griminger, CA",38.7197222,-120.4091667
"Grizzlie Place, CA",41.9011111,-120.6394444
"Grizzly Flat, CA",38.6363889,-120.5263889
"Grizzly Peak, CA",38.6325000,-120.5430556
"Grizzly Ridge, CA",38.2563889,-120.3377778
"Grossmont, CA",32.7783333,-116.9875000
"Grove, CA",39.4369444,-123.6583333
"Groveland, CA",37.8383333,-120.2316667
"Grover Beach, CA",35.1216667,-120.6202778
"Guadalcanal Village, CA",38.1186111,-122.2927778
"Guadalupe, CA",34.9716667,-120.5708333
"Gualala, CA",38.7658333,-123.5269444
"Guasti, CA",34.0650000,-117.5855556
"Guatay, CA",32.8488889,-116.5563889
"Guerneville, CA",38.5019444,-122.9950000
"Guernewood, CA",38.4927778,-123.0138889
"Guernewood Park, CA",38.4969444,-123.0113889
"Guernsey, CA",36.2130556,-119.6400000
"Guernsey Mill, CA",35.8341667,-118.6155556
"Guild, CA",38.1452778,-121.2425000
"Guinda, CA",38.8291667,-122.1927778
"Gulf, CA",35.1794444,-119.1591667
"Gum, CA",34.9200000,-120.5205556
"Gustine, CA",37.2577778,-120.9977778
"Gypsite, CA",35.3311111,-117.9302778
"Hacienda, CA",38.5113889,-122.9266667
"Hacienda Carmel, CA",36.5372222,-121.8780556
"Hacienda Heights, CA",33.9930556,-117.9677778
"Hacienda del Florasol, CA",32.6172222,-116.4994444
"Hackamore, CA",41.5519444,-121.1225000
"Hacketsville, CA",40.4875000,-124.1702778
"Hagginwood, CA",38.6275000,-121.4313889
"Haight, CA",38.0927778,-121.2419444
"Haines, CA",34.3247222,-119.1019444
"Haiwee, CA",36.1466667,-117.9750000
"Halcon, CA",33.8272222,-118.0275000
"Halcyon, CA",35.1033333,-120.5947222
"Hale Place, CA",38.5083333,-123.0355556
"Hales Grove, CA",39.8177778,-123.7811111
"Half Moon Bay, CA",37.4636111,-122.4275000
"Halfway House, CA",35.5897222,-118.9594444
"Hall Station, CA",37.5866667,-122.0641667
"Hallelujah Junction, CA",39.7755556,-120.0383333
"Halloran Springs, CA",35.3725000,-115.8897222
"Halls Corner, CA",36.3425000,-119.8055556
"Halls Flat, CA",40.7561111,-121.2580556
"Halvern, CA",37.6252778,-122.0513889
"Hamblin, CA",36.3297222,-119.6088889
"Hambone, CA",41.3350000,-121.6966667
"Hamburg, CA",41.7830556,-123.0591667
"Hamburg Farms, CA",36.8794444,-120.7627778
"Hamilton Branch, CA",40.2750000,-121.0902778
"Hamilton City, CA",39.7427778,-122.0125000
"Hamlet, CA",38.2077778,-122.9244444
"Hammer Place, CA",40.1197222,-122.7161111
"Hammil, CA",37.6786111,-118.4027778
"Hammond, CA",36.7597222,-119.7861111
"Hammonton, CA",39.1930556,-121.4197222
"Hams, CA",38.3741667,-120.4611111
"Hanford, CA",36.3275000,-119.6447222
"Hanford Hill, CA",38.1744444,-120.4025000
"Hannchen, CA",41.8402778,-121.4033333
"Hansen, CA",33.8172222,-118.0097222
"Happy Camp, CA",41.7933333,-123.3783333
"Happy Hill, CA",35.5711111,-121.1055556
"Happy Valley, CA",38.3000000,-120.6827778
"Harbin Springs, CA",38.7877778,-122.6544444
"Harbin Springs Annex, CA",38.7922222,-122.6602778
"Harbison Canyon, CA",32.8202778,-116.8291667
"Harbor City, CA",33.7900000,-118.2969444
"Harbor Hills, CA",33.7802778,-118.3138889
"Harbor Point, CA",37.8819444,-122.4997222
"Harbor Side, CA",32.6100000,-117.0805556
"Harden Flat, CA",37.8111111,-119.9463889
"Hardwick, CA",36.4013889,-119.7177778
"Hardy, CA",39.7125000,-123.8019444
"Hardy Place, CA",39.8011111,-122.9497222
"Harlem, CA",36.3991667,-121.2525000
"Harlem Springs, CA",34.1213889,-117.2252778
"Harlow Place, CA",41.1452778,-121.6758333
"Harmony, CA",35.5086111,-121.0216667
"Harmony Acres, CA",34.1436111,-116.1086111
"Harmony Grove, CA",33.0961111,-117.1344444
"Harold, CA",34.5450000,-118.1086111
"Harp, CA",37.5805556,-120.9838889
"Harper, CA",41.2150000,-120.9305556
"Harpertown, CA",35.2947222,-118.9225000
"Harrington, CA",38.9588889,-122.0163889
"Harris, CA",40.0841667,-123.6575000
"Harrisburg, CA",36.3638889,-117.1105556
"Harrison Park, CA",33.0261111,-116.5683333
"Harry Floyd Terrace, CA",38.1291667,-122.2369444
"Hart, CA",35.2888889,-115.1025000
"Hartland, CA",36.6544444,-118.9566667
"Hartley, CA",38.4172222,-121.9458333
"Harts Place, CA",35.5008333,-117.9477778
"Harvard, CA",34.9511111,-116.6638889
"Haskell Creek Homesites, CA",39.6347222,-120.5516667
"Hat Creek, CA",40.8305556,-121.5125000
"Hatch, CA",37.4897222,-120.9544444
"Hatfield, CA",41.9980556,-121.5183333
"Hathaway Pines, CA",38.1919444,-120.3644444
"Hathaway Place, CA",35.1669444,-120.2983333
"Hathaways Mountain Pines, CA",38.1947222,-120.3672222
"Havasu Lake, CA",34.4822222,-114.4130556
"Havasu Palms, CA",34.3988889,-114.2797222
"Haven, CA",40.0094444,-121.2291667
"Haven Place, CA",40.1825000,-122.6747222
"Havilah, CA",35.5177778,-118.5177778
"Hawaiian Gardens, CA",33.8313889,-118.0719444
"Hawes, CA",38.0941667,-121.2461111
"Hawkins Bar, CA",40.8702778,-123.5216667
"Hawkinsville, CA",41.7608333,-122.6208333
"Hawley, CA",39.8108333,-120.3538889
"Hawthorne, CA",33.9163889,-118.3516667
"Hayden, CA",35.0447222,-115.6102778
"Hayden Hill, CA",40.9955556,-120.8861111
"Hayes, CA",34.0741667,-118.0219444
"Hayfield, CA",33.7047222,-115.6336111
"Hayfork, CA",40.5544444,-123.1819444
"Hays Place, CA",39.6772222,-122.9100000
"Haystack, CA",38.2233333,-122.6088889
"Hayward, CA",37.6688889,-122.0797222
"Hayward Park, CA",37.5544444,-122.3122222
"Hazelton, CA",35.0422222,-119.3836111
"Healdsburg, CA",38.6105556,-122.8680556
"Hearst, CA",39.4916667,-123.2136111
"Heart Bar Campground, CA",34.1586111,-116.7858333
"Heath Place, CA",39.8241667,-123.3800000
"Heather Glen, CA",39.0183333,-120.9808333
"Heavenly Hills, CA",37.9666667,-120.4697222
"Heber, CA",32.7308333,-115.5288889
"Hector, CA",34.8038889,-116.4516667
"Heeser Addition, CA",39.4152778,-123.7697222
"Helena, CA",40.7736111,-123.1272222
"Helendale, CA",34.7438889,-117.3236111
"Hellhole Palms, CA",33.2366667,-116.4394444
"Helltown, CA",39.8116667,-121.6586111
"Helm, CA",36.5316667,-120.0972222
"Helm Corner, CA",36.0980556,-119.6427778
"Hemet, CA",33.7475000,-116.9711111
"Henderson, CA",37.4794444,-122.1644444
"Henderson Village, CA",38.1008333,-121.3044444
"Hendy Grove, CA",39.0769444,-123.4625000
"Henley, CA",41.9022222,-122.5622222
"Henleyville, CA",39.9619444,-122.3255556
"Henry, CA",35.4897222,-120.6469444
"Henshaw, CA",34.0022222,-117.4625000
"Herald, CA",38.2958333,-121.2433333
"Hercraff Place, CA",40.2083333,-122.5447222
"Hercules, CA",38.0172222,-122.2875000
"Heritage Mobile Home Park, CA",33.5177778,-117.1175000
"Herlong, CA",40.1436111,-120.1336111
"Herlong Junction, CA",40.1247222,-120.2455556
"Hermosa Beach, CA",33.8622222,-118.3986111
"Herndon, CA",36.8366667,-119.9163889
"Herpoco, CA",38.0116667,-122.2700000
"Hershey, CA",38.9255556,-121.9955556
"Hesperia, CA",34.4263889,-117.3000000
"Hess Mill, CA",38.1025000,-120.2366667
"Hessel, CA",38.3483333,-122.7761111
"Hetch Hetchy Junction, CA",37.8011111,-120.4866667
"Hewes Park, CA",33.7805556,-117.8152778
"Hewitt, CA",34.1997222,-118.3891667
"Hi Vista, CA",34.7350000,-117.7763889
"Hickman, CA",37.6236111,-120.7527778
"Hickok Ranch, CA",38.7172222,-121.0455556
"Hickson, CA",34.2572222,-118.4666667
"Hicksville, CA",38.3272222,-121.3222222
"Hidden Hills, CA",34.1602778,-118.6513889
"Hidden Meadows, CA",33.2252778,-117.1116667
"Hidden Palms, CA",33.8202778,-116.3005556
"Hidden River, CA",34.1783333,-116.3072222
"Hidden Springs, CA",34.3183333,-118.1302778
"Hidden Valley, CA",38.7069444,-121.0908333
"Hidden Valley Lake, CA",38.8080556,-122.5572222
"Hideaway Mobile Estates, CA",33.2341667,-117.0569444
"Higby, CA",36.2850000,-119.2869444
"Higgins Corner, CA",39.0427778,-121.0938889
"High Acres Haciendas, CA",33.5652778,-117.0275000
"High Country, CA",34.4050000,-117.3805556
"High Sierra Park, CA",38.0819444,-120.1463889
"Highcroft, CA",38.5019444,-122.9425000
"Highgrove, CA",34.0158333,-117.3325000
"Highland, CA",34.1283333,-117.2077778
"Highland Park, CA",34.1119444,-118.1980556
"Highland Plams Mobile Home Park, CA",33.7408333,-117.1216667
"Highland Springs, CA",38.9372222,-122.9058333
"Highland Village, CA",38.7066667,-121.0708333
"Highlands, CA",37.5200000,-122.3427778
"Highlands Mobile Home Park, CA",37.3769444,-118.4138889
"Hights Corner, CA",35.4433333,-119.2013889
"Highway City, CA",36.8108333,-119.8838889
"Hilarita, CA",37.8841667,-122.4708333
"Hildreth, CA",37.1088889,-119.6319444
"Hillcrest, CA",32.7477778,-117.1566667
"Hillgrove, CA",34.0166667,-117.9791667
"Hillmaid, CA",36.4138889,-119.1338889
"Hills Ferry, CA",37.3488889,-120.9786111
"Hills Flat, CA",39.2241667,-121.0522222
"Hillsborough, CA",37.5741667,-122.3783333
"Hillsborough Park, CA",37.5550000,-122.3577778
"Hillsdale, CA",32.7791667,-116.9272222
"Hilmar, CA",37.4086111,-120.8491667
"Hilt, CA",41.9950000,-122.6222222
"Hilton, CA",38.5047222,-122.9391667
"Hinda, CA",33.9527778,-117.0572222
"Hinkley, CA",34.9347222,-117.1983333
"Hinsdale, CA",39.0152778,-121.7777778
"Hinton, CA",39.3752778,-120.0727778
"Hiouchi, CA",41.7927778,-124.0708333
"Hirschdale, CA",39.3686111,-120.0750000
"Hite Cove, CA",37.6408333,-119.8480556
"Hobart, CA",34.0122222,-118.2038889
"Hobart Mills, CA",39.4005556,-120.1827778
"Hobergs, CA",38.8436111,-122.7233333
"Hoboken, CA",40.8830556,-123.4336111
"Hodge, CA",34.8155556,-117.1925000
"Hoffman Point, CA",36.6922222,-119.1972222
"Holcomb Village, CA",33.3508333,-116.7366667
"Holiday Harbor Resort, CA",40.8025000,-122.3091667
"Holiday Home Mobile Home Park, CA",33.2552778,-116.3913889
"Hollis, CA",35.6675000,-119.1902778
"Hollister, CA",36.8525000,-121.4005556
"Holly Park, CA",33.9136000,-118.3526000
"Hollydale, CA",33.9147222,-118.1608333
"Hollywood, CA",34.0983333,-118.3258333
"Hollywood Beach, CA",34.1672222,-119.2297222
"Hollywood Riviera, CA",33.8141667,-118.3822222
"Hollywood by the Sea, CA",34.1605556,-119.2250000
"Holmes, CA",40.4186111,-123.9394444
"Holt, CA",37.9344444,-121.4261111
"Holtville, CA",32.8111111,-115.3794444
"Holy City, CA",37.1569444,-121.9777778
"Home Garden, CA",36.3033333,-119.6352778
"Home Gardens, CA",33.8780556,-117.5200000
"Home Junction, CA",34.0358333,-118.4338889
"Homeland, CA",33.7430556,-117.1083333
"Homelands, CA",32.7416667,-116.9716667
"Homer, CA",34.9200000,-114.9361111
"Homestead, CA",41.9136111,-121.4219444
"Homewood, CA",39.0869444,-120.1591667
"Honby, CA",34.4211111,-118.4913889
"Honcut, CA",39.3291667,-121.5327778
"Honda, CA",34.6155556,-120.6325000
"Honeydew, CA",40.2444444,-124.1216667
"Hood, CA",38.3683333,-121.5163889
"Hood Junction, CA",38.3636111,-121.5086111
"Hooker, CA",40.3008333,-122.3258333
"Hookston, CA",37.9413889,-122.0516667
"Hookton, CA",40.6733333,-124.2172222
"Hoopa, CA",41.0505556,-123.6730556
"Hooper, CA",41.2680556,-122.1605556
"Hooperville, CA",41.6788889,-122.8477778
"Hope Ranch, CA",34.4219444,-119.7700000
"Hopeton, CA",37.4916667,-120.5300000
"Hopland, CA",38.9730556,-123.1152778
"Hoppaw, CA",41.5244444,-124.0288889
"Hornbrook, CA",41.9102778,-122.5547222
"Hornitos, CA",37.5022222,-120.2372222
"Horse Creek, CA",41.8241667,-122.9958333
"Horse Lake, CA",40.6741667,-120.4030556
"Horstville, CA",39.0280556,-121.3905556
"Hoskin, CA",41.7088889,-123.3622222
"Hot Springs, CA",41.1463889,-121.0375000
"Hotlum, CA",41.4741667,-122.3133333
"Hough Springs, CA",39.1625000,-122.6111111
"Houghton Place, CA",39.8050000,-122.6772222
"Houze Place, CA",34.7686111,-117.6250000
"Hovley, CA",33.0025000,-115.5208333
"Howard, CA",41.3130556,-122.2758333
"Howard Landing, CA",38.2288889,-121.6000000
"Howard Springs, CA",38.8583333,-122.6736111
"Howell Mountain, CA",38.5813889,-122.4500000
"Howell Place, CA",34.4691667,-119.1188889
"Howland Flat, CA",39.7150000,-120.8855556
"Huasna, CA",35.1227778,-120.3925000
"Hub, CA",36.4022222,-119.8080556
"Hubert Place, CA",35.1688889,-120.2663889
"Hudner, CA",36.9000000,-121.4502778
"Hughes Mill, CA",39.0911111,-120.7786111
"Hughes Place, CA",39.7277778,-121.4011111
"Hughson, CA",37.5969444,-120.8650000
"Hulburd Grove, CA",32.8619444,-116.6222222
"Humboldt Hill, CA",40.7261111,-124.1886111
"Hume, CA",36.7850000,-118.9127778
"Hume Station, CA",36.7944444,-118.9041667
"Humphreys, CA",34.4102778,-118.4397222
"Hunter Place, CA",40.1794444,-124.0141667
"Hunter-Liggett, CA",36.0102778,-121.2375000
"Huntington Beach, CA",33.6602778,-117.9983333
"Huntington Harbour, CA",33.7211111,-118.0633333
"Huntington Lake, CA",37.2316667,-119.2350000
"Huntington Park, CA",33.9816667,-118.2241667
"Huntley, CA",37.7586111,-120.9461111
"Hurlbut, CA",38.4127778,-122.8375000
"Hurleton, CA",39.4975000,-121.3863889
"Huron, CA",36.2027778,-120.1019444
"Hutt, CA",34.9077778,-117.0744444
"Hyampom, CA",40.6175000,-123.4513889
"Hyde Park, CA",33.9805556,-118.3297222
"Hydesville, CA",40.5477778,-124.0961111
"Hydril, CA",36.0127778,-120.0975000
"Hyperion, CA",33.9261111,-118.4319444
"Ibis, CA",34.9400000,-114.7916667
"Iceland, CA",39.3755556,-120.0250000
"Idlewild, CA",41.8986111,-123.7708333
"Idria, CA",36.4169444,-120.6733333
"Idyllwild, CA",33.7400000,-116.7180556
"Igerna, CA",41.4016667,-122.3783333
"Ignacio, CA",38.0702778,-122.5375000
"Igo, CA",40.5055556,-122.5405556
"Ilmon, CA",35.3125000,-118.6930556
"Imhoff, CA",36.2144444,-119.3300000
"Imola, CA",38.2786111,-122.2794444
"Imperial, CA",32.8475000,-115.5686111
"Imperial Beach, CA",32.5838889,-117.1122222
"Inca, CA",33.8008333,-114.7655556
"Inceville, CA",34.0383333,-118.5544444
"Incline, CA",37.6605556,-119.8516667
"Independence, CA",36.8027778,-118.1991667
"Indian Creek, CA",38.1816667,-120.4333333
"Indian Falls, CA",40.0569444,-120.9627778
"Indian Gulch, CA",37.4394444,-120.1958333
"Indian Hills, CA",38.1736111,-120.3763889
"Indian Lakes Estates, CA",37.2111111,-119.6791667
"Indian Oaks, CA",33.6055556,-117.0200000
"Indian Springs, CA",34.3322222,-118.3327778
"Indian Village, CA",36.4491667,-116.8733333
"Indian Wells, CA",33.7186111,-116.3075000
"Indian Wells Mobile Home Park, CA",33.7008333,-116.2655556
"Indianola, CA",40.6863889,-124.2322222
"Indio, CA",33.7205556,-116.2147222
"Indio Hills, CA",33.8311111,-116.2305556
"Industry, CA",34.0197222,-117.9577778
"Ingle, CA",36.7213889,-120.2555556
"Inglenook, CA",39.5297222,-123.7577778
"Ingleside, CA",37.7230556,-122.4519444
"Inglewood, CA",33.9616667,-118.3522222
"Ingomar, CA",37.1802778,-120.9672222
"Ingot, CA",40.7277778,-122.0780556
"Ingram, CA",38.8902778,-123.1708333
"Inperial Gables, CA",33.1275000,-114.9283333
"Inskip, CA",39.9900000,-121.5400000
"Interlaken, CA",36.9513889,-121.7327778
"Inverness, CA",38.1011111,-122.8558333
"Inverness Park, CA",38.0638889,-122.8216667
"Inwood, CA",40.5241667,-121.9561111
"Inyokern, CA",35.6469444,-117.8116667
"Ione, CA",38.3527778,-120.9316667
"Iowa City, CA",39.2916667,-121.4763889
"Iowa Hill, CA",39.1086111,-120.8583333
"Iremel, CA",34.9233333,-120.5255556
"Iris, CA",33.1952778,-115.4036111
"Irish Town, CA",39.8125000,-121.6247222
"Irma, CA",34.4294444,-119.7525000
"Irmulco, CA",39.4222222,-123.5163889
"Iron Horse, CA",39.7883333,-120.4958333
"Iron Mountain, CA",40.6708333,-122.5230556
"Ironsides, CA",33.8111111,-118.3052778
"Irrigosa, CA",36.8911111,-119.9863889
"Irvine, CA",33.6694444,-117.8222222
"Irvings Crest, CA",32.9797222,-116.9113889
"Irvington District, CA",37.5227778,-121.9705556
"Irwin, CA",37.3969444,-120.8488889
"Irwin Estates, CA",34.9213889,-117.0272222
"Irwindale, CA",34.1069444,-117.9344444
"Isla Vista, CA",34.4133333,-119.8600000
"Island Mountain, CA",40.0263889,-123.4891667
"Isleton, CA",38.1619444,-121.6105556
"Italian Swiss Colony, CA",36.9311111,-120.1055556
"Ivanhoe, CA",36.3872222,-119.2169444
"Ivanpah, CA",35.3405556,-115.3097222
"Iverson Indian Rancheria, CA",38.9355556,-123.6825000
"Ivesta, CA",36.7219444,-119.6355556
"Ivory, CA",36.5686111,-119.4225000
"Ivy del Mobile Home Park, CA",33.1711111,-117.1050000
"Jacinto, CA",39.5811111,-122.0055556
"Jacksnipe, CA",38.1927778,-122.0669444
"Jackson, CA",38.3488889,-120.7730556
"Jacobs Corner, CA",38.6716667,-121.8933333
"Jacumba, CA",32.6175000,-116.1888889
"Jalama, CA",34.4980556,-120.4936111
"Jamacha, CA",32.7416667,-116.9105556
"Jamacha Junction, CA",32.7397222,-116.9425000
"James, CA",39.6533333,-121.5486111
"Jamesan, CA",36.7200000,-120.2088889
"Jamesburg, CA",36.3697222,-121.5891667
"Jamestown, CA",37.9533333,-120.4216667
"Jamul, CA",32.7169444,-116.8752778
"Janes Place, CA",40.7894444,-123.7155556
"Janesville, CA",40.2966667,-120.5230556
"Jarvis Landing, CA",37.5294444,-122.0625000
"Jasmin, CA",35.7427778,-119.1438889
"Jastro, CA",35.3766667,-119.0713889
"Java, CA",34.8875000,-114.7263889
"Jayhawk, CA",38.7313889,-120.9652778
"Jefferson, CA",34.0183333,-118.2711111
"Jefferson Park, CA",34.0272222,-118.3166667
"Jellico, CA",40.8450000,-121.2916667
"Jenks Place, CA",39.7086111,-122.8472222
"Jenner, CA",38.4497222,-123.1144444
"Jenny Lind, CA",38.0950000,-120.8688889
"Jerome, CA",41.7316667,-121.9991667
"Jerseydale, CA",37.5636111,-119.8563889
"Jesmond Dene, CA",33.1802778,-117.1083333
"Jesus Maria, CA",38.2855556,-120.6463889
"Jet, CA",37.4327778,-121.0988889
"Jewell, CA",38.0366667,-122.7447222
"Jim Leggett Place, CA",39.8627778,-123.4194444
"Jimgrey, CA",34.9769444,-117.4666667
"Jims Camp, CA",41.8330556,-122.5847222
"Jimtown, CA",38.6666667,-122.8186111
"Joes Landing, CA",38.7800000,-121.6025000
"Joesphine, CA",39.0941667,-121.8000000
"Jofegan, CA",33.3150000,-117.3313889
"Johannesburg, CA",35.3727778,-117.6338889
"Johnson Corner, CA",34.3072222,-117.7516667
"Johnson Park, CA",40.9177778,-121.6261111
"Johnsondale, CA",35.9747222,-118.5400000
"Johnsons, CA",41.3505556,-123.8708333
"Johnston Corner, CA",36.9286111,-121.7041667
"Johnstons Corner, CA",34.8302778,-117.1794444
"Johnstonville, CA",40.3844444,-120.5863889
"Johnstown, CA",32.8380556,-116.8958333
"Johnsville, CA",39.7608333,-120.6944444
"Jolon, CA",35.9708333,-121.1750000
"Jonata Park, CA",34.6511111,-120.1833333
"Jones Corner, CA",36.0658333,-119.1061111
"Jones Place, CA",38.8497222,-120.3694444
"Jonesville, CA",40.1125000,-121.4661111
"Joshua, CA",35.2711111,-115.4486111
"Joshua Tree, CA",34.1347222,-116.3122222
"Jovista, CA",35.7975000,-119.1819444
"Juan, CA",35.3663889,-115.0872222
"Julian, CA",33.0786111,-116.6011111
"Junction Camp, CA",34.7316667,-119.9791667
"Junction City, CA",40.7333333,-123.0525000
"Junction House, CA",39.7405556,-121.2908333
"Junction Ranch, CA",36.0738889,-117.5119444
"June Lake, CA",37.7797222,-119.0744444
"June Lake Junction, CA",37.8125000,-119.0533333
"Juniper, CA",41.4800000,-120.5716667
"Juniper Hills, CA",34.4441667,-117.9344444
"Juniper Springs, CA",33.7661111,-117.0833333
"Jupiter, CA",38.1225000,-120.2816667
"K Flourney, CA",41.2233333,-120.5302778
"Kadota, CA",37.2950000,-120.4111111
"Kaiser, CA",34.0938889,-117.4880556
"Kalina, CA",41.9952778,-121.4191667
"Kanawyers, CA",36.7952778,-118.5838889
"Kandra, CA",41.8261111,-121.3988889
"Kane Spring, CA",33.1091667,-115.8352778
"Karlo, CA",40.5505556,-120.3144444
"Karnak, CA",38.7850000,-121.6544444
"Kathryn, CA",33.7041667,-117.7525000
"Kauffman, CA",41.2338889,-120.4663889
"Kaweah, CA",36.4697222,-118.9175000
"Kayandee, CA",35.3475000,-118.9941667
"Kearsarge, CA",36.8069444,-118.1163889
"Kecks Corner, CA",35.6708333,-120.0808333
"Keddie, CA",40.0150000,-120.9600000
"Keeler, CA",36.4872222,-117.8730556
"Keenbrook, CA",34.2494444,-117.4566667
"Keene, CA",35.2236111,-118.5613889
"Kegg, CA",41.6894444,-121.9858333
"Keith, CA",34.3941667,-118.9591667
"Kekawaka, CA",40.0955556,-123.5180556
"Keller Place, CA",39.7155556,-122.9066667
"Kellogg, CA",38.6322222,-122.6727778
"Kelsey, CA",38.7988889,-120.8197222
