name,lat,lon
"Adacao, GU",13.4894444,144.8530556
"Adelup, GU",13.4752778,144.7272222
"Afami, GU",13.4558333,144.7586111
"Agafo Gumas, GU",13.5816667,144.8761111
"Agat, GU",13.3813889,144.6547222
"Anigua, GU",13.4763889,144.7333333
"Apra Heights, GU",13.4002778,144.6800000
"Apra Junction, GU",13.4091667,144.6730556
"Apurguan, GU",13.4825000,144.7708333
"Asagas, GU",13.2830556,144.7433333
"Asan, GU",13.4713889,144.7138889
"Asatdas, GU",13.5169444,144.8636111
"Asbeco, GU",13.4658333,144.8377778
"Asfaja, GU",13.2783333,144.7450000
"Asmisen, GU",13.3972222,144.7675000
"Asmuyao, GU",13.4427778,144.7975000
"Aspengo, GU",13.4616667,144.7944444
"Astumbo, GU",13.5511111,144.8447222
"Ayuja, GU",13.4002778,144.6616667
"Bacuna, GU",13.4713889,144.7177778
"Barrigada, GU",13.4683333,144.7988889
"Barrigada Heights, GU",13.4858333,144.8225000
"Baza Gardens, GU",13.3708333,144.7491667
"Bile, GU",13.2750000,144.6616667
"Bingot, GU",13.2713889,144.6600000
"Biyae, GU",13.3586111,144.6461111
"Bordallo Subdivision, GU",13.3969444,144.6708333
"Calacag, GU",13.4686111,144.7113889
"Camp Dealy, GU",13.3508333,144.7666667
"Camp Roxas, GU",13.4052778,144.6669444
"Canada, GU",13.4586111,144.7869444
"Carlos Heights, GU",13.5147222,144.8116667
"Catan Maga, GU",13.4305556,144.7941667
"Cerain, GU",13.3938889,144.6594444
"Chagamin Lago, GU",13.2780556,144.7497222
"Chalan Mamajanao, GU",13.4922222,144.7800000
"Chalan Pago, GU",13.4391667,144.7738889
"Coontz Junction, GU",13.4766667,144.7269444
"Corten Torres, GU",13.4402778,144.8025000
"Dededo, GU",13.5152778,144.8361111
"East Hagatna, GU",13.4741667,144.7552778
"Flora Pago Gardens, GU",13.4408333,144.7741667
"Gayinero, GU",13.5294444,144.9016667
"Hafa Adai Village Subdivision, GU",13.5005556,144.8416667
"Hagatna, GU",13.4741667,144.7477778
"Hagatna Heights, GU",13.4688889,144.7438889
"Harmon Garden, GU",13.5063889,144.8200000
"Harmon Park Subdivision, GU",13.5116667,144.8116667
"Harmon Village, GU",13.5336111,144.8086111
"Inarajan, GU",13.2755556,144.7433333
"Ipapao, GU",13.5177778,144.8561111
"Jaotan, GU",13.2547222,144.6763889
"Jonestown, GU",13.4997222,144.7711111
"Julog, GU",13.2563889,144.6830556
"Lalo, GU",13.4519444,144.8016667
"Las Palmas Subdivision, GU",13.4991667,144.8394444
"Latte Heights Estates, GU",13.4897222,144.8405556
"Latte Plantation, GU",13.4930556,144.8436111
"Leary Junction, GU",13.4755556,144.7513889
"Leyan, GU",13.4555556,144.8025000
"Liguan Terrace, GU",13.5988889,144.8252778
"Lingae, GU",13.2558333,144.6802778
"Lockwood Terrace, GU",13.4325000,144.6480556
"Lupog, GU",13.5469444,144.9119444
"Machaute, GU",13.4672222,144.7891667
"Macheche Village Subdivision, GU",13.5036111,144.8411111
"Maina, GU",13.4658333,144.7347222
"Maite, GU",13.4747222,144.7638889
"Manaca, GU",13.4591667,144.8008333
"Marianas Terrace, GU",13.5325000,144.8958333
"Matugan, GU",13.4672222,144.7269444
"Mayaya, GU",13.2811111,144.7441667
"Merizo, GU",13.2633333,144.6697222
"Mongmong, GU",13.4716667,144.7611111
"Nisshio Subdivision, GU",13.5261111,144.8800000
"North Tipalao, GU",13.4191667,144.6425000
"Oceanview, GU",13.5652778,144.8230556
"Oka, GU",13.4997222,144.7730556
"Ordot, GU",13.4463889,144.7586111
"Pado, GU",13.4675000,144.7716667
"Pagachao Subdivision, GU",13.3647222,144.6536111
"Paseo De Oro, GU",13.4988889,144.7847222
"Peca, GU",13.2800000,144.7488889
"Perez Acres, GU",13.5227778,144.8838889
"Piga, GU",13.2633333,144.6713889
"Pigo, GU",13.4766667,144.7305556
"Pigua, GU",13.2694444,144.6691667
"Piti, GU",13.4608333,144.6908333
"Ponderosa Gardens, GU",13.5300000,144.8825000
"Potts Junction, GU",13.5886111,144.8622222
"Royal Garden, GU",13.4966667,144.7863889
"Salas Subdivision, GU",13.5383333,144.8897222
"Salinas, GU",13.3908333,144.6586111
"Salisbury Junction, GU",13.5627778,144.8972222
"San Antonio, GU",13.4658333,144.8033333
"San Ramon, GU",13.4691667,144.7516667
"San Vicente, GU",13.3908333,144.6644444
"Santa Rita, GU",13.3861111,144.6688889
"Santa Rosa, GU",13.3913889,144.6663889
"Schroeder Junction, GU",13.4608333,144.6888889
"Sella, GU",13.4700000,144.7305556
"Sinajana, GU",13.4605556,144.7519444
"Socio, GU",13.4886111,144.7863889
"South Acres, GU",13.5097222,144.8350000
"South Tipalao, GU",13.4147222,144.6475000
"Spring Hill Subdivision, GU",13.5408333,144.8852778
"Sumay, GU",13.4347222,144.6500000
"Sumay Housing Area, GU",13.4341667,144.6494444
"Summer Place Subdivision, GU",13.5116667,144.8241667
"Tacpi, GU",13.4344444,144.7925000
"Takano Subdivision, GU",13.5277778,144.8911111
"Talofofo, GU",13.3516667,144.7530556
"Talona, GU",13.2577778,144.6719444
"Tamuning, GU",13.4838889,144.7766667
"Tepungan, GU",13.4647222,144.6950000
"Tijera, GU",13.3983333,144.6608333
"Toa, GU",13.2558333,144.6738889
"Toto, GU",13.4652778,144.7786111
"Tres Reyes, GU",13.4005556,144.7686111
"Tumalaglago, GU",13.3963889,144.6611111
"Tumon, GU",13.5069444,144.8013889
"Tumon Chama, GU",13.2802778,144.7477778
"Tumon Heights, GU",13.4952778,144.7847222
"Tutujan, GU",13.4613889,144.7413889
"Umatac, GU",13.2980556,144.6588889
"Ungaguan, GU",13.4680556,144.8013889
"Upper Kaiser, GU",13.5261111,144.8413889
"Utan, GU",13.4672222,144.7644444
"Wettengel Junction, GU",13.5222222,144.8208333
"Windward Hills Subdivision, GU",13.3777778,144.7472222
"Witek Junction, GU",13.3855556,144.7697222
"Yabai, GU",13.2850000,144.7500000
"Yigo, GU",13.5344444,144.8855556
"Yigo Estates, GU",13.5466667,144.8980556
"Yona, GU",13.4097222,144.7733333
"Ypan, GU",13.3463889,144.7666667
"Ypaopao Estates, GU",13.5216667,144.8597222
