name,lat,lon
"Aaron, IN",38.8830556,-85.1258333
"Aberdeen, IN",38.9052778,-84.9875000
"Abington, IN",39.7330556,-84.9630556
"Aboite, IN",41.0008333,-85.3180556
"Abydel, IN",38.5705556,-86.5611111
"Academie, IN",41.1708333,-85.1458333
"Acme, IN",38.9780556,-86.0588889
"Acton, IN",39.6555556,-85.9669444
"Adams, IN",39.3825000,-85.5600000
"Adams Mill, IN",40.4805556,-86.5088889
"Adamsboro, IN",40.7844444,-86.2669444
"Ade, IN",40.8683333,-87.4447222
"Adel, IN",39.1919444,-86.7958333
"Advance, IN",39.9958333,-86.6200000
"Adyeville, IN",38.1908333,-86.7694444
"Aetna, IN",41.5919444,-87.2894444
"Africa, IN",37.8402778,-87.0727778
"Ainsworth, IN",41.4877778,-87.2586111
"Aix, IN",41.0413889,-87.1513889
"Akron, IN",41.0383333,-86.0280556
"Alamo, IN",39.9819444,-87.0572222
"Alaska, IN",39.4702778,-86.6413889
"Albany, IN",40.3008333,-85.2419444
"Albion, IN",41.3955556,-85.4244444
"Aldine, IN",41.2008333,-86.6744444
"Alert, IN",39.1602778,-85.6783333
"Alexandria, IN",40.2627778,-85.6758333
"Alfont, IN",39.9513889,-85.8147222
"Alford, IN",38.4913889,-87.2427778
"Alfordsville, IN",38.5605556,-86.9483333
"Algiers, IN",38.4872222,-87.1750000
"Alida, IN",41.5105556,-86.9030556
"Allen, IN",41.2000000,-85.1958333
"Allen Crossing, IN",39.1038889,-85.3169444
"Allendale, IN",39.3916667,-87.3958333
"Allensville, IN",38.8730556,-85.0202778
"Alliance, IN",40.0333333,-85.6500000
"Allisonville, IN",39.9050000,-86.0783333
"Allman, IN",39.6172222,-86.4311111
"Alma Lake, IN",39.6083333,-87.0194444
"Alpine, IN",39.5538889,-85.1758333
"Alquina, IN",39.6127778,-85.0547222
"Alta, IN",39.7722222,-87.3866667
"Altamont Switch, IN",40.3786111,-86.8744444
"Alto, IN",40.4400000,-86.1655556
"Alton, IN",38.1225000,-86.4177778
"Altona, IN",41.3513889,-85.1550000
"Alvarado, IN",41.5766667,-84.8377778
"Ambia, IN",40.4900000,-87.5169444
"Ambler, IN",41.7158333,-86.7966667
"Amboy, IN",40.6013889,-85.9288889
"America, IN",40.6791667,-85.7019444
"Americus, IN",40.5258333,-86.7580556
"Ames, IN",40.0333333,-86.8869444
"Amity, IN",39.4261111,-86.0011111
"Amo, IN",39.6880556,-86.6136111
"Anderson, IN",40.1052778,-85.6802778
"Andersonville, IN",39.4975000,-85.2888889
"Andrews, IN",40.8625000,-85.6016667
"Andry, IN",41.7177778,-86.7580556
"Angola, IN",41.6347222,-84.9994444
"Anita, IN",39.4258333,-86.1913889
"Annandale Estates, IN",39.2177778,-86.2661111
"Annapolis, IN",39.8525000,-87.2505556
"Anoka, IN",40.7219444,-86.2825000
"Ansley Acres, IN",41.0783333,-85.2122222
"Anthony, IN",40.2777778,-85.4361111
"Anthony Wayne Village, IN",41.0394444,-85.1055556
"Antioch, IN",40.2280556,-86.5058333
"Antioch Grange, IN",38.7372222,-85.4702778
"Antiville, IN",40.4975000,-84.9786111
"Apalona, IN",38.1544444,-86.6322222
"Arabia, IN",39.7661111,-87.3219444
"Arba, IN",40.0108333,-84.8669444
"Arcadia, IN",40.1758333,-86.0216667
"Arcana, IN",40.5386111,-85.5033333
"Arcola, IN",41.1036111,-85.2941667
"Arctic Springs, IN",38.2830556,-85.7113889
"Arda, IN",38.5172222,-87.2505556
"Ardmore, IN",41.6891667,-86.3175000
"Argos, IN",41.6972222,-86.2450000
"Ari, IN",41.2636111,-85.2494444
"Arlington, IN",39.6425000,-85.5763889
"Armiesburg, IN",39.7633333,-87.3511111
"Armstrong, IN",38.1091667,-87.6472222
"Arney, IN",39.2186111,-86.9316667
"Aroma, IN",40.1994444,-85.8741667
"Arrowhead Park, IN",41.2788889,-85.7900000
"Art, IN",39.4027778,-87.1552778
"Arthur, IN",38.3405556,-87.2458333
"Artic, IN",41.4736111,-84.8147222
"Artist Point, IN",38.1608333,-86.3705556
"Ash Grove, IN",40.5477778,-86.8477778
"Ash Iron Springs, IN",38.0352778,-87.1866667
"Ashboro, IN",39.3988889,-87.1058333
"Ashby Yards, IN",38.4744444,-87.2847222
"Asherville, IN",39.4747222,-87.0622222
"Ashland, IN",39.9261111,-85.3044444
"Ashley, IN",41.5272222,-85.0655556
"Asphaltum, IN",41.1002778,-86.9980556
"Athens, IN",41.0536111,-86.1252778
"Atherton, IN",39.6080556,-87.3619444
"Atkinson, IN",40.5627778,-87.2466667
"Atkinsonville, IN",39.3777778,-86.8733333
"Atlanta, IN",40.2152778,-86.0263889
"Attica, IN",40.2941667,-87.2488889
"Atwood, IN",41.2608333,-85.9752778
"Auburn, IN",41.3669444,-85.0588889
"Auburn Junction, IN",41.3519444,-85.0747222
"Augusta, IN",38.3313889,-87.1908333
"Aultshire, IN",40.2119444,-85.3461111
"Aurora, IN",39.0569444,-84.9013889
"Austin, IN",38.7583333,-85.8080556
"Avalon, IN",41.0161111,-85.1577778
"Avalon Hills, IN",39.8780556,-86.0558333
"Avery, IN",40.3088889,-86.4405556
"Avilla, IN",41.3658333,-85.2388889
"Avoca, IN",38.9119444,-86.5477778
"Avon, IN",39.7627778,-86.3997222
"Avonburg, IN",38.8863889,-85.1722222
"Aylesworth, IN",40.2030556,-87.2430556
"Ayrshire, IN",38.3719444,-87.2408333
"Azalia, IN",39.0916667,-85.8472222
"Babcock, IN",41.5725000,-87.1050000
"Bacon, IN",38.4105556,-86.4333333
"Badger Grove, IN",40.5836111,-86.9636111
"Baileys Corner, IN",41.0708333,-86.9983333
"Bainbridge, IN",39.7611111,-86.8119444
"Bainter Town, IN",41.5169444,-85.8172222
"Baker, IN",39.1305556,-87.3125000
"Bakers Corner, IN",40.1305556,-86.1375000
"Bakertown, IN",41.3663889,-85.3572222
"Balbec, IN",40.5308333,-85.1488889
"Bald Knobs, IN",39.0200000,-86.1705556
"Baldridge, IN",39.2230556,-87.3722222
"Baldwin Heights, IN",38.3413889,-87.5713889
"Ballstown, IN",39.2505556,-85.2441667
"Bandmill, IN",38.5383333,-87.6027778
"Bandon, IN",38.1372222,-86.6002778
"Banner Mills, IN",39.9327778,-87.1011111
"Banning Corner, IN",40.3663889,-87.1625000
"Banquo, IN",40.6963889,-85.6197222
"Banta, IN",39.5238889,-86.2502778
"Bar-Barry Heights, IN",40.4561111,-86.9158333
"Barbee, IN",41.2908333,-85.7122222
"Barbersville, IN",38.9058333,-85.2808333
"Barce, IN",40.6208333,-87.2766667
"Bargersville, IN",39.5208333,-86.1677778
"Barnard, IN",39.8486111,-86.7005556
"Barnhart Town, IN",39.5038889,-87.4355556
"Barrett, IN",38.2005556,-87.8694444
"Barrick Corner, IN",39.2561111,-87.0733333
"Bartle, IN",38.5602778,-85.8875000
"Bartlettsville, IN",38.9702778,-86.4419444
"Bartonia, IN",40.1152778,-84.8511111
"Bartons Location, IN",38.5291667,-87.3394444
"Bascom Corner, IN",38.9088889,-84.9686111
"Bass Lake, IN",41.2072222,-86.6019444
"Bass Station, IN",41.1852778,-86.6022222
"Batesville, IN",39.3000000,-85.2222222
"Bath, IN",39.5083333,-84.8625000
"Battle Ground, IN",40.5083333,-86.8416667
"Baugh City, IN",38.0416667,-87.4125000
"Bayfield, IN",41.2747222,-85.7069444
"Beal, IN",38.5766667,-87.6300000
"Beamer, IN",39.3666667,-86.9375000
"Beanblossom, IN",39.2669444,-86.2491667
"Bear Branch, IN",38.9127778,-85.0750000
"Bear Wallow, IN",39.3236111,-86.3688889
"Beard, IN",40.3736111,-86.4505556
"Beardstown, IN",41.1380556,-86.6025000
"Beatrice, IN",41.4269444,-87.1894444
"Beattys Corner, IN",41.6222222,-86.8938889
"Beatys Beach, IN",41.6841667,-85.6036111
"Beaver City, IN",40.9069444,-87.4155556
"Beaver Dam, IN",41.0861111,-86.0133333
"Becks Grove, IN",39.0791667,-86.1166667
"Becks Mill, IN",38.5352778,-86.1555556
"Beckville, IN",40.0105556,-86.7097222
"Bedford, IN",38.8611111,-86.4872222
"Bee Ridge, IN",39.5369444,-87.1694444
"Beech Brook, IN",39.5522222,-85.7977778
"Beech Grove, IN",39.7219444,-86.0900000
"Beechwood, IN",38.2066667,-86.4244444
"Beehunter, IN",38.9561111,-87.1211111
"Beesons, IN",39.7216667,-85.1330556
"Behlmer Corner, IN",39.2025000,-85.1697222
"Belknap, IN",37.9833333,-87.6880556
"Bell Center, IN",40.8686111,-86.6391667
"Bell Rohr Park, IN",41.3316667,-85.7811111
"Belle Arbor, IN",39.7202778,-85.9875000
"Belle Union, IN",39.5730556,-86.7061111
"Belleview, IN",38.8558333,-85.3780556
"Belleville, IN",39.6772222,-86.4883333
"Bellfountain, IN",40.4333333,-84.8636111
"Bellmore, IN",39.7591667,-87.1052778
"Belmont, IN",39.1519444,-86.3472222
"Belshaw, IN",41.2563889,-87.4533333
"Ben Davis, IN",39.7480556,-86.2694444
"Benefiel Corner, IN",39.1283333,-87.4088889
"Bengal, IN",39.4733333,-85.9227778
"Benham, IN",38.9836111,-85.2502778
"Bennetts Switch, IN",40.5850000,-86.1127778
"Bennettsville, IN",38.4255556,-85.8086111
"Bennington, IN",38.8588889,-85.1405556
"Benton, IN",41.5091667,-85.7611111
"Benton House, IN",39.7647222,-86.0763889
"Bentonville, IN",39.7452778,-85.1941667
"Benwood, IN",39.5611111,-87.1141667
"Berlien, IN",41.6366667,-84.8766667
"Berne, IN",40.6577778,-84.9519444
"Bethany, IN",39.1738889,-86.0652778
"Bethel, IN",39.9866667,-84.8302778
"Bethel Village, IN",39.1519444,-85.9247222
"Bethevan, IN",40.5250000,-85.6333333
"Bethlehem, IN",38.5391667,-85.4205556
"Between-The-Lakes Park, IN",41.3247222,-85.7366667
"Beverly Hill, IN",41.5488889,-86.9855556
"Beverly Shores, IN",41.6925000,-86.9775000
"Bicknell, IN",38.7741667,-87.3077778
"Big Four Yard, IN",39.7611111,-86.3583333
"Big Hill, IN",41.0452778,-86.1958333
"Big Springs, IN",40.0702778,-86.2605556
"Billie Creek Village, IN",39.7613889,-87.2019444
"Billingsville, IN",39.5558333,-84.9097222
"Billtown, IN",39.5100000,-87.1861111
"Billville, IN",39.5036111,-87.1255556
"Bippus, IN",40.9441667,-85.6238889
"Birchim, IN",41.7102778,-86.6027778
"Birdseye, IN",38.3166667,-86.6958333
"Birmingham, IN",40.9377778,-86.1094444
"Black Oak, IN",38.6625000,-87.0811111
"Black Point, IN",41.4050000,-85.6836111
"Black Rock, IN",40.3677778,-87.0969444
"Blackhawk, IN",39.3088889,-87.3002778
"Blackhawk Beach, IN",41.5177778,-87.0411111
"Blackiston Mill, IN",38.3355556,-85.7980556
"Blackiston Village, IN",38.3319444,-85.7930556
"Blaine, IN",40.4025000,-85.0561111
"Blairsville, IN",38.0788889,-87.7619444
"Blakesburg, IN",39.8072222,-86.9100000
"Blanford, IN",39.6650000,-87.5205556
"Blocher, IN",38.7180556,-85.6566667
"Bloods Wood Crossing, IN",38.5386111,-87.6302778
"Bloomer, IN",40.0838889,-85.7680556
"Bloomfield, IN",39.0269444,-86.9375000
"Blooming Grove, IN",39.5022222,-85.0647222
"Bloomingdale, IN",39.8333333,-87.2497222
"Bloomingport, IN",40.0269444,-84.9947222
"Bloomington, IN",39.1652778,-86.5263889
"Blountsville, IN",40.0600000,-85.2402778
"Blue, IN",38.9250000,-85.0047222
"Blue Lick, IN",38.5083333,-85.8047222
"Blue Ridge, IN",39.5191667,-85.6355556
"Blue River, IN",38.5300000,-85.9394444
"Bluecast, IN",41.1541667,-84.8694444
"Bluff Creek, IN",39.5575000,-86.2208333
"Bluff Point, IN",40.3458333,-84.9772222
"Bluffs, IN",39.5688889,-86.2511111
"Bluffton, IN",40.7386111,-85.1716667
"Board Park, IN",39.5927778,-86.6700000
"Bobtown, IN",39.0194444,-85.9461111
"Boggstown, IN",39.5630556,-85.9163889
"Bogle Corner, IN",39.1775000,-87.1847222
"Bolivar, IN",40.9641667,-85.7875000
"Bonds, IN",38.6811111,-86.6294444
"Bonnell, IN",39.1683333,-84.9741667
"Bonneyville Mills, IN",41.7180556,-85.7652778
"Bono, IN",38.7313889,-86.3211111
"Boone Grove, IN",41.3547222,-87.1294444
"Boonville, IN",38.0491667,-87.2741667
"Borden, IN",38.4666667,-85.9458333
"Boston, IN",39.7411111,-84.8519444
"Boston Corner, IN",40.9483333,-84.9002778
"Boswell, IN",40.5211111,-87.3783333
"Boundary City, IN",40.3444444,-84.9219444
"Bourbon, IN",41.2955556,-86.1163889
"Bowers, IN",40.1569444,-86.7247222
"Bowerstown, IN",40.8886111,-85.4425000
"Bowling Green, IN",39.3830556,-87.0116667
"Bowman, IN",38.4963889,-87.3469444
"Bowman Acres, IN",39.7619444,-85.7675000
"Boxley, IN",40.1661111,-86.1755556
"Boyd, IN",39.7186111,-85.5511111
"Boyleston, IN",40.2863889,-86.3947222
"Bracken, IN",40.9866667,-85.6238889
"Bradfield Corner, IN",39.7322222,-87.2988889
"Bradford, IN",38.3677778,-86.0619444
"Bramble, IN",38.7788889,-86.9094444
"Branchville, IN",38.1636111,-86.5797222
"Braxtons Siding, IN",38.5591667,-86.4880556
"Braysville, IN",39.2880556,-84.8697222
"Braytown, IN",38.7305556,-85.1586111
"Brazil, IN",39.5236111,-87.1250000
"Breckenridge, IN",38.2177778,-86.0330556
"Breezy Point, IN",40.6919444,-86.7530556
"Bremen, IN",41.4463889,-86.1480556
"Brems, IN",41.3391667,-86.6975000
"Brendan Wood, IN",40.0672222,-86.4688889
"Brendonwood, IN",39.8577778,-86.0638889
"Brent Woods, IN",39.5383333,-85.7569444
"Brentwood, IN",40.0975000,-85.7152778
"Bretzville, IN",38.2994444,-86.8730556
"Brewersville, IN",39.0844444,-85.6116667
"Briarwood, IN",39.5508333,-86.5066667
"Brice, IN",40.4180556,-84.8963889
"Brick Chapel, IN",39.7116667,-86.8691667
"Bridgeport, IN",38.1761111,-85.9063889
"Bridgeton, IN",39.6450000,-87.1775000
"Brierwood Hills, IN",41.0552778,-85.2341667
"Briggs, IN",41.0855556,-85.4702778
"Bright, IN",39.2183333,-84.8561111
"Brighton, IN",41.7222222,-85.3111111
"Brimfield, IN",41.4541667,-85.3980556
"Brimstone Corners, IN",38.7372222,-86.2644444
"Bringhurst, IN",40.5252778,-86.5250000
"Brisco, IN",40.4111111,-87.3583333
"Bristol, IN",41.7213889,-85.8175000
"Bristow, IN",38.1400000,-86.7216667
"Broad Park, IN",39.5858333,-86.6694444
"Broad Ripple, IN",39.8666667,-86.1416667
"Broadmoor, IN",39.8488889,-86.2141667
"Broadview, IN",39.1397222,-86.5383333
"Bromer, IN",38.5936111,-86.3358333
"Brook, IN",40.8663889,-87.3636111
"Brookfield, IN",39.6377778,-85.9427778
"Brookhaven, IN",40.5197222,-85.6158333
"Brooklyn, IN",39.5391667,-86.3691667
"Brooklyn Heights, IN",39.8202778,-86.2091667
"Brookmoor, IN",39.5675000,-86.3747222
"Brooks, IN",39.9383333,-85.9191667
"Brooksburg, IN",38.7363889,-85.2436111
"Brookside Estates, IN",41.1466667,-85.0791667
"Brookston, IN",40.6027778,-86.8672222
"Brookville, IN",39.4230556,-85.0127778
"Brookville Heights, IN",39.7244444,-85.9066667
"Broom Hill, IN",38.4488889,-85.8775000
"Brown Jug Corner, IN",39.2880556,-87.2588889
"Browns Corner, IN",40.8150000,-85.4116667
"Browns Crossing, IN",39.4063889,-86.5055556
"Browns Valley, IN",39.9030556,-86.9919444
"Brownsburg, IN",39.8433333,-86.3977778
"Brownstown, IN",38.8788889,-86.0419444
"Brownsville, IN",39.6644444,-85.0047222
"Bruce Lake Station, IN",41.0694444,-86.4147222
"Bruceville, IN",38.7594444,-87.4155556
"Brummitt Acres, IN",41.6188889,-87.0169444
"Brunerstown, IN",39.6525000,-86.9983333
"Brunswick, IN",41.3777778,-87.5080556
"Brushy Prairie, IN",41.6416667,-85.2475000
"Bryant, IN",40.5333333,-84.9638889
"Bryantsburg, IN",38.8858333,-85.3744444
"Bryantsville, IN",38.7686111,-86.5730556
"Buchanan, IN",38.2161111,-85.8994444
"Buchanan Corner, IN",39.1925000,-87.2033333
"Buck Creek, IN",40.4877778,-86.7613889
"Buckeye, IN",40.6911111,-85.3538889
"Buckskin, IN",38.2283333,-87.4119444
"Bucktown, IN",38.9947222,-87.2600000
"Bud, IN",39.4469444,-86.1758333
"Buddha, IN",38.7919444,-86.4066667
"Buena Vista, IN",39.4388889,-85.2725000
"Buenavista, IN",39.0330556,-86.6555556
"Buffalo, IN",40.8825000,-86.7452778
"Buffaloville, IN",38.0975000,-86.9652778
"Buffington, IN",41.6372222,-87.4258333
"Bufkin, IN",37.9877778,-87.8458333
"Bullocktown, IN",37.9747222,-87.2227778
"Bunker Hill, IN",40.6602778,-86.1027778
"Burdick, IN",41.6011111,-86.9727778
"Burge Terrace, IN",39.7433333,-85.9963889
"Burket, IN",41.1552778,-85.9686111
"Burlington, IN",40.4802778,-86.3947222
"Burlington Beach, IN",41.5058333,-87.0452778
"Burnett, IN",39.5427778,-87.2955556
"Burnettsville, IN",40.7611111,-86.5936111
"Burney, IN",39.3172222,-85.6402778
"Burns City, IN",38.8225000,-86.8869444
"Burns Harbor, IN",41.6258333,-87.1333333
"Burnsville, IN",39.1727778,-85.7402778
"Burr Oak, IN",41.3230556,-85.4330556
"Burrows, IN",40.6766667,-86.5075000
"Bushrod, IN",38.9688889,-87.1088889
"Busseron, IN",38.8355556,-87.4491667
"Butler, IN",41.4297222,-84.8713889
"Butler Center, IN",41.3083333,-85.1366667
"Butlerville, IN",39.0344444,-85.5127778
"Buttermilk Point, IN",41.3772222,-85.6741667
"Byrneville, IN",38.3275000,-86.0436111
"Byron, IN",41.6561111,-86.6247222
"C and C Beach, IN",40.7033333,-86.7563889
"Caborn, IN",37.9705556,-87.7919444
"Cadiz, IN",39.9513889,-85.4866667
"Cagle Mill, IN",39.4872222,-86.9397222
"Cairo, IN",40.5408333,-86.9247222
"Calcutta, IN",39.6041667,-87.0694444
"Cale, IN",38.7958333,-86.7513889
"Calvertville, IN",39.1163889,-86.9038889
"Cambria, IN",40.3658333,-86.5591667
"Cambridge City, IN",39.8125000,-85.1716667
"Camby, IN",39.6625000,-86.3166667
"Camden, IN",40.6086111,-86.5400000
"Cammack, IN",40.2097222,-85.4925000
"Camp Brosend, IN",37.9644444,-87.3958333
"Camp Flat Rock, IN",39.3969444,-85.7472222
"Camp Roberts, IN",39.1783333,-86.1936111
"Camp Shor, IN",38.9980556,-84.8491667
"Campbell Corner, IN",39.1427778,-87.4088889
"Campbellsburg, IN",38.6513889,-86.2611111
"Campbelltown, IN",38.4213889,-87.2400000
"Canaan, IN",38.8666667,-85.2958333
"Candleglo Village, IN",39.5575000,-85.7919444
"Cannelburg, IN",38.6697222,-86.9983333
"Cannelton, IN",37.9113889,-86.7444444
"Cantaloupe, IN",38.5313889,-87.5194444
"Canton, IN",38.6238889,-86.0347222
"Cape Sandy, IN",38.1508333,-86.3708333
"Capehart, IN",38.7455556,-87.1941667
"Carbon, IN",39.5977778,-87.1186111
"Carbondale, IN",40.3600000,-87.3477778
"Cardonia, IN",39.5616667,-87.1188889
"Carefree, IN",38.2516667,-86.3513889
"Carlisle, IN",38.9683333,-87.4055556
"Carlos, IN",40.0263889,-85.0344444
"Carmel, IN",39.9783333,-86.1180556
"Carp, IN",39.3850000,-86.7608333
"Carpentersville, IN",39.8055556,-86.8055556
"Carriage Estates, IN",39.7375000,-85.8938889
"Carrollton, IN",39.7055556,-85.8208333
"Cartersburg, IN",39.6986111,-86.4636111
"Carthage, IN",39.7383333,-85.5719444
"Carwood, IN",38.4483333,-85.8638889
"Cary, IN",39.7069444,-86.8230556
"Cascade, IN",39.1905556,-86.5388889
"Cass, IN",39.0869444,-87.2786111
"Cassville, IN",40.5600000,-86.1227778
"Castle Garden, IN",38.0275000,-87.3991667
"Castleton, IN",39.9069444,-86.0522222
"Cataract, IN",39.4275000,-86.8163889
"Cates, IN",39.9966667,-87.3377778
"Catlin, IN",39.6936111,-87.2352778
"Cato, IN",38.4366667,-87.1855556
"Cayuga, IN",39.9486111,-87.4597222
"Cedar, IN",41.3127778,-85.1561111
"Cedar Canyons, IN",41.2327778,-85.0891667
"Cedar Farm Landing, IN",37.9730556,-86.0622222
"Cedar Grove, IN",39.3569444,-84.9377778
"Cedar Lake, IN",41.3647222,-87.4411111
"Cedar Point, IN",41.3977778,-85.6752778
"Cedar Shores, IN",41.2275000,-85.0722222
"Celestine, IN",38.3847222,-86.7791667
"Celina, IN",38.1880556,-86.6127778
"Cementville, IN",38.3497222,-85.7461111
"Centenary, IN",39.6583333,-87.4733333
"Centennial, IN",40.0113889,-87.2433333
"Center, IN",40.4344444,-86.0605556
"Center Point, IN",39.4169444,-87.0772222
"Center Square, IN",38.8363889,-85.0313889
"Center Valley, IN",39.6302778,-86.4800000
"Centerton, IN",39.5150000,-86.3950000
"Centerville, IN",39.8177778,-84.9963889
"Central, IN",38.0997222,-86.1586111
"Central Barren, IN",38.3641667,-86.0963889
"Ceylon, IN",40.6066667,-84.9533333
"Chain-O-Lakes, IN",41.7083333,-86.3800000
"Chalmers, IN",40.6630556,-86.8694444
"Chambersburg, IN",38.5180556,-86.3922222
"Champlin Meadows, IN",39.4075000,-86.4366667
"Chandler, IN",38.0416667,-87.3680556
"Chapel Hill, IN",39.7750000,-86.2819444
"Chapel Manor, IN",41.4761111,-87.3316667
"Charle Sumac Estates, IN",39.6786111,-85.9744444
"Charlesmac Village, IN",39.6841667,-85.9791667
"Charlestown, IN",38.4530556,-85.6702778
"Charlottesville, IN",39.7902778,-85.6127778
"Chase, IN",40.5194444,-87.3419444
"Chatterton, IN",40.4036111,-87.2397222
"Chelsea, IN",38.6505556,-85.5250000
"Cherry Grove, IN",40.1355556,-86.9044444
"Cherryvale, IN",39.4633333,-87.2394444
"Chester, IN",39.8880556,-84.8877778
"Chesterfield, IN",40.1125000,-85.5969444
"Chesterton, IN",41.6105556,-87.0641667
"Chesterville, IN",39.0677778,-85.0522222
"Chestnut Hill, IN",38.4758333,-85.9327778
"Chestnut Ridge, IN",38.8886111,-85.8602778
"Chetwynd, IN",39.4430556,-86.2694444
"Chili, IN",40.8600000,-86.0263889
"China, IN",38.8258333,-85.3383333
"Chrisney, IN",38.0147222,-87.0363889
"Christiansburg, IN",39.0886111,-86.1561111
"Churubusco, IN",41.2305556,-85.3194444
"Cicero, IN",40.1238889,-86.0133333
"Cincinnati, IN",39.0200000,-86.7288889
"Circle Park, IN",41.5497222,-84.9100000
"Circleville, IN",39.6002778,-85.4391667
"Clanricarde, IN",41.2883333,-86.9494444
"Clare, IN",40.1152778,-85.9611111
"Clark Siding, IN",38.4727778,-85.6636111
"Clarke Junction, IN",41.6300000,-87.4163889
"Clarks, IN",41.1333333,-86.8902778
"Clarks Hill, IN",40.2469444,-86.7250000
"Clarks Landing, IN",41.5597222,-84.9116667
"Clarksburg, IN",39.4333333,-85.3477778
"Clarksdale, IN",39.2000000,-86.1261111
"Clarksville, IN",38.2966667,-85.7600000
"Clay City, IN",39.2766667,-87.1127778
"Claypool, IN",41.1291667,-85.8805556
"Claysville, IN",38.6225000,-86.2894444
"Clayton, IN",39.6891667,-86.5225000
"Clear Creek, IN",39.1091667,-86.5400000
"Clear Lake, IN",41.7375000,-84.8333333
"Clear Spring, IN",38.9250000,-86.2100000
"Clermont, IN",39.8097222,-86.3225000
"Clermont Heights, IN",39.8266667,-86.3441667
"Cleveland, IN",39.7902778,-85.6447222
"Clifford, IN",39.2822222,-85.8691667
"Clifton, IN",39.8161111,-86.1830556
"Clinton, IN",39.6569444,-87.3980556
"Clinton Falls, IN",39.7191667,-86.9638889
"Clover Village, IN",39.6075000,-85.8591667
"Cloverdale, IN",39.5147222,-86.7938889
"Cloverland, IN",39.5013889,-87.2313889
"Clunette, IN",41.3197222,-85.9227778
"Clymers, IN",40.7075000,-86.4488889
"Coal Bluff, IN",39.5827778,-87.2200000
"Coal City, IN",39.2302778,-87.0458333
"Coal Creek, IN",40.0363889,-87.3805556
"Coalmont, IN",39.1933333,-87.2311111
"Coatesville, IN",39.6877778,-86.6702778
"Coats Spring, IN",38.4375000,-87.3905556
"Cobb, IN",39.5811111,-87.2233333
"Cobbs Corner, IN",41.4347222,-87.1100000
"Coburg, IN",41.5188889,-86.9494444
"Cochran, IN",39.0522222,-84.9205556
"Coe, IN",38.3063889,-87.2580556
"Coesse, IN",41.1277778,-85.3952778
"Coesse Corners, IN",41.1400000,-85.3958333
"Cofield Corner, IN",38.9527778,-84.9586111
"Coke Oven Hollow, IN",39.8530556,-87.2919444
"Colburn, IN",40.5186111,-86.7130556
"Cold Springs, IN",41.5558333,-84.9088889
"Cole, IN",40.4797222,-85.7872222
"Colfax, IN",40.1950000,-86.6672222
"Collamer, IN",41.0758333,-85.6647222
"College Corner, IN",40.4108333,-84.9772222
"College Crest, IN",39.9250000,-86.1505556
"College Meadows, IN",39.9352778,-86.1402778
"Collegeville, IN",40.9116667,-87.1552778
"Collett, IN",40.3752778,-85.0008333
"Collins, IN",41.1975000,-85.3866667
"Coloma, IN",39.7883333,-87.2919444
"Colonial Village, IN",39.9375000,-85.8350000
"Columbia, IN",39.5763889,-85.2072222
"Columbia City, IN",41.1572222,-85.4883333
"Columbus, IN",39.2013889,-85.9213889
"Commiskey, IN",38.8594444,-85.6455556
"Como, IN",40.3852778,-85.0869444
"Concord, IN",41.3261111,-84.9452778
"Concordia Gardens, IN",41.1455556,-85.1066667
"Connersville, IN",39.6411111,-85.1411111
"Conologue, IN",38.9755556,-85.7991667
"Conrad, IN",41.1050000,-87.4433333
"Contreras, IN",39.5225000,-84.8080556
"Converse, IN",40.5775000,-85.8733333
"Cook, IN",41.3772222,-87.4697222
"Coolwood Acres, IN",41.4591667,-87.0872222
"Cooper Corner, IN",39.8716667,-85.7700000
"Cope, IN",39.4502778,-86.3188889
"Coppess Corner, IN",40.7450000,-84.9569444
"Corkwell, IN",40.4672222,-85.0586111
"Corn Brook, IN",39.2444444,-85.9391667
"Cornelius, IN",39.2997222,-86.2980556
"Cornettsville, IN",38.7566667,-87.1100000
"Corning, IN",38.5827778,-87.0175000
"Correct, IN",39.0086111,-85.2863889
"Cortland, IN",38.9730556,-85.9641667
"Corunna, IN",41.4372222,-85.1472222
"Corwin, IN",39.8883333,-85.2991667
"Cory, IN",39.3822222,-87.2058333
"Corydon, IN",38.2119444,-86.1219444
"Corydon Junction, IN",38.3033333,-86.1002778
"Cosperville, IN",41.4808333,-85.4741667
"Cottage Grove, IN",39.5963889,-84.8616667
"Cottage Hill, IN",39.5169444,-87.1491667
"Country Club Gardens, IN",41.0497222,-85.2225000
"Country Club Heights, IN",40.1227778,-85.6872222
"Country Club Meadows, IN",38.0230556,-87.5730556
"County Squire Lakes, IN",39.0347222,-85.6986111
"Courter, IN",40.8369444,-86.0630556
"Courtney Corner, IN",41.6294444,-84.8386111
"Coveyville, IN",38.9733333,-86.4725000
"Covington, IN",40.1416667,-87.3947222
"Covington Dells, IN",41.0694444,-85.2330556
"Cowan, IN",40.1058333,-85.3886111
"Coxton, IN",38.8294444,-86.5611111
"Coxville, IN",39.6519444,-87.2944444
"Cradick Corner, IN",39.5438889,-86.8058333
"Craig, IN",39.3322222,-85.5194444
"Craigville, IN",40.7783333,-85.0908333
"Crandall, IN",38.2875000,-86.0663889
"Crane, IN",38.8911111,-86.9038889
"Crawford, IN",38.8458333,-86.3972222
"Crawfordsville, IN",40.0411111,-86.8744444
"Crawleyville, IN",38.2833333,-87.8333333
"Creekwood, IN",39.8772222,-86.1188889
"Cresco, IN",41.2358333,-85.4916667
"Crest Manor Addition, IN",41.6163889,-86.2333333
"Crestlawn, IN",40.0747222,-85.6802778
"Crestmoor, IN",39.5138889,-85.7638889
"Creston, IN",41.3377778,-87.4313889
"Crestview, IN",41.4519444,-87.0580556
"Crestview Heights, IN",39.5850000,-86.3163889
"Crestwood, IN",41.1400000,-85.1230556
"Crete, IN",40.0433333,-84.8616667
"Crisman, IN",41.5869444,-87.1738889
"Critchfield, IN",39.6002778,-86.1633333
"Crocker, IN",41.5880556,-87.1222222
"Crompton Hill, IN",39.6558333,-87.4191667
"Cromwell, IN",41.4005556,-85.6158333
"Crooked Lake, IN",41.6797222,-85.0366667
"Cross Plains, IN",38.9438889,-85.2047222
"Cross Roads, IN",39.2794444,-85.2416667
"Crossroad Temple, IN",39.7525000,-86.0666667
"Crothersville, IN",38.8005556,-85.8416667
"Crown Center, IN",39.5794444,-86.5897222
"Crown Point, IN",41.4169444,-87.3652778
"Crows Nest, IN",39.8580556,-86.1686111
"Crumb Corner, IN",40.4538889,-86.9277778
"Crumstown, IN",41.6241667,-86.4080556
"Crystal, IN",38.4919444,-86.7538889
"Cuba, IN",41.1855556,-84.9386111
"Culver, IN",41.2188889,-86.4230556
"Cumback, IN",38.5586111,-87.1475000
"Cumberland, IN",39.7761111,-85.9572222
"Cunot, IN",39.4563889,-86.8547222
"Curby, IN",38.2875000,-86.3772222
"Curryville, IN",39.1869444,-87.3925000
"Curtisville, IN",40.3183333,-85.8986111
"Cutler, IN",40.4763889,-86.5241667
"Cuzco, IN",38.4750000,-86.7227778
"Cyclone, IN",40.2283333,-86.4325000
"Cynthiana, IN",38.1875000,-87.7102778
"Cypress, IN",37.9141667,-87.6297222
"Dabney, IN",39.0900000,-85.3469444
"Daggett, IN",39.2155556,-87.0388889
"Daisy Hill, IN",38.4963889,-85.9377778
"Dale, IN",38.1688889,-86.9900000
"Daleville, IN",40.1211111,-85.5580556
"Dalton, IN",39.9833333,-85.1813889
"Dana, IN",39.8077778,-87.4950000
"Danes, IN",40.7611111,-86.2611111
"Danville, IN",39.7605556,-86.5263889
"Dark Hollow, IN",38.8888889,-86.5394444
"Darlington, IN",40.1100000,-86.7719444
"Darlington Woods, IN",40.1197222,-86.8052778
"Darmstadt, IN",38.0991667,-87.5788889
"Darrough Chapel, IN",40.4786111,-86.0955556
"Davidson, IN",37.9675000,-86.0472222
"Davis, IN",41.7147222,-86.8261111
"Davy, IN",38.8666667,-87.5972222
"Dawnbury, IN",39.8697222,-86.1208333
"Daylight, IN",38.0936111,-87.4905556
"Dayton, IN",40.3741667,-86.7688889
"Dayville, IN",37.9541667,-87.3222222
"De Camp Gardens, IN",41.6619444,-85.9191667
"De Gonia Springs, IN",38.0555556,-87.1855556
"DeFries Landing, IN",41.3658333,-85.7680556
"DeMotte, IN",41.1950000,-87.1986111
"Deacon, IN",40.6338889,-86.3172222
"Dead Mans Crossing, IN",37.9583333,-87.9083333
"Decatur, IN",40.8305556,-84.9291667
"Decker, IN",38.5188889,-87.5230556
"Decker Chapel, IN",38.4894444,-87.5369444
"Deedsville, IN",40.9102778,-86.1011111
"Deep River, IN",41.4755556,-87.2233333
"Deer Creek, IN",40.6141667,-86.3911111
"Deer Mill, IN",39.9475000,-87.0555556
"Deer Park, IN",41.1588889,-87.1991667
"Deerfield, IN",40.2786111,-84.9763889
"Delaware, IN",39.1477778,-85.2072222
"Delaware Trails, IN",39.8800000,-86.1813889
"Delong, IN",41.1383333,-86.4163889
"Delp, IN",40.4894444,-86.8091667
"Delphi, IN",40.5875000,-86.6750000
"Deming, IN",40.1152778,-86.0986111
"Deming Park, IN",39.4661111,-87.3544444
"Deming Woods, IN",39.4600000,-87.3577778
"Denham, IN",41.1519444,-86.7136111
"Denmark, IN",39.2697222,-87.0258333
"Denny Corner, IN",39.8855556,-85.8222222
"Denver, IN",40.8661111,-86.0775000
"Depauw, IN",38.3350000,-86.2175000
"Deputy, IN",38.7941667,-85.6533333
"Derby, IN",38.0302778,-86.5272222
"Desoto, IN",40.2469444,-85.2936111
"Deuchars, IN",38.1722222,-86.4483333
"Devonshire, IN",39.8805556,-86.0588889
"Devore, IN",39.4297222,-86.7527778
"Dewberry, IN",38.9511111,-85.1516667
"Dewey, IN",39.5094444,-87.3758333
"Dexter, IN",38.0591667,-86.4786111
"Diamond, IN",39.6113889,-87.1661111
"Dickeyville, IN",38.1561111,-87.2197222
"Dillman, IN",40.6102778,-85.4288889
"Dillsboro, IN",39.0177778,-85.0588889
"Dillsboro Station, IN",39.0305556,-85.0386111
"Dinwiddie, IN",41.2894444,-87.3011111
"Disko, IN",41.0022222,-85.9444444
"Dixie, IN",38.1600000,-86.2122222
"Dixon, IN",39.0708333,-87.0333333
"Doans, IN",38.9191667,-86.8494444
"Dodd, IN",37.9122222,-86.6519444
"Dodds Bridge, IN",39.1572222,-87.5238889
"Dogwood, IN",38.1052778,-86.0844444
"Dolan, IN",39.2402778,-86.4991667
"Domestic, IN",40.6116667,-85.0886111
"Donaldson, IN",41.3611111,-86.4441667
"Donaldsonville, IN",39.5291667,-87.0988889
"Dongola, IN",38.3719444,-87.3402778
"Doolittle Mills, IN",38.2508333,-86.6030556
"Door Village, IN",41.5747222,-86.7688889
"Dooville, IN",40.5533333,-85.5600000
"Douglas, IN",38.3305556,-87.5016667
"Dover, IN",39.2413889,-84.9477778
"Dover Hill, IN",38.7250000,-86.8027778
"Downey Corner, IN",38.9386111,-85.0102778
"Downeyville, IN",39.4275000,-85.5544444
"Doyle, IN",40.8080556,-86.0741667
"Doyle Ferguson, IN",40.5786111,-85.4788889
"Dreamwold Heights, IN",41.7527778,-86.2541667
"Drew, IN",40.2188889,-85.3869444
"Drewersburg, IN",39.3402778,-84.8372222
"Drexel Gardens, IN",39.7405556,-86.2463889
"Driftwood Hills, IN",39.9169444,-86.1222222
"Duane Yards, IN",39.4950000,-87.3886111
"Dublin, IN",39.8122222,-85.2088889
"Dubois, IN",38.4452778,-86.8044444
"Dubois Crossroads, IN",38.4811111,-86.8119444
"Dudleytown, IN",38.8497222,-85.8997222
"Duff, IN",38.3272222,-87.0263889
"Dugger, IN",39.0700000,-87.2613889
"Duncan, IN",38.2880556,-85.9250000
"Dundee, IN",40.2722222,-85.7561111
"Dune Acres, IN",41.6494444,-87.0858333
"Dune Acres Station, IN",41.6372222,-87.0847222
"Duneland Beach, IN",41.7561111,-86.8333333
"Dunfee, IN",41.0866667,-85.3372222
"Dunkirk, IN",40.3752778,-85.2094444
"Dunlap, IN",41.6377778,-85.9216667
"Dunlapsville, IN",39.5908333,-84.9936111
"Dunn, IN",40.5638889,-87.4638889
"Dunn Mill, IN",41.1622222,-85.2358333
"Dunnington, IN",40.5641667,-87.4908333
"Dunns Bridge, IN",41.2255556,-86.9738889
"Dunreith, IN",39.8033333,-85.4386111
"Dupont, IN",38.8900000,-85.5141667
"Durbin, IN",40.0563889,-85.9108333
"Durham, IN",38.2597222,-87.5811111
"Dwenger Field, IN",41.0794444,-85.1063889
"Dyer, IN",41.4941667,-87.5216667
"Eagle Point, IN",41.3275000,-85.6777778
"Eagle Village, IN",39.9605556,-86.2455556
"Eagletown, IN",40.0422222,-86.1936111
"Eaglewood Estates, IN",39.9513889,-86.3130556
"Eames, IN",38.0791667,-87.1316667
"Earl Park, IN",40.6827778,-87.4116667
"Earle, IN",38.0855556,-87.5133333
"Early Station, IN",39.7633333,-87.3852778
"East Chicago, IN",41.6391667,-87.4547222
"East Columbus, IN",39.2016667,-85.9016667
"East Enterprise, IN",38.8727778,-84.9880556
"East Germantown, IN",39.8125000,-85.1375000
"East Glenn, IN",39.4858333,-87.2955556
"East Haven, IN",39.8391667,-84.9308333
"East Lake Estates, IN",41.6977778,-85.9297222
"East Liberty, IN",40.9355556,-84.8616667
"East Monticello, IN",40.7461111,-86.7533333
"East Mount Carmel, IN",38.3933333,-87.7447222
"East Oolitic, IN",38.8988889,-86.5119444
"East Park, IN",40.2844444,-86.4922222
"East Shelburn, IN",39.1744444,-87.3797222
"East Union, IN",40.2172222,-86.1283333
"Eastern Heights, IN",40.1088889,-85.6572222
"Eastgate, IN",39.9308333,-85.8297222
"Eastland Gardens, IN",41.0197222,-85.1002778
"Eastpoint Terminal, IN",41.6652778,-84.8530556
"Eastwitch, IN",40.4269444,-86.8500000
"Easytown, IN",39.6105556,-87.5002778
"Eaton, IN",40.3402778,-85.3508333
"Eby, IN",38.1419444,-87.2613889
"Echo Crest, IN",39.9505556,-86.1294444
"Eckerty, IN",38.3202778,-86.6119444
"Economy, IN",39.9780556,-85.0880556
"Eddy, IN",41.5363889,-85.4383333
"Eden, IN",39.9061111,-85.7700000
"Edgerton, IN",41.0766667,-84.8061111
"Edgewater, IN",41.5161111,-87.0466667
"Edgewood, IN",39.6847222,-86.1341667
"Edgewood Lake, IN",39.6394444,-86.7991667
"Edgewood Village, IN",40.1013889,-85.7530556
"Edinburgh, IN",39.3541667,-85.9666667
"Edna Mills, IN",40.4175000,-86.6677778
"Edwardsport, IN",38.8119444,-87.2522222
"Edwardsville, IN",38.2841667,-85.9094444
"Eel River, IN",39.3233333,-87.1236111
"Effner, IN",40.7705556,-87.5252778
"Egans Point, IN",41.3358333,-85.3605556
"Ege, IN",41.2927778,-85.2877778
"Egg Harbor, IN",38.2286111,-87.7905556
"Egypt, IN",40.8591667,-87.2038889
"Ehrmandale, IN",39.5350000,-87.2388889
"Ekin, IN",40.2169444,-86.1616667
"El Dorado, IN",39.5911111,-86.1625000
"Elberfeld, IN",38.1597222,-87.4483333
"Elizabeth, IN",38.1211111,-85.9741667
"Elizabethtown, IN",39.1350000,-85.8133333
"Elizaville, IN",40.1266667,-86.3758333
"Elk, IN",39.4458333,-86.4291667
"Elkhart, IN",41.6819444,-85.9766667
"Elkinsville, IN",39.0761111,-86.2647222
"Ellettsville, IN",39.2338889,-86.6250000
"Elliott, IN",38.1216667,-87.4727778
"Ellis, IN",39.0636111,-87.2227778
"Ellison, IN",41.0277778,-85.2558333
"Elliston, IN",39.0277778,-86.9708333
"Ellisville, IN",41.0180556,-85.2841667
"Ellsworth, IN",38.4277778,-86.7183333
"Elm Tree Crossroads, IN",40.7883333,-84.9561111
"Elmdale, IN",40.1366667,-87.0175000
"Elmhurst, IN",40.0977778,-85.7213889
"Elmira, IN",41.5919444,-85.2044444
"Elmwood, IN",40.0677778,-86.4619444
"Elnora, IN",38.8783333,-87.0858333
"Elrod, IN",39.0547222,-85.1638889
"Elston, IN",40.3930556,-86.9097222
"Elwood, IN",40.2769444,-85.8419444
"Elwren, IN",39.1086111,-86.6697222
"Eminence, IN",39.5213889,-86.6413889
"Emison, IN",38.8050000,-87.4580556
"Emma, IN",41.6111111,-85.5411111
"Emporia, IN",40.0044444,-85.6338889
"Enchanted Hills, IN",41.4019444,-85.6666667
"Englewood, IN",38.8444444,-86.4980556
"English, IN",38.3344444,-86.4641667
"English Lake, IN",41.2658333,-86.8236111
"Enochsburg, IN",39.3341667,-85.2975000
"Enos, IN",41.0138889,-87.4491667
"Enos Corner, IN",38.2891667,-87.2611111
"Enterprise, IN",37.8425000,-87.1819444
"Epsom, IN",38.7852778,-87.0630556
"Epworth Forest, IN",41.3330556,-85.6861111
"Erie, IN",38.8825000,-86.3813889
"Erskine Station, IN",38.0408333,-87.5411111
"Erwin, IN",37.9800000,-87.9191667
"Ethel, IN",38.4036111,-86.5244444
"Etna, IN",41.2736111,-85.5736111
"Etna Green, IN",41.2788889,-86.0461111
"Eugene, IN",39.9663889,-87.4727778
"Eureka, IN",37.8805556,-87.2150000
"Evans Landing, IN",38.0041667,-85.9847222
"Evanston, IN",38.0394444,-86.8416667
"Evansville, IN",37.9747222,-87.5558333
"Everroad Park, IN",39.2283333,-85.8880556
"Everton, IN",39.5627778,-85.0897222
"Ewing, IN",38.8847222,-86.0552778
"Ewington, IN",39.3263889,-85.5680556
"Exchange, IN",39.5016667,-86.3222222
"Extension Heights, IN",40.1047222,-85.6602778
"Fair Acres, IN",38.6041667,-86.0902778
"Fair Oaks, IN",41.0750000,-87.2575000
"Fairbanks, IN",39.2194444,-87.5222222
"Fairdale, IN",38.3261111,-86.1711111
"Fairfax, IN",41.0419444,-85.0883333
"Fairfield, IN",39.5186111,-84.9955556
"Fairfield Center, IN",41.4825000,-85.1280556
"Fairland, IN",39.5858333,-85.8636111
"Fairmount, IN",40.4152778,-85.6505556
"Fairview, IN",40.2980556,-85.1952778
"Fairview Park, IN",39.6802778,-87.4175000
"Fairview Station, IN",39.7536111,-86.2269444
"Fairwood Hills, IN",39.8833333,-86.0300000
"Fall Creek Highland, IN",39.8966667,-85.9911111
"Falmouth, IN",39.7008333,-85.3011111
"Farabee, IN",38.5569444,-86.0158333
"Fargo, IN",40.5188889,-87.2794444
"Farlen, IN",38.8505556,-86.9227778
"Farleys Addition, IN",39.7833333,-86.2788889
"Farmers, IN",39.1752778,-86.8916667
"Farmers Retreat, IN",38.9763889,-85.1022222
"Farmersburg, IN",39.2486111,-87.3819444
"Farmersville, IN",37.9802778,-87.8961111
"Farmington, IN",39.6180556,-85.3588889
"Farmland, IN",40.1877778,-85.1275000
"Farrville, IN",40.5811111,-85.4663889
"Fayette, IN",39.9311111,-86.3972222
"Fayetteville, IN",38.8608333,-86.5952778
"Fayne Siding, IN",39.9758333,-85.3883333
"Federal Hill, IN",40.0461111,-86.0238889
"Fenn Haven, IN",37.9313889,-86.7566667
"Fenns, IN",39.4575000,-85.7977778
"Ferdinand, IN",38.2238889,-86.8622222
"Ferguson Hill, IN",39.4816667,-87.4563889
"Ferndale, IN",39.7072222,-87.0669444
"Fewell Rhoades, IN",39.4213889,-86.3994444
"Fiat, IN",40.5533333,-85.1500000
"Fickle, IN",40.2611111,-86.6750000
"Fields, IN",39.5461111,-86.3333333
"Fillmore, IN",39.6675000,-86.7533333
"Fincastle, IN",39.8080556,-86.8950000
"Fish Lake, IN",41.5666667,-86.5519444
"Fishers, IN",39.9555556,-86.0138889
"Fishersburg, IN",40.0719444,-85.8594444
"Fisherville, IN",38.0852778,-87.4330556
"Fishtown, IN",38.0694444,-85.9175000
"Fiskville, IN",40.0486111,-86.8947222
"Five Points, IN",41.1233333,-84.9402778
"Five Points Corner, IN",41.3327778,-87.0358333
"Flackville, IN",39.8097222,-86.2208333
"Flat Iron, IN",40.0533333,-87.4900000
"Flat Rock, IN",39.3641667,-85.8316667
"Flat Rock Park, IN",39.2527778,-85.9155556
"Flax, IN",40.6416667,-86.5166667
"Fleener, IN",39.2825000,-86.4125000
"Fleming, IN",38.9736111,-85.8063889
"Fletcher, IN",40.9119444,-86.3327778
"Flint, IN",41.6500000,-85.1272222
"Flora, IN",40.5472222,-86.5244444
"Florence, IN",38.7841667,-84.9244444
"Florida, IN",40.1602778,-85.7102778
"Floyds Knobs, IN",38.3244444,-85.8736111
"Foley, IN",39.9652778,-85.3777778
"Folsomville, IN",38.1291667,-87.1641667
"Fontanet, IN",39.5761111,-87.2436111
"Foraker, IN",41.5158333,-85.9241667
"Foresman, IN",40.4997222,-87.1505556
"Forest, IN",40.3736111,-86.3327778
"Forest City, IN",41.1947222,-87.2666667
"Forest Glen, IN",41.3266667,-85.7636111
"Forest Hill, IN",39.2569444,-85.6133333
"Forest Hills, IN",40.1236111,-85.6966667
"Forest Park, IN",39.2358333,-85.9147222
"Forest Park Heights, IN",39.2094444,-86.5886111
"Forest Ridge, IN",41.0219444,-85.2733333
"Fort Branch, IN",38.2511111,-87.5811111
"Fort Ritner, IN",38.7730556,-86.2811111
"Fort Wayne, IN",41.1305556,-85.1288889
"Fortville, IN",39.9322222,-85.8480556
"Foster, IN",40.1466667,-87.4713889
"Fosters Ridge, IN",38.2327778,-86.6625000
"Fountain, IN",40.2222222,-87.3352778
"Fountain City, IN",39.9555556,-84.9175000
"Fountain Park, IN",40.7791667,-87.1616667
"Fountaintown, IN",39.6947222,-85.7830556
"Four Corners, IN",38.9541667,-85.7402778
"Four Presidents Corners, IN",41.0080556,-84.8538889
"Fowler, IN",40.6166667,-87.3208333
"Fowlerton, IN",40.4094444,-85.5736111
"Fox, IN",40.6397222,-85.6950000
"Fox Hill, IN",39.6005556,-86.2838889
"Fox Ridge, IN",39.6325000,-86.8486111
"Frances, IN",39.6058333,-86.1688889
"Francesville, IN",40.9852778,-86.8794444
"Francisco, IN",38.3322222,-87.4452778
"Frankfort, IN",40.2794444,-86.5108333
"Franklin, IN",39.4805556,-86.0550000
"Frankton, IN",40.2227778,-85.7788889
"Fredericksburg, IN",38.4330556,-86.1897222
"Fredonia, IN",38.1780556,-86.3830556
"Free, IN",40.6216667,-87.4572222
"Freedom, IN",39.2069444,-86.8691667
"Freeland Park, IN",40.6144444,-87.4911111
"Freelandville, IN",38.8647222,-87.3058333
"Freeman, IN",39.1952778,-86.7336111
"Freeport, IN",39.6586111,-85.7258333
"Freetown, IN",38.9730556,-86.1294444
"Fremont, IN",41.7308333,-84.9327778
"French Lick, IN",38.5488889,-86.6200000
"Frenchtown, IN",38.3147222,-86.2144444
"Friendly Corner, IN",40.5533333,-85.5036111
"Friendship, IN",38.9702778,-85.1477778
"Friendswood, IN",39.6463889,-86.3327778
"Fritchton, IN",38.6802778,-87.4230556
"Fritz Corner, IN",38.2975000,-87.1588889
"Fruitdale, IN",39.3219444,-86.2577778
"Fulda, IN",38.1113889,-86.8361111
"Fulton, IN",40.9472222,-86.2627778
"Furnace, IN",39.0141667,-86.9130556
"Furnessville, IN",41.6516667,-87.0075000
"Gadsden, IN",40.0472222,-86.3458333
"Galader Station, IN",39.6847222,-86.0161111
"Gale, IN",39.7666667,-86.4666667
"Galena, IN",38.3516667,-85.9416667
"Galloways Station, IN",38.8402778,-85.4622222
"Galveston, IN",40.5788889,-86.1902778
"Gambill, IN",39.0488889,-87.2597222
"Garden Acres, IN",39.1244444,-86.5780556
"Garden City, IN",39.1833333,-85.9333333
"Garden Village, IN",41.6952778,-85.9144444
"Garfield, IN",40.0830556,-86.8238889
"Garrett, IN",41.3494444,-85.1355556
"Gary, IN",41.5933333,-87.3463889
"Garyton, IN",41.5697222,-87.2102778
"Gas City, IN",40.4872222,-85.6130556
"Gasburg, IN",39.5944444,-86.4369444
"Gaston, IN",40.3138889,-85.5005556
"Gatchel, IN",38.0466667,-86.6505556
"Gates Corner, IN",40.1061111,-85.2527778
"Gatesville, IN",39.2616667,-86.1463889
"Gaynorsville, IN",39.2427778,-85.5200000
"Geetingsville, IN",40.4163889,-86.4686111
"Gehring and Gumz Ditch, IN",40.2344444,-85.5783333
"Gem, IN",39.7794444,-85.8966667
"Geneva, IN",40.5919444,-84.9572222
"Gentryville, IN",38.1041667,-87.0330556
"Georgetown, IN",38.2944444,-85.9755556
"Georgia, IN",38.7100000,-86.5722222
"Gerald, IN",38.0075000,-86.5730556
"Germantown, IN",39.4152778,-85.6263889
"Germany, IN",38.4622222,-85.5427778
"Gessie, IN",40.0825000,-87.4997222
"Gibson, IN",41.6052778,-87.4613889
"Gifford, IN",41.0708333,-87.0525000
"Gilead, IN",40.9702778,-86.0186111
"Gilmer Park, IN",41.6197222,-86.2516667
"Gilmour, IN",39.1313889,-87.2408333
"Gimco City, IN",40.2583333,-85.6838889
"Gingrich Addition, IN",40.6738889,-86.7541667
"Gings, IN",39.6708333,-85.3708333
"Giro, IN",38.5111111,-87.4708333
"Gladens Corner, IN",40.2586111,-86.8283333
"Glen Ayre, IN",39.4736111,-87.2958333
"Glen Cliff, IN",40.3163889,-87.2488889
"Glen Eden, IN",41.6911111,-85.0172222
"Glen Park, IN",41.5416667,-87.3361111
"Glendale, IN",38.5680556,-87.0772222
"Glendale Heights, IN",39.8858333,-86.1108333
"Glendora, IN",39.1280556,-87.3627778
"Glenhall, IN",40.3541667,-87.0408333
"Glenn Ayr, IN",39.4719444,-87.2952778
"Glenns Valley, IN",39.6419444,-86.1963889
"Glenwood, IN",39.6258333,-85.3002778
"Glezen, IN",38.4163889,-87.3011111
"Glidas, IN",38.0566667,-86.1844444
"Glyn Ellen, IN",40.1111111,-85.6477778
"Gnaw Bone, IN",39.1908333,-86.1555556
"Goblesville, IN",40.9900000,-85.5102778
"Golden Acres, IN",41.1266667,-85.0619444
"Golden Hill, IN",40.7102778,-86.7605556
"Goldsmith, IN",40.2894444,-86.1491667
"Goodland, IN",40.7633333,-87.2936111
"Goodwins Corner, IN",39.6491667,-84.8336111
"Gooseport, IN",38.7100000,-85.9408333
"Goshen, IN",41.5822222,-85.8344444
"Gospel Grove, IN",39.4763889,-87.2927778
"Gosport, IN",39.3508333,-86.6669444
"Gowdy, IN",39.5188889,-85.5630556
"Grabill, IN",41.2108333,-84.9669444
"Grafton, IN",38.0013889,-87.9541667
"Graham, IN",38.7216667,-87.1963889
"Graham Valley, IN",38.1494444,-87.2905556
"Graham Woods, IN",41.6175000,-87.0272222
"Grammer, IN",39.1527778,-85.7250000
"Grandview, IN",37.9336111,-86.9811111
"Grandview Lake, IN",39.1522222,-86.0463889
"Grange Corner, IN",39.9400000,-87.1858333
"Granger, IN",41.7533333,-86.1108333
"Grant City, IN",39.8663889,-85.5425000
"Grantsburg, IN",38.2880556,-86.4694444
"Granville, IN",40.3172222,-85.3186111
"Grass Creek, IN",40.9475000,-86.4044444
"Gravel Beach, IN",41.5508333,-85.2233333
"Gravel Hill, IN",40.6500000,-87.3700000
"Gravelton, IN",41.4358333,-85.9241667
"Gray Junction, IN",38.3263889,-87.3447222
"Grayford, IN",38.9627778,-85.5741667
"Graysville, IN",39.1175000,-87.5561111
"Green Acres, IN",41.4838889,-87.2972222
"Green Center, IN",41.3083333,-85.3661111
"Green Hill, IN",40.4136111,-87.1111111
"Green Meadows, IN",39.6308333,-85.8919444
"Green Oak, IN",40.9963889,-86.1841667
"Green Valley, IN",39.6061111,-86.1400000
"Greenbriar, IN",39.9016667,-86.1797222
"Greenbrier, IN",38.1205556,-87.2836111
"Greencastle, IN",39.6444444,-86.8647222
"Greendale, IN",39.1125000,-84.8641667
"Greene, IN",40.4083333,-85.1000000
"Greenfield, IN",39.7850000,-85.7694444
"Greenfield Mills, IN",41.7505556,-85.2255556
"Greenleaf Manor, IN",41.6986111,-85.9369444
"Greens Fork, IN",39.8925000,-85.0416667
"Greensboro, IN",39.8750000,-85.4661111
"Greensburg, IN",39.3372222,-85.4836111
"Greentown, IN",40.4780556,-85.9666667
"Greenville, IN",38.3725000,-85.9863889
"Greenwood, IN",39.6136111,-86.1066667
"Gridley, IN",40.0886111,-85.6527778
"Griffin, IN",38.2041667,-87.9147222
"Griffith, IN",41.5283333,-87.4236111
"Grismore, IN",41.4955556,-85.6347222
"Groomsville, IN",40.3458333,-86.2027778
"Groveland, IN",39.7605556,-86.7200000
"Grovertown, IN",41.3750000,-86.5047222
"Gudgel, IN",38.3047222,-87.3644444
"Guernsey, IN",40.8002778,-86.8127778
"Guilford, IN",39.1680556,-84.9119444
"Guion, IN",39.8427778,-87.1113889
"Guise Park, IN",41.0777778,-86.4569444
"Gulivoire Park, IN",41.6133333,-86.2452778
"Gurley Corner, IN",38.8591667,-84.8583333
"Gurley Landing, IN",37.9591667,-86.0469444
"Guthrie, IN",38.9766667,-86.5091667
"Guy, IN",40.4352778,-85.9755556
"Gwynneville, IN",39.6608333,-85.6480556
"Hacienda Village, IN",41.1172222,-85.0300000
"Hackleman, IN",40.4216667,-85.7480556
"Hadley, IN",39.7313889,-86.6027778
"Hagerstown, IN",39.9111111,-85.1616667
"Haglund, IN",41.6125000,-87.1158333
"Haleysbury, IN",38.7419444,-86.1508333
"Hall, IN",39.5500000,-86.5358333
"Halls Corners, IN",41.2408333,-84.8522222
"Hamburg, IN",38.3833333,-85.7675000
"Hamilton, IN",41.5336111,-84.9127778
"Hamlet, IN",41.5475000,-86.5822222
"Hammond, IN",41.5833333,-87.5000000
"Hancock Chapel, IN",38.3816667,-86.1794444
"Hancock Corner, IN",39.2752778,-86.8288889
"Handy, IN",40.5008333,-87.4713889
"Haney Corner, IN",38.9388889,-85.3058333
"Hanfield, IN",40.6044444,-85.5802778
"Hanging Grove, IN",40.9341667,-86.9836111
"Hangman Crossing, IN",38.9433333,-85.9266667
"Hanna, IN",41.4119444,-86.7800000
"Hanover, IN",38.7141667,-85.4736111
"Hanover Beach, IN",38.7066667,-85.4533333
"Happy Hollow, IN",38.0533333,-85.9377778
"Happy Hollow Heights, IN",40.4427778,-86.9002778
"Hardingrove, IN",37.9269444,-86.5713889
"Hardinsburg, IN",38.4608333,-86.2786111
"Hardscrabble, IN",40.0197222,-85.8433333
"Harlan, IN",41.1961111,-84.9197222
"Harlansburg, IN",40.8144444,-85.5644444
"Harley, IN",40.5397222,-86.6391667
"Harley Siding, IN",40.5513889,-86.6347222
"Harmeson Heights, IN",40.0586111,-85.6922222
"Harmony, IN",39.5366667,-87.1058333
"Harper, IN",39.1466667,-85.5936111
"Harris, IN",41.4147222,-86.3036111
"Harris City, IN",39.2813889,-85.5272222
"Harrisburg, IN",39.6866667,-85.1800000
"Harrison, IN",39.5286111,-87.4222222
"Harrison Grange, IN",38.2152778,-86.1022222
"Harrison Lake, IN",40.1669444,-87.2377778
"Harristown, IN",38.5977778,-86.0241667
"Harrisville, IN",40.1847222,-84.8816667
"Harrodsburg, IN",39.0133333,-86.5450000
"Hartford, IN",38.9930556,-84.9569444
"Hartford City, IN",40.4511111,-85.3700000
"Hartleyville, IN",38.7961111,-86.5350000
"Hartsdale, IN",41.5077778,-87.4713889
"Hartsville, IN",39.2675000,-85.6980556
"Hartwell, IN",38.3225000,-87.1797222
"Hartwell Junction, IN",38.3605556,-87.1408333
"Hartzel, IN",41.5633333,-85.2358333
"Harveysburg, IN",39.9822222,-87.2947222
"Harwood, IN",38.0033333,-87.5747222
"Hashtown, IN",39.0250000,-86.9244444
"Haskell, IN",41.4838889,-86.9019444
"Hastings, IN",41.3836111,-85.9294444
"Hatfield, IN",37.9025000,-87.2241667
"Haubstadt, IN",38.2050000,-87.5741667
"Hawthorn Hills, IN",39.9444444,-85.9802778
"Hawthorne Hills, IN",41.3947222,-87.3791667
"Hawton, IN",39.1263889,-87.3111111
"Hayden, IN",38.9830556,-85.7405556
"Haysville, IN",38.4855556,-86.9150000
"Haysville Corner, IN",40.1805556,-84.8258333
"Hazel College, IN",40.0463889,-86.5102778
"Hazelrigg, IN",40.0822222,-86.5630556
"Hazelwood, IN",39.6155556,-86.5219444
"Hazleton, IN",38.4888889,-87.5416667
"Headlee, IN",40.8977778,-86.6586111
"Heath, IN",40.4611111,-86.7333333
"Hebron, IN",41.3186111,-87.2002778
"Hedrick, IN",40.3016667,-87.4908333
"Heilman, IN",38.1575000,-87.0902778
"Helmcrest, IN",39.9405556,-85.8405556
"Helmer, IN",41.5311111,-85.1702778
"Helmsburg, IN",39.2652778,-86.2927778
"Heltonville, IN",38.9277778,-86.3755556
"Hemenway, IN",38.2038889,-87.1344444
"Hemlock, IN",40.4200000,-86.0413889
"Henderson, IN",39.6694444,-85.5202778
"Hendricks, IN",39.6080556,-86.1483333
"Hendricksville, IN",39.1361111,-86.7038889
"Henry, IN",39.7858333,-85.5875000
"Henryville, IN",38.5416667,-85.7677778
"Hepburn, IN",38.0702778,-87.8011111
"Herbamount, IN",39.5077778,-86.5588889
"Herbst, IN",40.5147222,-85.7872222
"Herr, IN",39.9555556,-86.4316667
"Hessen Cassel, IN",40.9777778,-85.0791667
"Hesston, IN",41.7527778,-86.6608333
"Hessville, IN",41.5955556,-87.4616667
"Heusler, IN",37.9336111,-87.7127778
"Hi-View Addition, IN",41.6083333,-86.1783333
"Hibbard, IN",41.2533333,-86.3869444
"Hibernia, IN",38.5019444,-85.5255556
"Hickory Corner, IN",39.3050000,-87.0444444
"Hickory Island, IN",39.3294444,-87.2394444
"Hickory Ridge, IN",38.2583333,-87.8266667
"Hicks, IN",41.7063889,-86.5691667
"Hidden Valley, IN",39.1622222,-84.8430556
"Highbank Town, IN",38.5144444,-87.1502778
"Highbanks, IN",41.3233333,-85.6711111
"Highets Corner, IN",39.2819444,-86.7041667
"Highland, IN",39.7944444,-87.3958333
"Highland Center, IN",39.3216667,-85.0038889
"Highland Village, IN",39.1608333,-86.5836111
"Highlands Park, IN",41.2733333,-85.7858333
"Highwoods, IN",39.8441667,-86.1833333
"Hildebrand Village, IN",39.5466667,-85.7861111
"Hillcrest, IN",41.0261111,-85.1344444
"Hillcrest Terrace, IN",37.9488889,-87.3963889
"Hillham, IN",38.5138889,-86.7005556
"Hillisburg, IN",40.2863889,-86.3391667
"Hillsboro, IN",40.1088889,-87.1855556
"Hillsdale, IN",39.7858333,-87.3902778
"Hillside, IN",41.7102778,-86.6175000
"Hilltown, IN",38.8369444,-85.6622222
"Hindostan, IN",38.6655556,-86.6044444
"Hindostan Falls, IN",38.6244444,-86.8508333
"Hindustan, IN",39.3080556,-86.4833333
"Hirt Corner, IN",39.4736111,-87.0147222
"Hiser, IN",39.8150000,-85.0777778
"Hitchcock, IN",38.6380556,-86.1697222
"Hoagland, IN",40.9477778,-84.9916667
"Hobart, IN",41.5322222,-87.2550000
"Hobbieville, IN",38.9991667,-86.7063889
"Hobbs, IN",40.2836111,-85.9475000
"Hoffman Crossing, IN",39.3591667,-86.9497222
"Hogtown, IN",38.3583333,-86.3177778
"Holaday Hills and Dales, IN",39.9363889,-86.1194444
"Holida, IN",39.8863889,-86.1900000
"Holland, IN",38.2455556,-87.0361111
"Hollandsburg, IN",39.7602778,-87.0722222
"Holmesville, IN",41.5997222,-86.8811111
"Holton, IN",39.0750000,-85.3872222
"Home Corner, IN",40.5236111,-85.6405556
"Home Place, IN",39.9438889,-86.1433333
"Homecroft, IN",39.6700000,-86.1313889
"Homer, IN",39.5780556,-85.5780556
"Homestead, IN",39.1241667,-84.8525000
"Honduras, IN",40.7580556,-85.0330556
"Honey Creek, IN",40.0338889,-85.4855556
"Honeyville, IN",41.5816667,-85.6016667
"Hooker Corner, IN",40.4547222,-87.3163889
"Hoosier, IN",39.0666667,-87.1858333
"Hoosier Acres, IN",39.1577778,-86.4869444
"Hoosierville, IN",39.4750000,-87.1083333
"Hoover, IN",40.8088889,-86.2005556
"Hoover Crest, IN",39.8875000,-86.1741667
"Hoover Mill, IN",39.8638889,-85.0644444
"Hoover Park, IN",40.4541667,-85.3611111
"Hope, IN",39.3038889,-85.7713889
"Hopeville, IN",39.7013889,-84.9705556
"Hopewell, IN",39.4919444,-86.1172222
"Horace, IN",39.2625000,-85.5641667
"Hortonville, IN",40.0861111,-86.1608333
"Houston, IN",39.0163889,-86.1908333
"Hovey, IN",37.8922222,-87.9419444
"Howard, IN",39.9161111,-87.3755556
"Howe, IN",41.7213889,-85.4205556
"Howesville, IN",39.1769444,-87.1469444
"Hubbard, IN",41.6963889,-86.4188889
"Hubbell, IN",39.1830556,-87.0122222
"Hubbells Corner, IN",39.2344444,-85.0400000
"Huber, IN",39.6861111,-85.1391667
"Hudnut, IN",39.6594444,-87.3769444
"Hudson, IN",41.5327778,-85.0811111
"Hudson Lake, IN",41.7102778,-86.5341667
"Hudsonville, IN",38.5388889,-87.0727778
"Huffman, IN",38.1019444,-86.7769444
"Hunter Corner, IN",40.1713889,-87.2430556
"Hunter Switch, IN",39.1736111,-86.5736111
"Huntersville, IN",39.3036111,-85.2330556
"Huntertown, IN",41.2283333,-85.1725000
"Huntingburg, IN",38.2988889,-86.9550000
"Huntington, IN",40.8830556,-85.4975000
"Huntsville, IN",40.0086111,-85.7302778
"Hurlburt, IN",41.3700000,-87.1766667
"Huron, IN",38.7222222,-86.6705556
"Hursh, IN",41.2480556,-84.9741667
"Hutton, IN",39.3175000,-87.5338889
"Hyde Park, IN",40.1925000,-85.3083333
"Hymera, IN",39.1863889,-87.3016667
"Hyndsdale, IN",39.4158333,-86.4847222
"Idaville, IN",40.7569444,-86.6494444
"Idlewold, IN",39.9861111,-85.7527778
"Ijamsville, IN",40.9597222,-85.8327778
"Ilene, IN",38.9375000,-87.1125000
"Illinoi, IN",41.1897222,-87.5261111
"Imperial Hills, IN",39.6316667,-86.1416667
"Independence, IN",40.3375000,-87.1688889
"Independence Hill, IN",41.4761111,-87.3672222
"Indian Creek Estates, IN",39.6786111,-85.9708333
"Indian Creek Settlement, IN",38.7291667,-87.3455556
"Indian Heights, IN",40.4272222,-86.1255556
"Indian Hill, IN",41.3252778,-86.6833333
"Indian Hills, IN",41.6222222,-85.1558333
"Indian Lake, IN",39.8852778,-85.9869444
"Indian Springs, IN",38.7963889,-86.7650000
"Indian Village, IN",41.3658333,-85.6394444
"Indiana Beach, IN",40.7913889,-86.7680556
"Indiana Harbor, IN",41.6405556,-87.4452778
"Indianapolis, IN",39.7683333,-86.1580556
"Indianola, IN",41.5647222,-85.2469444
"Ingalls, IN",39.9569444,-85.8052778
"Ingallston, IN",39.7250000,-86.0847222
"Inglefield, IN",38.1080556,-87.5588889
"Inverness, IN",41.7005556,-85.0936111
"Inwood, IN",41.3175000,-86.2030556
"Iona, IN",38.5486111,-87.4716667
"Ireland, IN",38.4147222,-86.9994444
"Irondale, IN",40.0986111,-85.6575000
"Ironton, IN",38.6622222,-86.7752778
"Irvington, IN",39.7708333,-86.0750000
"Island City, IN",39.0091667,-87.1477778
"Island Park, IN",41.5408333,-84.9211111
"Iva, IN",38.5027778,-87.1194444
"Ivanhoe, IN",41.5977778,-87.4244444
"Ivy Hills, IN",39.8997222,-86.0733333
"Jackson, IN",39.0650000,-85.4413889
"Jackson Hill, IN",39.1683333,-87.3619444
"Jacksonburg, IN",39.8530556,-85.1058333
"Jacksons, IN",40.3291667,-86.0611111
"Jacksonville, IN",38.8288889,-85.0488889
"Jadden, IN",40.5361111,-85.4575000
"Jalapa, IN",40.6277778,-85.7455556
"Jamestown, IN",39.9266667,-86.6288889
"Janney, IN",40.3650000,-85.5438889
"Jarretts, IN",38.1208333,-87.3586111
"Jasonville, IN",39.1630556,-87.1991667
"Jasper, IN",38.3913889,-86.9311111
"Jay City, IN",40.5672222,-84.8486111
"Jeff, IN",40.6052778,-85.3530556
"Jefferson, IN",40.2794444,-86.5900000
"Jeffersonville, IN",38.2775000,-85.7372222
"Jenkinsville, IN",39.5327778,-86.8752778
"Jericho, IN",38.1991667,-86.4244444
"Jerome, IN",40.4552778,-85.9308333
"Jessup, IN",39.6572222,-87.2566667
"Jewell Village, IN",39.1986111,-85.8497222
"Jimtown, IN",38.2730556,-87.8530556
"Jockey, IN",38.1783333,-87.1633333
"Johnsburg, IN",38.2177778,-86.9555556
"Johnson, IN",38.2777778,-87.7458333
"Johnsonville, IN",40.2275000,-87.4863889
"Johnstown, IN",39.1666667,-87.0088889
"Jolietville, IN",40.0419444,-86.2311111
"Jolleyville, IN",38.9941667,-85.3594444
"Jonesboro, IN",40.4797222,-85.6277778
"Jonestown, IN",39.7091667,-87.5038889
"Jonesville, IN",39.0605556,-85.8897222
"Joppa, IN",39.6322222,-86.4322222
"Jordan, IN",39.3983333,-86.9166667
"Judah, IN",38.9608333,-86.5372222
"Judson, IN",39.8130556,-87.1344444
"Judyville, IN",40.3583333,-87.3950000
"Julietta, IN",39.7375000,-85.9572222
"Kalorama Park, IN",41.3344444,-85.7608333
"Kanata Manayunk, IN",41.4102778,-85.6916667
"Kankakee, IN",41.5083333,-86.5394444
"Kansas, IN",39.3313889,-86.0325000
"Kappa Corner, IN",40.5327778,-86.2708333
"Kasson, IN",38.0169444,-87.6361111
"Keller, IN",39.3602778,-87.3241667
"Kellerville, IN",38.4816667,-86.8316667
"Kempton, IN",40.2883333,-86.2297222
"Kendallville, IN",41.4413889,-85.2650000
"Kennard, IN",39.9038889,-85.5194444
"Kennedy, IN",38.0813889,-86.9225000
"Kenneth, IN",40.7611111,-86.4730556
"Kent, IN",38.7377778,-85.5400000
"Kentland, IN",40.7702778,-87.4452778
"Kentwood, IN",40.2769444,-86.4897222
"Kercheval, IN",38.0894444,-87.0138889
"Kersey, IN",41.1941667,-87.1563889
"Kewanna, IN",41.0186111,-86.4133333
"Keystone, IN",40.5955556,-85.2594444
"Keystone Manor, IN",39.7633333,-86.2763889
"Keytsville, IN",39.6513889,-87.0122222
"Kiley, IN",40.5275000,-85.6802778
"Kilmore, IN",40.3486111,-86.5055556
"Kimmell, IN",41.3952778,-85.5483333
"Kinder, IN",39.5438889,-86.1972222
"King, IN",38.3041667,-87.5761111
"Kingman, IN",39.9675000,-87.2775000
"Kings Store, IN",38.2036111,-86.0611111
"Kingsbury, IN",41.5275000,-86.7000000
"Kingsford Heights, IN",41.4805556,-86.6916667
"Kingsland, IN",40.8300000,-85.1772222
"Kingston, IN",39.3788889,-85.3883333
"Kinsey, IN",41.0961111,-85.7050000
"Kirby, IN",39.1366667,-86.6100000
"Kirklin, IN",40.1933333,-86.3605556
"Kirkpatrick, IN",40.2063889,-86.8191667
"Kirksville, IN",39.0458333,-86.6130556
"Kirschs Corner, IN",39.1219444,-84.9366667
"Kitchel, IN",39.6830556,-84.8613889
"Kitt, IN",40.4961111,-85.0475000
"Kitterman Corners, IN",38.2225000,-86.6975000
"Klaasville, IN",41.3558333,-87.5175000
"Klemmes Corner, IN",39.3538889,-85.0036111
"Klondike, IN",40.4675000,-86.9622222
"Klondyke, IN",39.7911111,-87.3391667
"Knarr Corner, IN",39.3041667,-85.4286111
"Knight Ridge, IN",39.1252778,-86.4330556
"Knighthood Grove, IN",39.5536111,-85.7566667
"Knighthood Village, IN",39.5783333,-85.7422222
"Knightstown, IN",39.7955556,-85.5263889
"Knightsville, IN",39.5258333,-87.1125000
"Kniman, IN",41.1441667,-87.1375000
"Knob Hill, IN",38.0322222,-87.5186111
"Knollton Heights, IN",39.8411111,-86.2019444
"Knox, IN",41.2958333,-86.6250000
"Kokomo, IN",40.4863889,-86.1336111
"Koleen, IN",38.9713889,-86.8288889
"Koontz Lake, IN",41.4180556,-86.4858333
"Kossuth, IN",38.7044444,-86.1027778
"Kouts, IN",41.3166667,-87.0258333
"Kramer, IN",40.3386111,-87.2875000
"Kratzville, IN",38.0225000,-87.5855556
"Kreitzburg, IN",41.4358333,-87.5211111
"Kriete Corner, IN",38.9175000,-85.8327778
"Kurtz, IN",38.9605556,-86.2033333
"Kyana, IN",38.3050000,-86.7822222
"Kyle, IN",39.1383333,-84.9883333
"La Crosse, IN",41.3175000,-86.8913889
"La Fontaine, IN",40.6738889,-85.7213889
"La Paz, IN",41.4597222,-86.3083333
"La Paz Junction, IN",41.4594444,-86.2950000
"LaPorte, IN",41.6105556,-86.7225000
"Laconia, IN",38.0316667,-86.0855556
"Lacy, IN",38.6336111,-86.7763889
"Ladoga, IN",39.9136111,-86.8011111
"Lafayette, IN",40.4166667,-86.8752778
"Lagrange, IN",41.6416667,-85.4166667
"Lagro, IN",40.8380556,-85.7302778
"Lake Bruce, IN",41.0702778,-86.4644444
"Lake Cicott, IN",40.7641667,-86.5241667
"Lake Dalecarlia, IN",41.3308333,-87.3947222
"Lake Eliza, IN",41.4288889,-87.1719444
"Lake Grange, IN",41.6902778,-85.7691667
"Lake Hart, IN",39.5675000,-86.4319444
"Lake Hills, IN",41.4641667,-87.4461111
"Lake James, IN",41.7050000,-85.0483333
"Lake Mill, IN",37.9377778,-87.1097222
"Lake Park, IN",41.7047222,-86.5497222
"Lake Shores, IN",41.0222222,-85.1538889
"Lake Station, IN",41.5750000,-87.2388889
"Lake View, IN",39.4855556,-85.2483333
"Lake Village, IN",41.1375000,-87.4486111
"Lake Wood, IN",40.5530556,-85.5680556
"Lake on the Green, IN",39.1375000,-86.1166667
"Lakes of the Four Seasons, IN",41.4102778,-87.2130556
"Lakeside, IN",40.9341667,-86.7377778
"Lakeside Park, IN",41.2522222,-85.8491667
"Laketon, IN",40.9741667,-85.8358333
"Lakeview, IN",41.5458333,-85.2208333
"Lakeview Spring, IN",41.2863889,-85.6880556
"Lakeville, IN",41.5244444,-86.2733333
"Lakewood, IN",40.6863889,-86.7597222
"Lakewood Hills, IN",38.0022222,-87.5136111
"Lalimere, IN",41.7172222,-86.7002778
"Lamar, IN",38.0691667,-86.9055556
"Lamb, IN",38.6919444,-85.1880556
"Lamong, IN",40.0855556,-86.2033333
"Lanam, IN",39.2336111,-86.3275000
"Lancaster, IN",40.7488889,-85.5069444
"Lancaster Park, IN",39.2102778,-86.5608333
"Landersdale, IN",39.6194444,-86.2630556
"Landess, IN",40.6108333,-85.5611111
"Lanesville, IN",38.2369444,-85.9858333
"Langoons, IN",38.8369444,-85.8572222
"Lantana Estate, IN",39.5041667,-85.7625000
"Laotto, IN",41.2902778,-85.1980556
"Lap Corner, IN",39.4308333,-87.0716667
"Lapel, IN",40.0683333,-85.8483333
"Lapland, IN",39.9050000,-86.9027778
"Larimer Hill, IN",39.4555556,-87.4719444
"Larwill, IN",41.1805556,-85.6255556
"Laud, IN",41.0494444,-85.4522222
"Lauer, IN",37.8791667,-86.6016667
"Laughery Switch, IN",39.1494444,-85.2413889
"Laugheryville, IN",39.2280556,-85.2969444
"Laura, IN",41.1000000,-87.0666667
"Laurel, IN",39.5008333,-85.1863889
"Lawrence, IN",39.8386111,-86.0252778
"Lawrenceburg, IN",39.0908333,-84.8500000
"Lawrenceburg Junction, IN",39.1305556,-84.8425000
"Lawrenceport, IN",38.7511111,-86.3877778
"Lawrenceville, IN",39.2777778,-85.0394444
"Lawton, IN",41.0997222,-86.5250000
"Layton, IN",40.1280556,-87.3333333
"Leases Corner, IN",40.8663889,-86.3741667
"Leatherwood, IN",39.7516667,-87.2852778
"Leavenworth, IN",38.1997222,-86.3441667
"Lebanon, IN",40.0483333,-86.4691667
"Lee, IN",40.8963889,-86.9680556
"Leesburg, IN",41.3319444,-85.8500000
"Leesville, IN",38.8455556,-86.2844444
"Legendary Hills, IN",39.8791667,-86.2622222
"Leipsic, IN",38.6711111,-86.3697222
"Leisure, IN",40.3641667,-85.8430556
"Leiters Ford, IN",41.1216667,-86.3858333
"Lena, IN",39.6050000,-87.1072222
"Lena Park, IN",41.1944444,-86.7172222
"Leo-Cedarville, IN",41.2125000,-85.0166667
"Leonard Springs, IN",39.1405556,-86.5772222
"Leopold, IN",38.1038889,-86.5833333
"Leota, IN",38.6483333,-85.8502778
"Leroy, IN",41.3600000,-87.2719444
"Letts, IN",39.2350000,-85.5650000
"Letts Corner, IN",39.2347222,-85.5750000
"Lettsville, IN",38.7186111,-87.1744444
"Levert, IN",41.1555556,-85.3150000
"Lewis, IN",39.2600000,-87.2575000
"Lewis Creek, IN",39.4011111,-85.8166667
"Lewisburg, IN",40.7466667,-86.2175000
"Lewiston, IN",41.0269444,-87.0458333
"Lewisville, IN",39.8066667,-85.3527778
"Lexington, IN",38.6522222,-85.6252778
"Liber, IN",40.4080556,-84.9694444
"Liberal, IN",38.0458333,-86.9430556
"Liberty, IN",39.6355556,-84.9311111
"Liberty Center, IN",40.6991667,-85.2805556
"Liberty Corners, IN",40.1933333,-85.3300000
"Liberty Hills, IN",41.0333333,-85.2663889
"Liberty Mills, IN",41.0336111,-85.7358333
"Liberty Park, IN",41.4325000,-87.3686111
"Libertyville, IN",39.6027778,-87.5186111
"Liggett, IN",39.4791667,-87.4836111
"Ligonier, IN",41.4658333,-85.5875000
"Lilly Dale, IN",38.0116667,-86.6513889
"Limedale, IN",39.6191667,-86.8791667
"Lincoln, IN",40.6155556,-86.2100000
"Lincoln City, IN",38.1211111,-86.9986111
"Lincoln Hills, IN",41.4683333,-87.1077778
"Lincoln Pioneer Village, IN",37.8800000,-87.0583333
"Lincoln Village, IN",41.4741667,-87.3819444
"Lincolnshire, IN",41.0275000,-85.1402778
"Lincolnville, IN",40.7544444,-85.6777778
"Linden, IN",40.1880556,-86.9038889
"Lindenwood, IN",39.6586111,-86.1541667
"Linkville, IN",41.4161111,-86.2869444
"Linn Grove, IN",40.6450000,-85.0330556
"Linnsburg, IN",40.0002778,-86.8000000
"Linton, IN",39.0347222,-87.1658333
"Linwood, IN",40.1936111,-85.6816667
"Lippe, IN",38.0152778,-87.7538889
"Lisbon, IN",41.4111111,-85.2597222
"Little Acre, IN",39.0361111,-85.8827778
"Little Charlie, IN",40.8250000,-86.2019444
"Little Point, IN",39.5650000,-86.6319444
"Little Rock, IN",38.4947222,-87.6791667
"Little Saint Louis, IN",38.3027778,-86.2369444
"Little York, IN",38.7027778,-85.9050000
"Littles, IN",38.4011111,-87.2872222
"Liverpool, IN",41.5525000,-87.2947222
"Livonia, IN",38.5569444,-86.2775000
"Lizton, IN",39.8866667,-86.5433333
"Loafers Station, IN",38.1255556,-87.1180556
"Lochiel, IN",40.6641667,-87.2738889
"Locke, IN",41.4716667,-86.0122222
"Lockport, IN",40.6991667,-86.5736111
"Locust Grove, IN",39.7694444,-84.8519444
"Locust Point, IN",38.1711111,-85.9077778
"Lodi, IN",39.9500000,-87.4058333
"Log Cabin Crossroads, IN",40.0252778,-86.7002778
"Logan, IN",38.9422222,-86.5080556
"Logansport, IN",40.7544444,-86.3566667
"Lomax, IN",41.2588889,-86.8716667
"London, IN",39.6255556,-85.9202778
"London Heights, IN",39.6286111,-85.9144444
"Lone Tree, IN",39.1258333,-87.1288889
"Long Beach, IN",41.7388889,-86.8569444
"Long Lake Island, IN",41.5216667,-87.0483333
"Long Run, IN",38.7530556,-85.1177778
"Longview Beach, IN",38.3655556,-85.6394444
"Longwood Crossing, IN",39.6558333,-85.2272222
"Loogootee, IN",38.6769444,-86.9141667
"Lookout, IN",39.1952778,-85.2075000
"Lorane, IN",41.2069444,-85.5586111
"Loree, IN",40.6455556,-86.0580556
"Losantville, IN",40.0241667,-85.1827778
"Lost River, IN",38.6069444,-86.4513889
"Lottaville, IN",41.5033333,-87.3647222
"Lottick Corner, IN",38.1711111,-85.9402778
"Lotus, IN",39.6130556,-84.8900000
"Lovett, IN",38.9113889,-85.6330556
"Lowell, IN",41.2913889,-87.4205556
"Lower Sunset Park, IN",40.7069444,-86.7544444
"Lowman Corner, IN",41.0705556,-86.0183333
"Lowmandale, IN",40.0780556,-85.6633333
"Lucerne, IN",40.8663889,-86.4033333
"Ludwig Park, IN",41.1363889,-85.1541667
"Luray, IN",40.0711111,-85.3669444
"Luther, IN",41.0027778,-85.5738889
"Luxhaven, IN",39.9475000,-85.8869444
"Lydick, IN",41.6933333,-86.3800000
"Lyford, IN",39.6500000,-87.3708333
"Lyles, IN",38.3702778,-87.6591667
"Lynhurst, IN",39.7588889,-86.2480556
"Lynn, IN",40.0497222,-84.9397222
"Lynnville, IN",38.1961111,-87.2966667
"Lyons, IN",38.9891667,-87.0822222
"Lyonsville, IN",39.6525000,-85.0538889
"Mace, IN",40.0102778,-86.7963889
"Macedonia, IN",38.0538889,-85.9600000
"Mackey, IN",38.2522222,-87.3916667
"Mackie, IN",40.0602778,-87.2852778
"Macy, IN",40.9591667,-86.1272222
"Madalline, IN",39.7322222,-87.0805556
"Madison, IN",38.7358333,-85.3800000
"Magee, IN",41.5308333,-86.7511111
"Magley, IN",40.8313889,-85.0533333
"Magnet, IN",38.0966667,-86.4633333
"Magnetic Springs, IN",39.7086111,-86.4727778
"Magnolia, IN",38.2491667,-86.3930556
"Mahalasville, IN",39.3602778,-86.3627778
"Mahan Crossing, IN",38.5572222,-86.3644444
"Mahon, IN",40.9386111,-85.3805556
"Majenica, IN",40.7700000,-85.4533333
"Makin, IN",40.9658333,-85.5855556
"Malden, IN",41.3761111,-87.0269444
"Maltersville, IN",38.3463889,-86.8897222
"Manchester, IN",39.1516667,-85.0122222
"Manhattan, IN",39.5550000,-86.9275000
"Manilla, IN",39.5741667,-85.6194444
"Manor Woods, IN",41.0252778,-85.2622222
"Mansfield, IN",39.6763889,-87.1022222
"Manson, IN",40.2400000,-86.5902778
"Manville, IN",38.7877778,-85.2855556
"Maple Lane, IN",41.7000000,-86.2169444
"Maple Ridge, IN",39.6780556,-86.2861111
"Maple Valley, IN",39.8669444,-85.5869444
"Maples, IN",41.0127778,-84.9691667
"Mapleton, IN",39.8288889,-86.1672222
"Mapleton Corner, IN",39.1908333,-85.5461111
"Maplewood, IN",39.8344444,-86.5052778
"Maplewood Park, IN",41.1155556,-85.0563889
"Marble Hill, IN",38.5925000,-85.4505556
"Marco, IN",38.9358333,-87.1422222
"Mardenis, IN",40.9041667,-85.4136111
"Marengo, IN",38.3691667,-86.3436111
"Mariah Hill, IN",38.1652778,-86.9247222
"Marian Manor, IN",41.4669444,-87.0875000
"Marietta, IN",39.4413889,-85.8838889
"Marineland Gardens, IN",41.3780556,-85.6844444
"Marion, IN",40.5583333,-85.6591667
"Marion Heights, IN",39.4947222,-87.4458333
"Marion Mills, IN",39.3063889,-86.9988889
"Markland, IN",38.7819444,-84.9866667
"Markle, IN",40.8291667,-85.3355556
"Markles, IN",39.5269444,-87.3519444
"Markleville, IN",39.9777778,-85.6147222
"Marlin Hills, IN",39.2130556,-86.5233333
"Marrs Center, IN",37.9455556,-87.7550000
"Marshall, IN",39.8480556,-87.1877778
"Marshfield, IN",40.2491667,-87.4527778
"Marshtown, IN",40.9488889,-86.3386111
"Martin, IN",38.1244444,-87.6736111
"Martin Heights, IN",38.6125000,-86.1080556
"Martinsburg, IN",38.4438889,-86.0261111
"Martinsville, IN",39.4277778,-86.4283333
"Marysville, IN",38.5855556,-85.6436111
"Massacre, IN",39.1558333,-87.4075000
"Matamoras, IN",40.5541667,-85.2630556
"Matthews, IN",40.3886111,-85.4994444
"Mattix Corner, IN",40.3441667,-86.5669444
"Mauckport, IN",38.0247222,-86.2019444
"Maumee, IN",39.0211111,-86.2616667
"Mauzy, IN",39.6238889,-85.3383333
"Max, IN",40.0102778,-86.5819444
"Maxinkuckee, IN",41.2083333,-86.3813889
"Maxville, IN",40.1722222,-85.1058333
"Maxwell, IN",39.8575000,-85.7700000
"Mayfield, IN",40.1950000,-85.3500000
"Mayflower Meadows, IN",39.8833333,-86.0844444
"Maynard, IN",41.5413889,-87.5086111
"Mays, IN",39.7436111,-85.4300000
"Maysville, IN",38.6477778,-87.2283333
"Maysville Crossing, IN",40.3308333,-87.1472222
"Maywood, IN",39.7261111,-86.2158333
"McCarty, IN",39.6091667,-86.1311111
"McCol Place, IN",38.6091667,-86.1144444
"McCool, IN",41.5800000,-87.1436111
"McCordsville, IN",39.9080556,-85.9227778
"McCoy, IN",39.3230556,-85.4144444
"McCoysburg, IN",40.9144444,-87.0219444
"McCutchanville, IN",38.0641667,-87.5244444
"McDaniel, IN",39.4119444,-86.4408333
"McGary, IN",38.2644444,-87.6286111
"McGrawsville, IN",40.6302778,-86.0138889
"McKinley, IN",38.7447222,-86.2105556
"McNatts, IN",40.6244444,-85.3911111
"McQuinn Estates, IN",40.4375000,-86.9588889
"McVille, IN",39.1530556,-86.7386111
"Meadow Shores Park, IN",41.5833333,-85.1905556
"Meadowbrook, IN",41.0602778,-85.0391667
"Mecca, IN",39.7272222,-87.3305556
"Mechanicsburg, IN",40.1597222,-86.4811111
"Mechanicsville, IN",38.0338889,-87.5622222
"Medaryville, IN",41.0805556,-86.8919444
"Medford, IN",40.1205556,-85.3208333
"Medora, IN",38.8250000,-86.1700000
"Meiks, IN",39.5530556,-85.7502778
"Mellott, IN",40.1652778,-87.1477778
"Melody Hill, IN",38.0261111,-87.5158333
"Meltzer, IN",39.5188889,-85.6683333
"Memphis, IN",38.4833333,-85.7616667
"Mentone, IN",41.1733333,-86.0347222
"Mentor, IN",38.3163889,-86.7188889
"Meridian Hills, IN",39.8900000,-86.1572222
"Merom, IN",39.0563889,-87.5675000
"Merom Station, IN",39.0302778,-87.5397222
"Merriam, IN",41.2872222,-85.4344444
"Merrick, IN",41.7375000,-86.8152778
"Merrillville, IN",41.4827778,-87.3327778
"Messick, IN",39.9752778,-85.3027778
"Metamora, IN",39.4497222,-85.1394444
"Metea, IN",40.8691667,-86.3094444
"Metz, IN",41.6161111,-84.8394444
"Mexico, IN",40.8222222,-86.1155556
"Miami, IN",40.6141667,-86.1063889
"Miami Bend, IN",40.7508333,-86.2980556
"Miami Trails Addition, IN",41.5988889,-86.2361111
"Michaelsville, IN",40.5236111,-85.7019444
"Michiana Shores, IN",41.7558333,-86.8166667
"Michigan City, IN",41.7075000,-86.8950000
"Michigantown, IN",40.3263889,-86.3927778
"Mickleyville, IN",39.7475000,-86.2613889
"Middle Branch, IN",39.3077778,-85.3858333
"Middleboro, IN",39.8938889,-84.8319444
"Middlebury, IN",41.6752778,-85.7061111
"Middlefork, IN",40.4155556,-86.3925000
"Middletown, IN",40.0572222,-85.5372222
"Middletown Park, IN",40.1622222,-85.4247222
"Midland, IN",39.1219444,-87.1916667
"Midland Junction, IN",39.1072222,-87.1944444
"Midway, IN",37.9994444,-87.1383333
"Midway Corners, IN",41.5208333,-86.2022222
"Mier, IN",40.5752778,-85.8255556
"Mifflin, IN",38.3061111,-86.5402778
"Milan, IN",39.1211111,-85.1313889
"Milan Center, IN",41.1441667,-84.9461111
"Miles Point, IN",38.5686111,-85.4230556
"Milford, IN",41.4097222,-85.8455556
"Milford Junction, IN",41.4283333,-85.8419444
"Milledgeville, IN",39.9741667,-86.4969444
"Miller, IN",41.6022222,-87.2583333
"Millersburg, IN",41.5277778,-85.6944444
"Millersport, IN",38.3430556,-87.0538889
"Millersville, IN",39.8530556,-86.0916667
"Millgrove, IN",40.4083333,-85.2750000
"Millhousen, IN",39.2105556,-85.4325000
"Milligan, IN",39.8455556,-87.0383333
"Millport, IN",38.7713889,-86.1033333
"Milltown, IN",38.3422222,-86.2761111
"Millville, IN",39.9247222,-85.2519444
"Milners Corner, IN",39.9161111,-85.6922222
"Milo, IN",40.6538889,-85.4683333
"Milroy, IN",39.4969444,-85.4697222
"Milton, IN",39.7880556,-85.1552778
"Mineral City, IN",38.9941667,-86.8800000
"Mineral Springs, IN",41.3261111,-85.7441667
"Minshall, IN",39.6716667,-87.2216667
"Mishawaka, IN",41.6619444,-86.1586111
"Mitchell, IN",38.7327778,-86.4736111
"Mixersville, IN",39.4883333,-84.8250000
"Moberly, IN",38.2697222,-86.2094444
"Modesto, IN",39.2697222,-86.5483333
"Modoc, IN",40.0452778,-85.1263889
"Moffitt, IN",41.1013889,-87.2186111
"Mohawk, IN",39.8436111,-85.8408333
"Mongo, IN",41.6847222,-85.2797222
"Monitor, IN",40.4197222,-86.7563889
"Monmouth, IN",40.8677778,-84.9444444
"Monon, IN",40.8677778,-86.8788889
"Monoquet, IN",41.2894444,-85.8616667
"Monroe, IN",40.7450000,-84.9369444
"Monroe City, IN",38.6152778,-87.3544444
"Monroe Manor, IN",41.6011111,-86.6883333
"Monroeville, IN",40.9747222,-84.8683333
"Monrovia, IN",39.5788889,-86.4822222
"Montclair, IN",39.8480556,-86.5669444
"Monte Cassino Shrine, IN",38.1808333,-86.8061111
"Monterey, IN",41.1569444,-86.4827778
"Monterey Village, IN",40.0536111,-86.0244444
"Montezuma, IN",39.7927778,-87.3708333
"Montezuma Station, IN",39.7950000,-87.3866667
"Montgomery, IN",38.6625000,-87.0461111
"Monticello, IN",40.7452778,-86.7647222
"Montmorenci, IN",40.4741667,-87.0294444
"Montpelier, IN",40.5538889,-85.2775000
"Moody, IN",40.9916667,-87.0236111
"Moonlight, IN",41.5844444,-85.0311111
"Moonville, IN",40.1938889,-85.6013889
"Moore, IN",41.3969444,-84.9525000
"Moorefield, IN",38.8055556,-85.1702778
"Mooreland, IN",39.9975000,-85.2511111
"Moores Hill, IN",39.1133333,-85.0880556
"Moorestown, IN",38.7186111,-86.6158333
"Mooresville, IN",39.6127778,-86.3741667
"Moran, IN",40.3875000,-86.5152778
"Morgan Park, IN",41.6083333,-87.0458333
"Morgantown, IN",39.3713889,-86.2611111
"Morningside, IN",40.2238889,-85.3663889
"Morocco, IN",40.9461111,-87.4533333
"Morris, IN",39.2822222,-85.1775000
"Morristown, IN",39.6733333,-85.6986111
"Morton, IN",39.7630556,-86.9363889
"Morven, IN",39.4227778,-85.6611111
"Morvins Landing, IN",38.0102778,-86.1675000
"Moscow, IN",39.4852778,-85.5566667
"Mott Station, IN",38.2980556,-86.0905556
"Mound Haven, IN",39.3838889,-84.9783333
"Mount Auburn, IN",39.8127778,-85.1897222
"Mount Ayr, IN",40.9519444,-87.2991667
"Mount Carmel, IN",39.4072222,-84.8733333
"Mount Comfort, IN",39.8308333,-85.9152778
"Mount Etna, IN",40.7425000,-85.5619444
"Mount Healthy, IN",39.0805556,-86.0377778
"Mount Jackson, IN",39.7652778,-86.2066667
"Mount Lawn, IN",39.9116667,-85.4613889
"Mount Liberty, IN",39.1841667,-86.1302778
"Mount Meridian, IN",39.6019444,-86.7575000
"Mount Olive, IN",38.7986111,-86.6941667
"Mount Olympus, IN",38.4472222,-87.4750000
"Mount Pisgah, IN",41.6030556,-85.2436111
"Mount Pleasant, IN",38.1216667,-86.5177778
"Mount Sinai, IN",39.0805556,-84.9986111
"Mount Sterling, IN",38.7958333,-85.0738889
"Mount Summit, IN",40.0044444,-85.3847222
"Mount Tabor, IN",39.3113889,-86.6333333
"Mount Vernon, IN",37.9322222,-87.8950000
"Mount Zion, IN",40.6502778,-85.3347222
"Mount Zion Corner, IN",39.5211111,-86.5641667
"Mounts, IN",38.2305556,-87.7063889
"Mud Center, IN",37.9558333,-87.6286111
"Mudlavia Springs, IN",40.3383333,-87.2927778
"Mulberry, IN",40.3444444,-86.6652778
"Mull, IN",40.2072222,-85.0730556
"Muncie, IN",40.1933333,-85.3863889
"Munster, IN",41.5644444,-87.5125000
"Murdock, IN",38.9097222,-86.5083333
"Muren, IN",38.3663889,-87.2688889
"Murray, IN",40.7919444,-85.2008333
"Musquabuck Park, IN",41.3686111,-85.7813889
"Nabb, IN",38.6055556,-85.6327778
"Napoleon, IN",39.2047222,-85.3308333
"Nappanee, IN",41.4427778,-86.0013889
"Nash, IN",39.7494444,-86.5380556
"Nashville, IN",39.2072222,-86.2511111
"Natchez, IN",38.6172222,-86.7108333
"Navilleton, IN",38.3816667,-85.9386111
"Nead, IN",40.7072222,-86.1275000
"Neavill Grove, IN",38.7833333,-85.5116667
"Nebraska, IN",39.0636111,-85.4594444
"Needham, IN",39.5300000,-85.9711111
"Needmore, IN",38.9272222,-86.5300000
"Neff Corner, IN",39.1652778,-85.5322222
"Negangards Corner, IN",39.1911111,-85.0947222
"Nevada, IN",40.3952778,-86.0041667
"Nevada Mills, IN",41.7269444,-85.0822222
"New Albany, IN",38.2855556,-85.8241667
"New Alsace, IN",39.2338889,-85.0030556
"New Amsterdam, IN",38.1022222,-86.2750000
"New Augusta, IN",39.8833333,-86.2386111
"New Baltimore, IN",38.1772222,-87.9175000
"New Boston, IN",37.9997222,-86.0108333
"New Britton, IN",39.9797222,-86.0100000
"New Brunswick, IN",39.9441667,-86.5227778
"New Burlington, IN",40.1200000,-85.2977778
"New Carlisle, IN",41.7002778,-86.5094444
"New Carrollton, IN",38.9447222,-85.3652778
"New Castle, IN",39.9288889,-85.3702778
"New Chicago, IN",41.5583333,-87.2744444
"New Columbus, IN",40.0188889,-85.6558333
"New Corydon, IN",40.5686111,-84.8400000
"New Discovery, IN",39.7316667,-87.1305556
"New Elizabethtown, IN",38.9172222,-85.9869444
"New Elliott, IN",41.4930556,-87.4175000
"New Era, IN",41.2938889,-85.1213889
"New Fairfield, IN",39.5069444,-84.9725000
"New Farmington, IN",38.9250000,-85.8669444
"New Frankfort, IN",38.7366667,-85.7111111
"New Goshen, IN",39.5811111,-87.4622222
"New Harmony, IN",38.1297222,-87.9350000
"New Haven, IN",41.0705556,-85.0144444
"New Hope, IN",39.1830556,-86.8277778
"New Lancaster, IN",40.2550000,-85.8800000
"New Lebanon, IN",39.0408333,-87.4711111
"New Liberty, IN",38.5680556,-85.8672222
"New Lisbon, IN",39.8633333,-85.2630556
"New London, IN",40.4433333,-86.2713889
"New Marion, IN",39.0075000,-85.3588889
"New Market, IN",39.9525000,-86.9213889
"New Maysville, IN",39.7905556,-86.7291667
"New Middletown, IN",38.1638889,-86.0508333
"New Mount Pleasant, IN",40.3558333,-85.0650000
"New Palestine, IN",39.7219444,-85.8891667
"New Paris, IN",41.5002778,-85.8280556
"New Pekin, IN",38.4983333,-86.0172222
"New Pennington, IN",39.2797222,-85.3247222
"New Philadelphia, IN",38.6263889,-85.9700000
"New Pittsburg, IN",40.3075000,-84.8991667
"New Point, IN",39.3097222,-85.3291667
"New Richmond, IN",40.1955556,-86.9788889
"New Ross, IN",39.9647222,-86.7144444
"New Salem, IN",39.5422222,-85.3580556
"New Salisbury, IN",38.3136111,-86.0950000
"New Santa Fe, IN",40.6736111,-85.9877778
"New Trenton, IN",39.3094444,-84.9005556
"New Unionville, IN",39.2111111,-86.4622222
"New Washington, IN",38.5630556,-85.5397222
"New Waverly, IN",40.7641667,-86.1925000
"New Whiteland, IN",39.5580556,-86.0952778
"New Winchester, IN",39.7605556,-86.6508333
"Newark, IN",39.1288889,-86.8072222
"Newark Village, IN",39.9677778,-86.1233333
"Newbern, IN",39.2352778,-85.7508333
"Newberry, IN",38.9250000,-87.0194444
"Newburgh, IN",37.9444444,-87.4052778
"Newland, IN",41.0458333,-87.0341667
"Newport, IN",39.8841667,-87.4086111
"Newry, IN",38.9047222,-85.8222222
"Newton, IN",40.7666667,-87.3861111
"Newton Stewart, IN",38.3750000,-86.6250000
"Newtonville, IN",38.0019444,-86.9433333
"Newtown, IN",40.2041667,-87.1477778
"Newville, IN",41.3486111,-84.8450000
"Newville Center, IN",41.3141667,-84.8300000
"Nibbyville, IN",41.7138889,-85.8608333
"Nine Mile, IN",40.9750000,-85.2250000
"Nineveh, IN",39.3622222,-86.0847222
"Nisbet, IN",38.1461111,-87.6527778
"Noble, IN",40.4694444,-84.8261111
"Noblesville, IN",40.0455556,-86.0086111
"Nora, IN",39.9125000,-86.1347222
"Norma Jean Addition, IN",40.3763889,-86.8830556
"Normal, IN",40.4650000,-85.8252778
"Norman, IN",38.9525000,-86.2750000
"Normanda, IN",40.3025000,-86.1647222
"Norristown, IN",39.3652778,-85.7605556
"North Anderson, IN",40.1352778,-85.6780556
"North Augusta Addition, IN",39.9280556,-86.2277778
"North Belleville, IN",39.6944444,-86.4944444
"North Columbus, IN",39.2333333,-85.9083333
"North Crane, IN",40.3386111,-86.8102778
"North Crows Nest, IN",39.8658333,-86.1633333
"North Gate, IN",39.2638889,-85.9463889
"North Grove, IN",40.6122222,-85.9661111
"North Hayden, IN",41.2900000,-87.4583333
"North Highland, IN",41.0888889,-85.1661111
"North Indianapolis, IN",39.8077778,-86.1780556
"North Judson, IN",41.2150000,-86.7758333
"North Liberty, IN",41.5341667,-86.4272222
"North Madison, IN",38.7677778,-85.3966667
"North Manchester, IN",41.0005556,-85.7686111
"North Marion, IN",40.9708333,-87.1500000
"North Oaks, IN",40.7766667,-85.1738889
"North Ogilville, IN",39.1319444,-86.0077778
"North Park, IN",39.2966667,-85.9541667
"North Ridge Village, IN",39.9350000,-86.1491667
"North Salem, IN",39.8597222,-86.6425000
"North Terre Haute, IN",39.5277778,-87.3602778
"North Union, IN",39.9655556,-86.9033333
"North Vernon, IN",39.0061111,-85.6236111
"North Webster, IN",41.3255556,-85.6977778
"Northcliff, IN",39.2894444,-85.8775000
"Northcrest, IN",41.1230556,-85.1350000
"Northern Beach, IN",39.9555556,-86.0705556
"Northern Meadows, IN",39.9666667,-86.2588889
"Northfield, IN",40.0308333,-86.2802778
"Northfield Village, IN",40.0616667,-86.4777778
"Norths Landing, IN",38.9022222,-84.8736111
"Northwest Manor, IN",39.8991667,-86.2747222
"Northwood, IN",41.6544444,-85.4205556
"Northwood Hills, IN",39.9613889,-86.0616667
"Northwood Park, IN",41.5286111,-87.0488889
"Norton, IN",38.4944444,-86.6830556
"Nortonburg, IN",39.2683333,-85.8233333
"Norway, IN",40.7783333,-86.7594444
"Nottingham, IN",40.5811111,-85.1502778
"Nulltown, IN",39.5797222,-85.1583333
"Numa, IN",39.6308333,-87.3702778
"Nutwood, IN",41.5938889,-86.2819444
"Nyesville, IN",39.7844444,-87.1744444
"Oak Forest, IN",39.3847222,-85.0852778
"Oak Grove, IN",37.8361111,-88.0216667
"Oak Hill, IN",38.3044444,-87.3744444
"Oak Lodge, IN",41.5947222,-85.2025000
"Oak Park, IN",38.3055556,-85.6963889
"Oak Tree Crossroads, IN",39.3722222,-85.0030556
"Oakdale, IN",39.0197222,-85.5619444
"Oakford, IN",40.4191667,-86.1041667
"Oakland City, IN",38.3386111,-87.3450000
"Oakland City Junction, IN",38.3316667,-87.3013889
"Oaklandon, IN",39.8727778,-85.9569444
"Oakley, IN",40.7019444,-86.0125000
"Oaktown, IN",38.8711111,-87.4413889
"Oakville, IN",40.0791667,-85.3905556
"Oakwood, IN",41.5497222,-84.9136111
"Oakwood Park, IN",41.4113889,-85.7383333
"Oatsville, IN",38.4069444,-87.4075000
"Ober, IN",41.2708333,-86.5244444
"Occident, IN",39.6911111,-85.4783333
"Ockley, IN",40.4883333,-86.6338889
"Octagon, IN",40.5263889,-86.9922222
"Odell, IN",40.2877778,-87.0741667
"Odon, IN",38.8427778,-86.9913889
"Ogden, IN",39.7991667,-85.4688889
"Ogden Dunes, IN",41.6227778,-87.1916667
"Ogilville, IN",39.1258333,-86.0152778
"Old Adamsboro, IN",40.7833333,-86.2611111
"Old Bargersville, IN",39.5175000,-86.1558333
"Old Bath, IN",39.5083333,-84.8916667
"Old Halfway, IN",40.4905556,-87.0658333
"Old Hill, IN",39.3019444,-87.2075000
"Old Milan, IN",39.1463889,-85.1325000
"Old Pekin, IN",38.4972222,-86.0033333
"Old Saint Louis, IN",39.3205556,-85.7855556
"Old Tip Town, IN",41.2236111,-86.1152778
"Old Town, IN",40.2580556,-87.3866667
"Oldenburg, IN",39.3397222,-85.2044444
"Oldtown, IN",39.0947222,-84.8469444
"Olean, IN",38.9902778,-85.2186111
"Olin, IN",40.1491667,-87.4305556
"Olio, IN",39.9713889,-85.9211111
"Olive, IN",41.7000000,-86.4480556
"Oliver, IN",38.0433333,-87.8391667
"Omega, IN",40.1983333,-85.9391667
"Ontario, IN",41.7022222,-85.3825000
"Onward, IN",40.6947222,-86.1950000
"Oolitic, IN",38.9008333,-86.5252778
"Ora, IN",41.1738889,-86.5530556
"Orange, IN",39.5841667,-85.2991667
"Orangeville, IN",38.6313889,-86.5566667
"Orchard Grove, IN",41.2897222,-87.3536111
"Orchard Heights Addition, IN",41.6016667,-86.2397222
"Orchard Highlands, IN",41.6827778,-86.8358333
"Orchard Park, IN",39.9375000,-86.1300000
"Orestes, IN",40.2694444,-85.7280556
"Organ Springs, IN",38.4766667,-86.1647222
"Oriole, IN",38.1688889,-86.5047222
"Orland, IN",41.7305556,-85.1716667
"Orleans, IN",38.6616667,-86.4516667
"Ormas, IN",41.2950000,-85.5461111
"Orrville, IN",38.4580556,-87.6861111
"Osborn, IN",41.5925000,-87.4688889
"Osborn Landing, IN",41.2811111,-85.7969444
"Osceola, IN",41.6650000,-86.0758333
"Osgood, IN",39.1291667,-85.2916667
"Ossian, IN",40.8805556,-85.1663889
"Oswego, IN",41.3202778,-85.7872222
"Otis, IN",41.5991667,-86.9058333
"Otisco, IN",38.5422222,-85.6672222
"Otsego Center, IN",41.5725000,-84.9088889
"Otter Creek Junction, IN",39.5463889,-87.3483333
"Otter Village, IN",39.1186111,-85.3313889
"Otterbein, IN",40.4905556,-87.0963889
"Otto, IN",38.5708333,-85.4669444
"Otwell, IN",38.4547222,-87.0922222
"Owasco, IN",40.4608333,-86.6280556
"Owen, IN",38.4580556,-85.5419444
"Owensburg, IN",38.9230556,-86.7297222
"Owensville, IN",38.2719444,-87.6877778
"Oxford, IN",40.5197222,-87.2477778
"Packerton, IN",41.1163889,-85.7975000
"Page, IN",41.6875000,-84.8597222
"Palestine, IN",39.4172222,-84.9277778
"Palmer, IN",41.3913889,-87.2388889
"Palmyra, IN",38.4077778,-86.1100000
"Panama, IN",41.7063889,-85.1075000
"Paoli, IN",38.5561111,-86.4683333
"Paradise, IN",37.9955556,-87.3794444
"Paragon, IN",39.3950000,-86.5625000
"Paris, IN",38.8241667,-85.6338889
"Paris Crossing, IN",38.8294444,-85.6480556
"Park, IN",39.0161111,-86.8494444
"Park View Heights, IN",40.7413889,-86.0497222
"Parker City, IN",40.1888889,-85.2041667
"Parkers Settlement, IN",38.0466667,-87.7161111
"Parkers Station, IN",38.7619444,-85.6538889
"Parkersburg, IN",39.8733333,-86.9027778
"Parkeville, IN",39.8169444,-87.0844444
"Parkside, IN",39.2383333,-85.9113889
"Parkview, IN",39.5163889,-87.3919444
"Parkway Hills, IN",41.0283333,-85.2644444
"Parr, IN",41.0272222,-87.2186111
"Patoka, IN",38.4069444,-87.5855556
"Patricksburg, IN",39.3155556,-86.9591667
"Patriot, IN",38.8386111,-84.8269444
"Patronville, IN",37.8583333,-87.1105556
"Patton, IN",40.7080556,-86.7405556
"Patton Hill, IN",38.9005556,-86.5380556
"Paxton, IN",39.0211111,-87.3886111
"Paynesville, IN",38.6211111,-85.4933333
"Peabody, IN",41.0858333,-85.4894444
"Pearsontown, IN",38.4208333,-86.3916667
"Pecksburg, IN",39.6880556,-86.5741667
"Peerless, IN",38.9244444,-86.5033333
"Pekin, IN",38.4997222,-86.0119444
"Pelzer, IN",37.9891667,-87.2572222
"Pembroke, IN",41.1002778,-87.2769444
"Pence, IN",40.3611111,-87.5113889
"Pendleton, IN",39.9975000,-85.7466667
"Penn Park, IN",41.5441667,-84.9238889
"Penntown, IN",39.2700000,-85.0975000
"Pennville, IN",40.4938889,-85.1483333
"Pennyville, IN",38.5538889,-87.0080556
"Peoga, IN",39.3430556,-86.1441667
"Peoria, IN",39.4333333,-84.8172222
"Peppertown, IN",39.3988889,-85.1741667
"Percy Junction, IN",40.8091667,-87.2966667
"Perkins, IN",40.7650000,-87.3630556
"Perkinsville, IN",40.1441667,-85.8613889
"Perry Crossing, IN",38.4427778,-85.7633333
"Perry Manor, IN",39.6752778,-86.1069444
"Perrysburg, IN",40.8977778,-86.1494444
"Perrysville, IN",40.0513889,-87.4333333
"Perryville, IN",40.5911111,-85.0405556
"Pershing, IN",41.0961111,-86.3188889
"Perth, IN",39.5930556,-87.1619444
"Peru, IN",40.7536111,-86.0688889
"Peters Switch, IN",39.0216667,-85.8966667
"Petersburg, IN",38.4919444,-87.2786111
"Peterson, IN",40.8130556,-85.0147222
"Petersville, IN",39.2244444,-85.8200000
"Petroleum, IN",40.6113889,-85.1508333
"Pettit, IN",40.4175000,-86.7091667
"Pettysville, IN",40.8813889,-85.9816667
"Phenix, IN",40.5819444,-85.1072222
"Philadelphia, IN",39.7813889,-85.8455556
"Philip Station, IN",37.9816667,-87.7419444
"Philomath, IN",39.7238889,-85.0158333
"Phlox, IN",40.4211111,-85.9186111
"Piattsville, IN",39.7044444,-87.1258333
"Pickard, IN",40.2230556,-86.2613889
"Pickwick Park, IN",41.4169444,-85.7252778
"Pierceton, IN",41.2002778,-85.7055556
"Pierceville, IN",39.1333333,-85.1797222
"Pierson Station, IN",39.9033333,-85.3263889
"Pigeon, IN",38.1000000,-87.0666667
"Pigeon Roost Station, IN",38.6144444,-85.7758333
"Pike, IN",40.1241667,-86.4819444
"Pikes Peak, IN",39.1291667,-86.1413889
"Pikeville, IN",38.3219444,-87.1113889
"Pilot Knob, IN",38.2825000,-86.3497222
"Pimento, IN",39.3094444,-87.3791667
"Pin Hook, IN",39.8150000,-87.1272222
"Pinch, IN",40.1066667,-85.1463889
"Pine, IN",41.6244444,-87.3941667
"Pine Ridge, IN",39.5791667,-87.4916667
"Pine Station, IN",41.5280556,-86.3255556
"Pine Valley, IN",38.4763889,-86.4502778
"Pine Village, IN",40.4502778,-87.2544444
"Pinhook, IN",38.8152778,-86.3563889
"Pinola, IN",41.5988889,-86.7977778
"Pioneer, IN",40.7377778,-85.8955556
"Pittsboro, IN",39.8638889,-86.4669444
"Pittsburg, IN",40.5927778,-86.7016667
"Plainfield, IN",39.7041667,-86.3994444
"Plainville, IN",38.8061111,-87.1522222
"Plano, IN",39.4991667,-86.6038889
"Plato, IN",41.6422222,-85.3316667
"Plattsburg, IN",38.7194444,-86.0897222
"Pleasant, IN",38.8708333,-85.1838889
"Pleasant Acres, IN",39.8561111,-85.9155556
"Pleasant Gardens, IN",39.5513889,-86.9644444
"Pleasant Hill, IN",39.8661111,-85.6872222
"Pleasant Lake, IN",41.5752778,-85.0161111
"Pleasant Mills, IN",40.7777778,-84.8422222
"Pleasant Plain, IN",40.6966667,-85.5452778
"Pleasant Ridge, IN",40.9338889,-87.0741667
"Pleasant Valley, IN",38.6319444,-86.8013889
"Pleasant View, IN",39.6633333,-85.9416667
"Pleasant View Village, IN",39.3336111,-85.9736111
"Pleasantville, IN",38.9669444,-87.2502778
"Pleasure Valley, IN",39.4008333,-85.7086111
"Plevna, IN",40.5358333,-85.9761111
"Plum Tree, IN",40.7422222,-85.3925000
"Plummer, IN",38.9816667,-86.9725000
"Plymouth, IN",41.3436111,-86.3097222
"Poe, IN",40.9358333,-85.0869444
"Point Commerce, IN",39.1252778,-86.9652778
"Point Idalawn, IN",39.2605556,-86.3688889
"Point Isabel, IN",40.4216667,-85.8244444
"Poland, IN",39.4441667,-86.9508333
"Poling, IN",40.5325000,-85.0533333
"Pond Creek Mills, IN",38.5777778,-87.2863889
"Poneto, IN",40.6569444,-85.2216667
"Pontiac, IN",39.5902778,-87.1186111
"Pony, IN",40.4447222,-85.0947222
"Popcorn, IN",38.9758333,-86.6569444
"Poplar Grove, IN",40.5555556,-86.3472222
"Port Fulton, IN",38.2819444,-85.7202778
"Port Mitchell, IN",41.3619444,-85.4388889
"Portage, IN",41.5758333,-87.1761111
"Porter, IN",41.6155556,-87.0741667
"Porter Crossroads, IN",41.3991667,-87.1616667
"Portersville, IN",38.4994444,-86.9783333
"Portland, IN",40.4344444,-84.9777778
"Portland Mills, IN",39.7780556,-87.0091667
"Poseyville, IN",38.1700000,-87.7830556
"Potato Mound, IN",39.4080556,-86.5422222
"Potawatomi Inn, IN",41.7038889,-85.0225000
"Potawatomi Park, IN",41.3233333,-85.7586111
"Potawatomi Point, IN",40.7477778,-86.3083333
"Pottawattamie Park, IN",41.7225000,-86.8669444
"Pottersville, IN",39.2072222,-86.8141667
"Poundstone Corner, IN",40.6266667,-86.3361111
"Powers, IN",40.3219444,-85.0925000
"Powley Corners, IN",40.4769444,-87.5266667
"Prairie, IN",37.9213889,-87.9819444
"Prairie City, IN",39.4455556,-87.1133333
"Prairie Creek, IN",39.2750000,-87.4972222
"Prairieton, IN",39.3700000,-87.4744444
"Prather, IN",38.3816667,-85.6927778
"Prattsburg, IN",39.1616667,-85.1880556
"Preble, IN",40.8322222,-85.0147222
"Prescott, IN",39.4791667,-85.7083333
"Preston, IN",39.5066667,-87.3719444
"Prince William, IN",40.4422222,-86.5730556
"Princes Lakes, IN",39.3536111,-86.0980556
"Princeton, IN",38.3552778,-87.5675000
"Progress, IN",40.1202778,-85.4425000
"Prospect, IN",38.5780556,-86.6141667
"Prosperity, IN",40.1791667,-85.6719444
"Providence, IN",39.4908333,-86.1766667
"Prowsville, IN",38.6800000,-86.2016667
"Pueblo, IN",37.8261111,-87.1102778
"Pulaski, IN",40.9752778,-86.6583333
"Pumpkin Center, IN",38.5894444,-86.3644444
"Purcell, IN",38.5955556,-87.5191667
"Purdy Hill, IN",39.5066667,-87.2086111
"Putnamville, IN",39.5741667,-86.8652778
"Pyeattville, IN",37.9419444,-87.2519444
"Pyrmont, IN",40.4675000,-86.6797222
"Quaker, IN",39.8558333,-87.5280556
"Quaker Haven Park, IN",41.3669444,-85.7605556
"Queensville, IN",39.0511111,-85.6772222
"Quercus Grove, IN",38.8533333,-84.9227778
"Quincy, IN",39.4536111,-86.7125000
"Raab Crossroads, IN",39.4877778,-86.9919444
"Rabbitville, IN",38.7686111,-86.4738889
"Raber, IN",41.0858333,-85.4327778
"Raccoon, IN",39.8561111,-86.8963889
"Radioville, IN",41.1597222,-86.8911111
"Radley, IN",40.4363889,-85.7336111
"Radnor, IN",40.5094444,-86.6350000
"Raglesville, IN",38.8033333,-86.9613889
"Ragsdale, IN",38.7458333,-87.3250000
"Rahm, IN",37.8691667,-87.6144444
"Rainbow Highlands, IN",39.8900000,-85.9816667
"Rainsville, IN",40.4158333,-87.3155556
"Raintown, IN",39.8783333,-86.5100000
"Raleigh, IN",39.7438889,-85.3638889
"Ramblewood, IN",41.5455556,-85.2208333
"Ramsey, IN",38.3236111,-86.1547222
"Randall, IN",39.7747222,-87.5225000
"Randolph, IN",40.2661111,-84.9758333
"Range Line, IN",41.2694444,-87.2761111
"Ranger, IN",38.0958333,-86.6855556
"Rapture, IN",38.1522222,-87.8419444
"Raub, IN",40.7300000,-87.4916667
"Ravenswood, IN",39.8880556,-86.1311111
"Ravinamy, IN",40.4619444,-86.8977778
"Ravinia Oaks, IN",41.5650000,-84.9011111
"Ray, IN",41.7597222,-84.8719444
"Raymond, IN",39.4716667,-84.8494444
"Rays Crossing, IN",39.5544444,-85.6691667
"Raysville, IN",39.7961111,-85.5125000
"Reagan, IN",40.1919444,-86.5094444
"Red Bank, IN",37.9713889,-87.6258333
"Red Bush, IN",37.9383333,-87.2719444
"Red Hill, IN",38.9333333,-86.5977778
"Redcuff Corner, IN",39.1550000,-87.1472222
"Redding, IN",38.7744444,-86.5038889
"Reddington, IN",39.0325000,-85.8327778
"Redkey, IN",40.3488889,-85.1500000
"Redmon Park, IN",41.3780556,-85.7794444
"Reds Corner, IN",39.6011111,-85.9716667
"Reed Station, IN",40.2150000,-85.5180556
"Reedville Station, IN",39.7061111,-85.8191667
"Reelsville, IN",39.5575000,-86.9669444
"Rego, IN",38.4850000,-86.3177778
"Rehoboth, IN",38.0825000,-86.0230556
"Reiffsburg, IN",40.6558333,-85.1519444
"Remington, IN",40.7608333,-87.1508333
"Renner, IN",40.4722222,-85.4313889
"Reno, IN",39.7102778,-86.6702778
"Rensselaer, IN",40.9366667,-87.1508333
"Reo, IN",37.9013889,-87.1094444
"Retreat, IN",38.8244444,-85.8533333
"Rexville, IN",38.9525000,-85.3366667
"Reynolds, IN",40.7494444,-86.8716667
"Rhodes, IN",39.6094444,-87.4130556
"Riceville, IN",38.3244444,-86.6655556
"Richey Park, IN",40.6686111,-86.7591667
"Richland, IN",39.4975000,-85.3950000
"Richland Center, IN",41.1563889,-86.2705556
"Richland City, IN",37.9452778,-87.1677778
"Richmond, IN",39.8288889,-84.8902778
"Richvalley, IN",40.7850000,-85.9202778
"Riddle, IN",38.2505556,-86.4305556
"Ridertown, IN",40.4355556,-85.2063889
"Ridgemede, IN",39.1519444,-86.5030556
"Ridgeport, IN",39.0455556,-86.8036111
"Ridgeview, IN",40.7613889,-86.0755556
"Ridgeville, IN",40.2891667,-85.0288889
"Ridgeway, IN",40.4891667,-86.2955556
"Ridgewood, IN",39.6033333,-86.3594444
"Ridgleville, IN",38.5666667,-87.4275000
"Rigdon, IN",40.3788889,-85.7863889
"Riley, IN",39.3900000,-87.3000000
"Riley Village, IN",39.5063889,-85.7680556
"Rileysburg, IN",40.1041667,-87.5258333
"Rincon, IN",39.1025000,-86.9902778
"Ringwald, IN",38.7836111,-85.3827778
"Ripley, IN",41.1005556,-86.6602778
"Rising Sun, IN",38.9494444,-84.8538889
"Risse, IN",40.2750000,-86.4869444
"Ritchie, IN",37.9597222,-87.0388889
"Rivare, IN",40.8122222,-84.8413889
"River, IN",40.7541667,-85.5069444
"River Forest, IN",40.1097222,-85.7272222
"River Haven, IN",41.0775000,-85.0541667
"River Oaks, IN",41.7116667,-85.4041667
"River Ridge, IN",38.3786111,-85.6455556
"Riverside, IN",40.3250000,-87.1661111
"Riverton, IN",39.0202778,-87.5677778
"Rivervale, IN",38.7688889,-86.3980556
"Riverview, IN",39.2002778,-87.5836111
"Riverview Acres, IN",39.2422222,-85.9211111
"Riverwood, IN",40.1005556,-85.9680556
"Roachdale, IN",39.8488889,-86.8022222
"Roadman Corner, IN",39.4741667,-87.0338889
"Roann, IN",40.9116667,-85.9244444
"Roanoke, IN",40.9625000,-85.3733333
"Roanoke Station, IN",40.9519444,-85.3641667
"Rob Roy, IN",40.2366667,-87.2433333
"Roberts, IN",40.3161111,-87.1022222
"Robertsdale, IN",41.6830556,-87.5080556
"Roble Woods, IN",41.5222222,-87.0544444
"Rochester, IN",41.0647222,-86.2158333
"Rock Creek Center, IN",40.7855556,-85.3925000
"Rock Hill, IN",37.9450000,-87.0400000
"Rockdale, IN",39.3169444,-84.8469444
"Rockfield, IN",40.6411111,-86.5738889
"Rockford, IN",40.7600000,-85.3136111
"Rocklane, IN",39.6097222,-86.0125000
"Rockport, IN",37.8830556,-87.0494444
"Rockport Junction, IN",38.1072222,-87.0066667
"Rockville, IN",39.7625000,-87.2291667
"Rocky Ford, IN",40.3997222,-87.3280556
"Rocky Ripple, IN",39.8480556,-86.1725000
"Rogers, IN",38.5383333,-87.2238889
"Rogersville, IN",40.0355556,-85.3294444
"Roland, IN",38.5952778,-86.6819444
"Roll, IN",40.5522222,-85.3902778
"Rolling Acres, IN",38.0666667,-87.2708333
"Rolling Hill Estates, IN",41.4772222,-87.4005556
"Rolling Hills, IN",41.0272222,-85.2680556
"Rolling Prairie, IN",41.6708333,-86.6158333
"Rolling Ridge, IN",39.5447222,-85.7780556
"Rome, IN",37.9233333,-86.5236111
"Rome City, IN",41.4961111,-85.3766667
"Romine Corner, IN",40.1419444,-87.4330556
"Romney, IN",40.2494444,-86.9041667
"Romona, IN",39.3272222,-86.7300000
"Rosebud, IN",41.0269444,-87.2000000
"Roseburg, IN",39.5888889,-84.9469444
"Rosedale, IN",39.6227778,-87.2833333
"Rosedale Hills, IN",39.6936111,-86.1313889
"Roseland, IN",41.7161111,-86.2525000
"Roselawn, IN",41.1416667,-87.3147222
"Rosewood, IN",38.0380556,-85.9291667
"Ross, IN",41.5266667,-87.3747222
"Rossburg, IN",39.3258333,-85.3261111
"Rosston, IN",40.0486111,-86.2891667
"Rosstown, IN",39.1091667,-85.9294444
"Rossville, IN",40.4169444,-86.5947222
"Roth Park, IN",40.6863889,-86.7491667
"Round Grove, IN",40.5902778,-87.0302778
"Royal Center, IN",40.8644444,-86.4997222
"Royal Oaks, IN",41.1266667,-85.0747222
"Royalton, IN",39.9269444,-86.3383333
"Royerton, IN",40.2636111,-85.3655556
"Royville, IN",41.1997222,-85.1330556
"Rugby, IN",39.3091667,-85.7147222
"Rumble, IN",38.4358333,-87.3427778
"Runnymede, IN",41.3022222,-86.8583333
"Runyantown, IN",38.4894444,-85.6147222
"Rural, IN",40.1066667,-84.9661111
"Rush Creek Valley, IN",38.6952778,-86.1705556
"Rushville, IN",39.6091667,-85.4463889
"Rusk, IN",38.5572222,-86.7569444
"Russell Lake, IN",39.9486111,-86.3016667
"Russellville, IN",39.8583333,-86.9838889
"Russels Point, IN",41.5538889,-84.9241667
"Russiaville, IN",40.4175000,-86.2713889
"Rustic Hills, IN",37.9555556,-87.3675000
"Rutland, IN",41.2444444,-86.3572222
"Saint Anthony, IN",38.3144444,-86.8266667
"Saint Bernice, IN",39.7091667,-87.5213889
"Saint Croix, IN",38.2238889,-86.5863889
"Saint Henry, IN",38.2175000,-86.9286111
"Saint James, IN",38.1766667,-87.5775000
"Saint Joe, IN",41.3152778,-84.9013889
"Saint John, IN",41.4500000,-87.4700000
"Saint Johns, IN",41.3086111,-85.1136111
"Saint Joseph, IN",38.4000000,-85.8083333
"Saint Josephs Shrine, IN",38.1680556,-86.7977778
"Saint Leon, IN",39.2919444,-84.9580556
"Saint Louis Crossing, IN",39.3188889,-85.8466667
"Saint Magdalen, IN",38.9577778,-85.3913889
"Saint Marks, IN",38.3055556,-86.8180556
"Saint Mary-of-the-Woods, IN",39.5108333,-87.4672222
"Saint Marys, IN",39.3477778,-85.1088889
"Saint Maurice, IN",39.3661111,-85.3344444
"Saint Meinrad, IN",38.1711111,-86.8091667
"Saint Omer, IN",39.4355556,-85.5958333
"Saint Paul, IN",39.4280556,-85.6283333
"Saint Peter, IN",39.3216667,-85.0316667
"Saint Philip, IN",37.9869444,-87.7158333
"Saint Thomas, IN",38.5861111,-87.5622222
"Saint Wendel, IN",38.1055556,-87.6972222
"Salamonia, IN",40.3819444,-84.8652778
"Salem, IN",38.6055556,-86.1011111
"Salem Center, IN",41.5850000,-85.1397222
"Salem Heights, IN",41.5747222,-86.6219444
"Salina, IN",38.1527778,-85.9100000
"Saline City, IN",39.3652778,-87.1322222
"Saltillo, IN",38.6650000,-86.2891667
"Saluda, IN",38.6505556,-85.4850000
"Samaria, IN",39.4038889,-86.1863889
"San Jacinto, IN",38.9563889,-85.4972222
"San Pierre, IN",41.2036111,-86.8919444
"Sand Ridge, IN",37.9025000,-87.1686111
"Sandborn, IN",38.8963889,-87.1866667
"Sandcut, IN",39.5647222,-87.3236111
"Sanders, IN",39.0797222,-86.5133333
"Sandford, IN",39.5452778,-87.5305556
"Sandusky, IN",39.4194444,-85.4780556
"Sandy Beach, IN",40.6644444,-86.7533333
"Sandy Hook, IN",38.5683333,-87.2177778
"Sandytown, IN",39.6819444,-87.4461111
"Santa Claus, IN",38.1200000,-86.9141667
"Santa Fe, IN",40.6530556,-85.9861111
"Saratoga, IN",40.2369444,-84.9183333
"Sardinia, IN",39.1538889,-85.6311111
"Sassafras, IN",38.1883333,-86.6902778
"Saturn, IN",41.0347222,-85.3555556
"Savah, IN",38.0177778,-87.9786111
"Scalesville, IN",38.2025000,-87.2061111
"Scarlet, IN",38.6577778,-86.6675000
"Scarlet Oaks, IN",40.6955556,-86.7541667
"Scenic Hill, IN",38.6783333,-86.8938889
"Schererville, IN",41.4788889,-87.4547222
"Schley, IN",38.0455556,-86.8719444
"Schneider, IN",41.1869444,-87.4483333
"Schnellville, IN",38.3411111,-86.7561111
"Schooler Point Landing, IN",38.1580556,-86.3413889
"Scipio, IN",39.0791667,-85.7175000
"Scircleville, IN",40.2875000,-86.3000000
"Scotchtown, IN",39.0750000,-87.2977778
"Scotland, IN",38.9127778,-86.9038889
"Scott, IN",41.7336111,-85.5569444
"Scott City, IN",39.1938889,-87.4650000
"Scott Corner, IN",40.0919444,-85.1269444
"Scottsburg, IN",38.6855556,-85.7702778
"Scottsville, IN",38.4019444,-85.9091667
"Seafield, IN",40.7563889,-86.9866667
"Searcy Crossroads, IN",38.8466667,-84.8580556
"Sedalia, IN",40.4155556,-86.5147222
"Sedan, IN",41.4363889,-85.0994444
"Sedley, IN",41.4886111,-87.1575000
"Seelyville, IN",39.4919444,-87.2672222
"Sellersburg, IN",38.3980556,-85.7550000
"Selma, IN",40.1916667,-85.2688889
"Selvin, IN",38.2041667,-87.1061111
"Servia, IN",40.9566667,-85.7405556
"Sevastopol, IN",41.1291667,-86.0188889
"Seven Springs, IN",38.1419444,-85.9766667
"Sexton, IN",39.7000000,-85.4347222
"Seyberts, IN",41.7002778,-85.5133333
"Seymour, IN",38.9591667,-85.8902778
"Sha-Get Acres, IN",41.5750000,-85.1805556
"Shadeland, IN",40.6050000,-85.6100000
"Shady Banks, IN",41.3922222,-85.8302778
"Shady Hills, IN",40.5894444,-85.6741667
"Shady Lane, IN",39.5455556,-87.1336111
"Shady Lawn, IN",41.3930556,-87.3547222
"Shady Nook, IN",41.5566667,-85.2333333
"Shady Side, IN",41.6166667,-87.1430556
"Shambaugh Siding, IN",40.4827778,-86.1527778
"Shamrock Lakes, IN",40.4111111,-85.4263889
"Shanghai, IN",40.4461111,-86.3283333
"Shannondale, IN",40.0547222,-86.6955556
"Sharon, IN",40.5536111,-86.3913889
"Sharpsville, IN",40.3794444,-86.0886111
"Sharptown, IN",39.3669444,-84.8736111
"Shawswick, IN",38.8955556,-86.4144444
"Shedville, IN",40.2655556,-85.1288889
"Sheff, IN",40.7055556,-87.4491667
"Shelburn, IN",39.1783333,-87.3936111
"Shelburne, IN",39.4352778,-86.3927778
"Shelby, IN",41.1952778,-87.3477778
"Shelbyville, IN",39.5213889,-85.7769444
"Shepardsville, IN",39.6008333,-87.4175000
"Shepherd, IN",39.9672222,-86.4313889
"Sheridan, IN",40.1350000,-86.2205556
"Sherwood Forest, IN",39.9188889,-86.1297222
"Shideler, IN",40.3061111,-85.3597222
"Shields, IN",38.9158333,-86.0033333
"Shiloh, IN",39.0388889,-87.2925000
"Shipshewana, IN",41.6727778,-85.5802778
"Shirkieville, IN",39.6002778,-87.4986111
