name,lat,lon
"Aaron, MO",38.4230556,-94.1536111
"Abadyl, MO",37.0383333,-92.9469444
"Abesville, MO",36.8397222,-93.3705556
"Abo, MO",37.6977778,-92.4650000
"Acasto, MO",40.5980556,-91.8338889
"Acme, MO",39.2308333,-94.5447222
"Acorn Corner, MO",36.0883333,-89.7705556
"Acorn Ridge, MO",36.9133333,-90.0580556
"Adair, MO",40.2522222,-92.3763889
"Adam Ford, MO",37.6283333,-92.3286111
"Adams, MO",39.0916667,-94.3375000
"Adel, MO",40.5313889,-93.6688889
"Adonis, MO",37.7963889,-93.3630556
"Adrian, MO",38.3975000,-94.3513889
"Advance, MO",37.1044444,-89.9105556
"Aeiker Ford, MO",38.3788889,-91.0727778
"Affton, MO",38.5505556,-90.3330556
"Agency, MO",39.6447222,-94.7397222
"Agnes, MO",37.5122222,-92.4983333
"Aholt, MO",39.2644444,-92.9047222
"Aid, MO",36.8769444,-90.0411111
"Aikinsville, MO",38.5580556,-92.8361111
"Air Line Junction, MO",39.1219444,-94.4975000
"Airline Acres, MO",36.8033333,-89.3580556
"Airport Drive, MO",37.1425000,-94.5105556
"Akers, MO",37.3761111,-91.5536111
"Akron, MO",40.5194444,-93.8172222
"Alanthus Grove, MO",40.3069444,-94.5438889
"Alba, MO",37.2383333,-94.4172222
"Albany, MO",40.2486111,-94.3308333
"Albany Junction, MO",40.2269444,-94.3688889
"Albatross, MO",37.1891667,-93.8388889
"Alberta, MO",38.3638889,-93.6694444
"Aldrich, MO",37.5475000,-93.5544444
"Alexandria, MO",40.3594444,-91.4552778
"Alfalfa Center, MO",36.9630556,-89.2072222
"Alice, MO",37.2983333,-92.1886111
"All, MO",37.1805556,-93.0358333
"All Saints Village, MO",38.7605556,-90.6613889
"Allbright, MO",37.3288889,-90.2266667
"Allen Ford, MO",36.5372222,-91.5177778
"Allen Mills, MO",37.5044444,-90.6947222
"Allendale, MO",40.4855556,-94.2883333
"Allenton, MO",38.5036111,-90.6758333
"Allenville, MO",37.2216667,-89.7575000
"Alley, MO",37.1522222,-91.4433333
"Alley Spring, MO",37.1441667,-91.4438889
"Alliance, MO",37.5622222,-89.9966667
"Allison, MO",40.5322222,-94.7063889
"Alma, MO",39.0952778,-93.5450000
"Almartha, MO",36.7641667,-92.5169444
"Almon, MO",37.9580556,-93.0944444
"Alpha, MO",39.9852778,-93.4208333
"Alsup, MO",37.3980556,-93.3052778
"Alta Vista, MO",39.9091667,-94.2050000
"Altamont, MO",39.8886111,-94.0888889
"Altenburg, MO",37.6308333,-89.5852778
"Althea, MO",36.6413889,-92.2286111
"Altheim, MO",38.6313889,-90.4877778
"Alton, MO",36.6941667,-91.3991667
"Altona, MO",38.3997222,-94.2347222
"Amanda, MO",38.0594444,-91.4119444
"Amazonia, MO",39.8861111,-94.8916667
"Americus, MO",38.7802778,-91.5638889
"Amity, MO",39.8708333,-94.4355556
"Amoret, MO",38.2552778,-94.5875000
"Amos, MO",38.0158333,-94.5800000
"Amsterdam, MO",38.3497222,-94.5888889
"Amy, MO",36.6055556,-92.0036111
"Anabel, MO",39.7458333,-92.3330556
"Anaconda, MO",38.3016667,-91.0405556
"Anderson, MO",36.6505556,-94.4433333
"Andover, MO",40.5650000,-93.8950000
"Angus, MO",36.6344444,-90.4836111
"Ann, MO",37.0308333,-92.1972222
"Annada, MO",39.2611111,-90.8275000
"Annapolis, MO",37.3602778,-90.6975000
"Anniston, MO",36.8258333,-89.3277778
"Anson, MO",40.5772222,-91.7658333
"Anthonies Mill, MO",38.0797222,-91.0861111
"Antioch, MO",40.3247222,-91.6930556
"Antonia, MO",38.3625000,-90.4655556
"Antrim, MO",37.1900000,-92.6483333
"Anutt, MO",37.7158333,-91.7197222
"Apache Flats, MO",38.5836111,-92.2994444
"Apex, MO",39.1108333,-90.7550000
"Apple Creek, MO",37.5825000,-89.7377778
"Appleton, MO",37.5972222,-89.7127778
"Appleton City, MO",38.1905556,-94.0291667
"Aptus, MO",38.0402778,-90.8483333
"Aquilla, MO",36.9469444,-89.9147222
"Arab, MO",37.0936111,-90.0766667
"Arbela, MO",40.4625000,-92.0166667
"Arbor, MO",37.1591667,-89.8022222
"Arbor Terrace, MO",38.7000000,-90.2833333
"Arbyrd, MO",36.0508333,-90.2386111
"Arcadia, MO",37.5880556,-90.6288889
"Archie, MO",38.4816667,-94.3541667
"Arcola, MO",37.5491667,-93.8750000
"Ardath, MO",37.6100000,-94.6050000
"Arden, MO",36.9852778,-92.8044444
"Ardeola, MO",37.0011111,-89.8527778
"Arditta, MO",36.6163889,-92.0625000
"Ardmore, MO",39.6430556,-92.5355556
"Argentville, MO",39.0161111,-90.7980556
"Argo, MO",38.1838889,-91.3302778
"Argola, MO",39.9975000,-91.7869444
"Argyle, MO",38.2944444,-92.0236111
"Ark, MO",37.6811111,-91.3358333
"Arkoe, MO",40.2580556,-94.8275000
"Arley, MO",39.4044444,-94.4450000
"Arlington, MO",37.9202778,-91.9708333
"Armour, MO",39.5486111,-95.0461111
"Armstrong, MO",39.2697222,-92.7011111
"Armstrong Quarry, MO",36.5197222,-94.4830556
"Arnett, MO",36.5625000,-94.2219444
"Arnica, MO",37.7516667,-93.7083333
"Arno, MO",36.9397222,-92.7469444
"Arnold, MO",38.4327778,-90.3775000
"Arnsberg, MO",37.5697222,-89.7775000
"Aroma, MO",36.8636111,-94.2644444
"Arroll, MO",37.1075000,-91.7263889
"Arrow Point, MO",36.5447222,-93.6191667
"Arrow Rock, MO",39.0697222,-92.9463889
"Arrowhead, MO",38.1811111,-92.6280556
"Arrowhead Beach, MO",38.1800000,-92.6294444
"Arthur, MO",38.0130556,-94.3691667
"Arthur Spring Ford, MO",38.2058333,-91.5677778
"Asbury, MO",37.2744444,-94.6052778
"Ascalon, MO",38.7008333,-90.4094444
"Ash, MO",39.5150000,-92.2897222
"Ash Grove, MO",37.3152778,-93.5850000
"Ash Hill, MO",36.7755556,-90.2330556
"Ashburn, MO",39.5447222,-91.1686111
"Ashcroft Addition, MO",36.7441667,-90.3894444
"Asherville, MO",36.8986111,-90.1872222
"Ashland, MO",38.7744444,-92.2569444
"Ashley, MO",39.2511111,-91.2202778
"Ashley Creek, MO",37.4030556,-91.6883333
"Ashton, MO",40.4461111,-91.8075000
"Aspenhoff, MO",38.7013889,-91.1513889
"Asper, MO",39.6055556,-93.4775000
"Astoria, MO",37.3797222,-92.2886111
"Athens, MO",40.5825000,-91.6983333
"Atherton, MO",39.1861111,-94.3052778
"Athol, MO",38.1725000,-94.3786111
"Atlanta, MO",39.8986111,-92.4808333
"Atlas, MO",37.0950000,-94.3858333
"Atwell, MO",38.0383333,-92.2125000
"Auburn, MO",39.1266667,-90.9738889
"Aud, MO",38.5802778,-91.7205556
"Augusta, MO",38.5725000,-90.8819444
"Aullville, MO",39.0177778,-93.6777778
"Aurora, MO",36.9708333,-93.7177778
"Aurora Springs, MO",38.3247222,-92.5850000
"Austin, MO",38.5027778,-94.2997222
"Auxvasse, MO",39.0180556,-91.8969444
"Ava, MO",36.9519444,-92.6602778
"Avalon, MO",39.6591667,-93.4413889
"Avalon Park, MO",37.3261111,-93.2625000
"Avenue City, MO",39.8633333,-94.7569444
"Avert, MO",36.9294444,-89.8477778
"Avery, MO",38.0677778,-93.3600000
"Avilla, MO",37.1952778,-94.1294444
"Avon, MO",38.8302778,-94.3155556
"Avondale, MO",39.1541667,-94.5466667
"Axtell, MO",39.8244444,-92.4727778
"Azen, MO",40.5597222,-92.0380556
"Babbtown, MO",38.3388889,-92.1383333
"Bachelor, MO",38.9933333,-91.7719444
"Bacon, MO",38.7086111,-92.4533333
"Baden, MO",38.7055556,-90.2300000
"Baderville, MO",36.5544444,-89.7369444
"Bado, MO",37.2691667,-92.1233333
"Bagnell, MO",38.2266667,-92.6013889
"Bahner, MO",38.5694444,-93.1283333
"Bailey, MO",38.2250000,-90.4313889
"Bainbridge, MO",37.4105556,-89.4369444
"Baird, MO",36.4475000,-90.0036111
"Bairdston, MO",40.2847222,-93.1958333
"Baker, MO",36.7727778,-89.7641667
"Bakersfield, MO",36.5225000,-92.1419444
"Bakerville, MO",36.2338889,-89.9177778
"Baldwin Park, MO",38.7938889,-94.2452778
"Ballard, MO",38.3613889,-94.1430556
"Ballwin, MO",38.5950000,-90.5461111
"Baltimore Settlement, MO",38.6097222,-91.2416667
"Bancroft, MO",40.1191667,-93.8583333
"Bangert, MO",37.7711111,-91.5158333
"Banner, MO",37.6969444,-90.8344444
"Bannister, MO",38.0350000,-92.9880556
"Bannister Ford, MO",38.0416667,-92.9847222
"Bardley, MO",36.6941667,-91.1216667
"Baring, MO",40.2441667,-92.2055556
"Barkley, MO",39.7363889,-91.5094444
"Barnard, MO",40.1744444,-94.8236111
"Barnesville, MO",39.8994444,-92.5897222
"Barnett, MO",38.3783333,-92.6744444
"Barnhart, MO",38.3441667,-90.3933333
"Barnumton, MO",38.1100000,-92.9363889
"Barretts, MO",38.5716667,-90.4600000
"Barron, MO",36.7713889,-90.2630556
"Barry, MO",39.2463889,-94.6005556
"Barryville, MO",39.6677778,-92.6619444
"Bartlett, MO",37.0047222,-91.4141667
"Barwick, MO",39.7136111,-94.1230556
"Baryties, MO",38.0619444,-90.6583333
"Basher, MO",36.9966667,-92.6058333
"Bass, MO",38.4319444,-92.3250000
"Bassinger Corner, MO",39.2808333,-91.6441667
"Bassville, MO",37.3444444,-93.1322222
"Bates City, MO",39.0061111,-94.0722222
"Bates Corner, MO",36.6541667,-93.8086111
"Bates Creek Camp, MO",37.9061111,-90.8213889
"Batesville, MO",36.6988889,-90.2461111
"Battlefield, MO",37.1155556,-93.3700000
"Baxter, MO",36.5108333,-89.9316667
"Bay, MO",38.5083333,-91.5583333
"Bayouville, MO",36.6511111,-89.3641667
"Beach, MO",37.4311111,-92.9588889
"Beal, MO",37.1136111,-91.0958333
"Beaman, MO",38.7572222,-93.1333333
"Bean Lake Station, MO",39.4977778,-95.0038889
"Bear Branch, MO",39.9413889,-93.0336111
"Bearcreek, MO",37.6572222,-93.6580556
"Beaufort, MO",38.4208333,-91.1888889
"Beaverdam, MO",36.7530556,-90.6308333
"Beck, MO",38.4116667,-90.3827778
"Beckville, MO",37.1438889,-90.7002778
"Bedford, MO",39.6961111,-93.3727778
"Bedison, MO",40.2933333,-94.7741667
"Bedwell, MO",37.2683333,-91.0191667
"Bee Fork, MO",37.4413889,-91.0844444
"Beemont, MO",38.4805556,-91.3591667
"Bel-Nor, MO",38.7019444,-90.3166667
"Bel-Ridge, MO",38.7094444,-90.3252778
"Belews Creek, MO",38.2991667,-90.5666667
"Belfast, MO",36.8663889,-94.4541667
"Belgique, MO",37.8375000,-89.7811111
"Belgrade, MO",37.7866667,-90.8491667
"Bell City, MO",37.0236111,-89.8197222
"Bell Grove, MO",40.3036111,-94.9133333
"Bella Villa, MO",38.5411111,-90.2800000
"Bellair, MO",38.8330556,-92.8441667
"Bellamy, MO",37.6850000,-94.1802778
"Belle, MO",38.2858333,-91.7202778
"Belle Center, MO",37.1011111,-94.5825000
"Bellefontaine, MO",38.6569444,-90.5544444
"Bellefontaine Neighbors, MO",38.7402778,-90.2263889
"Bellerive, MO",38.7113889,-90.3138889
"Belleview, MO",37.6875000,-90.7402778
"Belleville, MO",37.1244444,-94.5902778
"Bellflower, MO",39.0066667,-91.3550000
"Bellville, MO",39.7744444,-91.8297222
"Belmont Landing, MO",36.7663889,-89.1216667
"Belton, MO",38.8119444,-94.5316667
"Belvidere, MO",38.8580556,-94.5238889
"Bem, MO",38.2658333,-91.4697222
"Benbow, MO",39.9150000,-91.7438889
"Benbush, MO",38.6908333,-90.4950000
"Bend, MO",38.1944444,-91.8463889
"Bendavis, MO",37.2983333,-92.2072222
"Bengal, MO",36.9005556,-93.3097222
"Benjamin, MO",40.1619444,-91.6341667
"Bennett, MO",36.7336111,-91.0044444
"Bennett Springs, MO",37.7269444,-92.8555556
"Benson, MO",39.8975000,-92.8583333
"Benson Tourist City, MO",38.3052778,-91.0672222
"Benton, MO",37.0977778,-89.5625000
"Benton City, MO",39.1344444,-91.7650000
"Bentonville, MO",38.1005556,-93.4488889
"Berdell Hills, MO",38.7180556,-90.2916667
"Berger, MO",38.6741667,-91.3386111
"Berkeley, MO",38.7544444,-90.3311111
"Berlin, MO",40.0536111,-94.3508333
"Bernheimer, MO",38.6680556,-91.2547222
"Bernie, MO",36.6688889,-89.9686111
"Berryman, MO",37.9188889,-91.0952778
"Bertha, MO",36.8377778,-92.3844444
"Bertrand, MO",36.9094444,-89.4525000
"Berwick, MO",36.9330556,-94.0944444
"Bessville, MO",37.3713889,-90.0888889
"Bethany, MO",40.2656000,-94.0339000
"Bethel, MO",39.8766667,-92.0238889
"Bethlehem, MO",36.7208333,-94.1322222
"Bethpage, MO",36.6900000,-94.2361111
"Beulah, MO",37.6241667,-91.9169444
"Beverly, MO",39.3680556,-94.8669444
"Beverly Hills, MO",38.7000000,-90.2922222
"Bevier, MO",39.7469444,-92.5638889
"Bible Grove, MO",40.3527778,-92.3041667
"Bidwell, MO",37.8716667,-92.7094444
"Biehle, MO",37.6052778,-89.8411111
"Big Bend, MO",38.0541667,-92.0322222
"Big Bend Acres, MO",38.2661111,-93.0622222
"Big Creek, MO",37.2355556,-91.8441667
"Big Lake, MO",40.0819444,-95.3497222
"Big Piney, MO",37.6719444,-92.0977778
"Big Ridge, MO",36.7275000,-89.6627778
"Big Spring, MO",38.8025000,-91.4775000
"Bigelow, MO",40.1105556,-95.2894444
"Billings, MO",37.0675000,-93.5519444
"Billingsville, MO",38.9030556,-92.7941667
"Billmore, MO",36.5627778,-91.2150000
"Binkley, MO",39.6433333,-92.5477778
"Birch Tree, MO",36.9911111,-91.4925000
"Bird Springs, MO",36.7480556,-92.2350000
"Birds Corner, MO",36.8897222,-89.7636111
"Birds Nest, MO",37.9975000,-91.3591667
"Birds Point, MO",36.9658333,-89.1563889
"Birdsong, MO",37.8661111,-93.7308333
"Birmingham, MO",39.1658333,-94.4511111
"Bismarck, MO",37.7691667,-90.6247222
"Bixby, MO",37.6602778,-91.1150000
"Black, MO",37.5313889,-90.9330556
"Black Jack, MO",38.7933333,-90.2672222
"Black Oak, MO",39.5472222,-93.8383333
"Black Walnut, MO",38.8733333,-90.3711111
"Blackburn, MO",39.1063889,-93.4833333
"Blackjack, MO",37.8722222,-93.7916667
"Blackwater, MO",38.9802778,-92.9905556
"Blackwell, MO",38.0713000,-90.7096000
"Blaine, MO",37.9494444,-94.3847222
"Blairstown, MO",38.5558333,-93.9605556
"Blake, MO",39.9469444,-93.8708333
"Blanche, MO",36.8200000,-92.3030556
"Bland, MO",38.3016667,-91.6327778
"Blase, MO",38.8725000,-90.4772222
"Blazer, MO",36.1830556,-89.7647222
"Bleda, MO",37.0705556,-89.6375000
"Bliss, MO",38.0930556,-90.7402778
"Blodgett, MO",37.0041667,-89.5269444
"Blomeyer, MO",37.2238889,-89.6597222
"Bloodland, MO",37.6872222,-92.1519444
"Bloomfield, MO",36.8876000,-89.9307000
"Blooming Rose, MO",37.6127778,-91.9725000
"Bloomington, MO",39.7969444,-92.5600000
"Bloomsdale, MO",38.0094444,-90.2177778
"Blue Branch, MO",38.2355556,-93.3569444
"Blue Eye, MO",36.4986111,-93.3966667
"Blue Lick, MO",39.0133333,-93.2100000
"Blue Mills, MO",39.1494444,-94.3027778
"Blue Mound, MO",39.6277778,-93.5577778
"Blue Ridge, MO",40.1922222,-93.9352778
"Blue Springs, MO",39.0169444,-94.2813889
"Bluffton, MO",38.7598000,-91.5311000
"Blythedale, MO",40.4752778,-93.9266667
"Boaz, MO",37.0186111,-93.4002778
"Boekerton, MO",36.4038889,-89.7619444
"Bogard, MO",39.4575000,-93.5233333
"Bois D'Arc, MO",37.2563889,-93.5075000
"Bolckow, MO",40.1130556,-94.8219444
"Boles, MO",38.5308333,-90.8900000
"Bolivar, MO",37.6144444,-93.4102778
"Bollinger Mill, MO",37.5447222,-89.9508333
"Bolton, MO",40.2252778,-93.8350000
"Bona, MO",37.5447222,-93.6713889
"Bonanza, MO",39.6441667,-93.9725000
"Bonfils, MO",38.7691667,-90.4400000
"Bonham, MO",36.9422222,-93.6344444
"Bonne Terre, MO",37.9230556,-90.5552778
"Bonnots Mill, MO",38.5780556,-91.9655556
"Boonesboro, MO",39.0769444,-92.8413889
"Boonville, MO",38.9736111,-92.7430556
"Boschertown, MO",38.8333333,-90.4700000
"Bosky Dell, MO",36.6013889,-94.4461111
"Boss, MO",37.6430556,-91.1891667
"Boston, MO",37.4127778,-94.2816667
"Bosworth, MO",39.4697222,-93.3344444
"Boulder City, MO",36.7938889,-94.2491667
"Bounds, MO",37.2105556,-90.4625000
"Bourbon, MO",38.1547222,-91.2438889
"Bowdry, MO",39.2822222,-93.5111111
"Bowen, MO",38.5580556,-93.5908333
"Bowers Mill, MO",37.1497222,-94.0561111
"Bowie Corner, MO",36.1325000,-90.0047222
"Bowling Green, MO",39.3419444,-91.1950000
"Bowmansville, MO",38.7091667,-93.7336111
"Boyd, MO",37.5169444,-93.3941667
"Boydsville, MO",38.8158333,-92.1102778
"Boyer, MO",37.3161111,-92.5513889
"Boylers Mill, MO",38.3472222,-93.0705556
"Boynton, MO",40.2838889,-93.0841667
"Boys Town of Missouri, MO",37.9930556,-91.5741667
"Boze Mill, MO",36.6630556,-91.1938889
"Bracken, MO",37.3405556,-92.7861111
"Bradfield, MO",36.9661111,-93.5744444
"Bradleyville, MO",36.7836111,-92.9080556
"Bragg City, MO",36.2680556,-89.9108333
"Braggadocio, MO",36.1752778,-89.8294444
"Braley, MO",39.6808333,-94.4263889
"Branch, MO",37.9108333,-93.0050000
"Brandon, MO",38.5080556,-93.4227778
"Brandsville, MO",36.6502778,-91.6900000
"Branson, MO",36.6436111,-93.2183333
"Branson West, MO",36.6969444,-93.3691667
"Branums Point, MO",36.0008333,-90.1094444
"Brashear, MO",40.1488889,-92.3788889
"Braswell, MO",36.7138889,-91.3108333
"Brawley, MO",36.8738889,-91.2838889
"Braymer, MO",39.5869444,-93.7958333
"Brays, MO",38.1202778,-92.2444444
"Brazeau, MO",37.6611111,-89.6527778
"Brazil, MO",37.8461111,-91.0633333
"Brazito, MO",38.4455556,-92.3025000
"Breckenridge, MO",39.7622222,-93.8041667
"Breckenridge Hills, MO",38.7144444,-90.3672222
"Breen Acres, MO",39.1913889,-94.6066667
"Brent, MO",36.3641667,-89.7355556
"Brentwood, MO",38.6175000,-90.3491667
"Brevator, MO",38.9580556,-90.7430556
"Brewer, MO",37.7808333,-89.9252778
"Brian, MO",36.6066667,-90.0930556
"Briar, MO",36.6483333,-90.9716667
"Brickeys, MO",38.0844444,-90.2105556
"Bridge Creek, MO",39.5722222,-93.3844444
"Bridgeport, MO",40.1561111,-94.0650000
"Bridgeton, MO",38.7669444,-90.4113889
"Bridgeton Terrace, MO",38.7463889,-90.3863889
"Brighton, MO",37.4577778,-93.3477778
"Brimson, MO",40.1436111,-93.7386111
"Brinktown, MO",38.1266667,-92.0844444
"Briscoe, MO",39.0819444,-91.0119444
"Bristle Ridge, MO",38.7138889,-93.6577778
"Bristol, MO",39.0916667,-94.4527778
"Bristow, MO",37.8050000,-94.2641667
"Brittain, MO",37.5497222,-92.8636111
"Brixey, MO",36.7505556,-92.4047222
"Broadwater, MO",36.5819444,-89.9211111
"Broadway, MO",38.5430556,-90.2625000
"Brock, MO",40.5511111,-92.1516667
"Bronaugh, MO",37.6941667,-94.4686111
"Brookfield, MO",39.7844444,-93.0733333
"Brookline, MO",37.1633333,-93.4200000
"Brooklyn, MO",40.3983333,-94.0405556
"Brooklyn Heights, MO",37.1733333,-94.3830556
"Brooks Junction, MO",37.0241667,-89.6425000
"Brookside, MO",37.4591667,-89.6961111
"Broseley, MO",36.6750000,-90.2416667
"Brown Shanty, MO",38.5511111,-91.5744444
"Brownbranch, MO",36.7944444,-92.8305556
"Brownfield, MO",37.6669444,-92.3447222
"Browning, MO",40.0352778,-93.1622222
"Brownington, MO",38.2458333,-93.7227778
"Browns, MO",39.0500000,-92.2611111
"Browns Crossing, MO",36.9719444,-90.5947222
"Browns Ford, MO",38.7050000,-91.9588889
"Browns Spring, MO",36.9738889,-93.5105556
"Brownwood, MO",37.0808333,-89.9544444
"Brumley, MO",38.0863889,-92.4866667
"Bruner, MO",37.0147222,-92.9858333
"Brunot, MO",37.3102778,-90.5463889
"Brunswick, MO",39.4233333,-93.1302778
"Brush Arbor, MO",36.9075000,-90.6480556
"Brush Creek, MO",37.6161111,-92.7133333
"Brushyknob, MO",36.9647222,-92.4858333
"Brussells, MO",39.0508333,-90.8788889
"Bryant, MO",37.0388889,-92.6105556
"Bryson, MO",38.5802778,-93.4786111
"Buchanan, MO",37.2111111,-90.1922222
"Buck Creek, MO",38.2313889,-92.7683333
"Buck Donic, MO",36.0397222,-90.3258333
"Buckeye, MO",36.9044444,-89.4925000
"Buckhart, MO",36.8938889,-92.3188889
"Buckhorn, MO",37.3380556,-90.2894444
"Bucklin, MO",39.7816667,-92.8900000
"Buckner, MO",39.1325000,-94.1983333
"Bucoda, MO",36.0900000,-90.2141667
"Bucyrus, MO",37.3441667,-92.0166667
"Budapest, MO",36.7688889,-90.7108333
"Buell, MO",39.0341667,-91.4388889
"Buffalo, MO",37.6459000,-93.0942000
"Buffalo, MO",37.6459000,-93.0942000
"Buffington, MO",36.8305556,-89.7430556
"Buick, MO",37.6069444,-91.1266667
"Bull Creek, MO",36.7150000,-93.2033333
"Bull Run Camp, MO",36.9658333,-90.5933333
"Bullion, MO",40.1713889,-92.4880556
"Bumgarden Ford, MO",37.2683333,-92.9786111
"Bunceton, MO",38.7880556,-92.7991667
"Bunker, MO",37.4555556,-91.2094444
"Bunker Hill, MO",39.2180556,-92.5305556
"Burbank, MO",37.1469444,-90.3702778
"Burch, MO",37.2683333,-90.3544444
"Burdett, MO",38.4336111,-94.4825000
"Burfordville, MO",37.3675000,-89.8069444
"Burgess, MO",37.5561111,-94.6147222
"Burksville, MO",39.8619444,-91.9172222
"Burlington Junction, MO",40.4455556,-95.0658333
"Burney Ford, MO",37.4275000,-92.3988889
"Burnham, MO",36.9266667,-91.9575000
"Burns, MO",37.6047222,-93.3088889
"Burr, MO",36.5019444,-90.9861111
"Burrows, MO",40.5161111,-93.7555556
"Burton, MO",39.2147222,-92.6119444
"Burtonville, MO",36.7516667,-93.9702778
"Burtville, MO",38.6763889,-93.6183333
"Busch, MO",39.5797222,-91.1925000
"Bushburg, MO",38.3052778,-90.3763889
"Bushnell, MO",37.4969444,-94.1508333
"Butcher, MO",37.9600000,-93.4902778
"Bute, MO",40.0944444,-92.9494444
"Butler, MO",38.2538000,-94.3356000
"Butterfield, MO",36.7500000,-93.9075000
"Butts, MO",37.9958333,-91.1561111
"Buttsville, MO",40.2127778,-93.6711111
"Buxton, MO",39.3188889,-94.8730556
"Buzzards Roost, MO",39.4711111,-91.7941667
"Byers, MO",38.3955556,-90.3741667
"Bynumville, MO",39.6166667,-92.7758333
"Byrnes Mill, MO",38.4377778,-90.5816667
"Byrnesville, MO",38.3927778,-90.6397222
"Byron, MO",38.3352778,-91.7105556
"Cabool, MO",37.1238889,-92.1011111
"Caddo, MO",37.3419444,-93.0469444
"Cadet, MO",37.9875000,-90.6883333
"Caffeyville, MO",37.6019444,-92.7122222
"Cainsville, MO",40.4375000,-93.7750000
"Cairo, MO",39.5119444,-92.4402778
"Caledonia, MO",37.7633333,-90.7727778
"Calhoun, MO",38.4672222,-93.6261111
"California, MO",38.6275000,-92.5663889
"Caligoa, MO",36.6013889,-90.1502778
"Call, MO",37.2011111,-93.7769444
"Callao, MO",39.7608333,-92.6230556
"Callaway, MO",38.9161111,-91.9500000
"Calleaway, MO",38.9152778,-91.9505556
"Calm, MO",36.5516667,-91.1616667
"Calumet, MO",39.3269444,-91.0119444
"Calvary Church, MO",37.6694444,-89.7722222
"Calverton Park, MO",38.7647222,-90.3136111
"Calwood, MO",38.9202778,-91.8525000
"Cambridge, MO",39.2577778,-92.9486111
"Camden, MO",39.1972222,-94.0227778
"Camden Junction, MO",39.1916667,-94.0386111
"Camden Point, MO",39.4527778,-94.7413889
"Camdenton, MO",38.0080556,-92.7444444
"Cameron, MO",39.7402778,-94.2408333
"Camp Lakewood, MO",37.9483333,-90.9302778
"Camp Wyman, MO",38.5238889,-90.6680556
"Campbell, MO",36.4933333,-90.0750000
"Campbell Corner, MO",40.1300000,-95.0891667
"Campbellton, MO",38.5400000,-91.1605556
"Canaan, MO",38.3122222,-91.5588889
"Canalou, MO",36.7550000,-89.6869444
"Cane Hill, MO",37.5788889,-93.7313889
"Caneer, MO",36.0061111,-90.1772222
"Caney Creek, MO",37.1294444,-89.6875000
"Cannon Mines, MO",38.0533333,-90.6980556
"Canton, MO",40.1250000,-91.6250000
"Cantwell, MO",37.8725000,-90.5116667
"Cap au Gris, MO",38.9988889,-90.6916667
"Cape Fair, MO",36.7300000,-93.5100000
"Cape Girardeau, MO",37.3058333,-89.5180556
"Caplinger Mills, MO",37.7941667,-93.8041667
"Cappeln, MO",38.6841667,-90.9388889
"Capps, MO",38.2422222,-92.3208333
"Carbon Center, MO",38.0461111,-94.3216667
"Carbon Hill, MO",38.7791667,-93.6075000
"Cardinal Acres, MO",37.0552778,-91.6683333
"Cardwell, MO",36.0469444,-90.2927778
"Cardy, MO",40.0016667,-92.5952778
"Carico, MO",36.7944444,-93.4111111
"Carie, MO",36.6377778,-90.9388889
"Carl Junction, MO",37.1766667,-94.5652778
"Carlow, MO",39.8808333,-93.8322222
"Carlston, MO",36.2216667,-89.7372222
"Carmack, MO",40.2408333,-94.4258333
"Carns Ford, MO",37.5636111,-93.6983333
"Carola, MO",36.5516667,-90.3358333
"Carondelet, MO",38.5561111,-90.2658333
"Carr Lane, MO",36.5077778,-93.5655556
"Carrington, MO",38.8080556,-92.0594444
"Carrol Junction, MO",37.7386111,-92.6016667
"Carrollton, MO",39.3583333,-93.4955556
"Carsons Corner, MO",37.9083333,-93.3008333
"Carterville, MO",37.1491667,-94.4427778
"Carthage, MO",37.1763889,-94.3100000
"Caruth, MO",36.1341667,-90.0866667
"Caruthersville, MO",36.1930556,-89.6555556
"Carytown, MO",37.2661111,-94.3091667
"Cascade, MO",37.2994444,-90.2691667
"Case, MO",38.7350000,-91.3738889
"Casey Ford, MO",37.5941667,-92.3597222
"Caseyville, MO",38.2052778,-91.0797222
"Cash, MO",39.8505556,-92.6338889
"Cassidy, MO",37.0675000,-93.2461111
"Cassville, MO",36.6769444,-93.8686111
"Castle Point, MO",38.7580556,-90.2480556
"Castlewood, MO",38.5500000,-90.5536111
"Castor, MO",37.0675000,-89.9786111
"Castor Station, MO",37.5277778,-90.1694444
"Catalpa, MO",36.8827778,-89.2944444
"Catawba, MO",39.6408333,-93.8333333
"Catawissa, MO",38.4247222,-90.7825000
"Catherine Place, MO",37.5750000,-90.3241667
"Cato, MO",36.7208333,-93.6800000
"Catron, MO",36.6113889,-89.7030556
"Caulfield, MO",36.6144444,-92.1047222
"Cave, MO",39.0197222,-91.0433333
"Cave City, MO",39.6894444,-91.3316667
"Cave Hill, MO",38.4847222,-91.5516667
"Cave Spring, MO",37.3513889,-93.4633333
"Cavendish, MO",39.6894444,-93.4900000
"Caverna, MO",36.4991667,-94.2661111
"Cawood, MO",40.1127778,-94.7494444
"Cazzell, MO",39.3069444,-92.9419444
"Cedar Bluff, MO",38.5411111,-90.5713889
"Cedar City, MO",38.5972222,-92.1794444
"Cedar Cliffs, MO",37.2433333,-89.6605556
"Cedar Ford, MO",37.8947222,-91.4797222
"Cedar Gap, MO",37.1055556,-92.6694444
"Cedar Hill, MO",38.3533333,-90.6411111
"Cedar Hill Lakes, MO",38.3297222,-90.6575000
"Cedar Ridge, MO",37.6516667,-92.9127778
"Cedar Springs, MO",37.8736111,-93.8933333
"Cedar Valley, MO",36.7669444,-90.4530556
"Cedar Vista, MO",37.5258333,-93.3700000
"Cedarcreek, MO",36.5788889,-92.9975000
"Cedargrove, MO",37.4186111,-91.6069444
"Cedarville, MO",37.5744444,-93.9841667
"Cedron, MO",38.7736111,-92.5675000
"Celt, MO",37.8758333,-92.9013889
"Cement City, MO",39.1447222,-94.4166667
"Centaur, MO",38.6444444,-90.6988889
"Center, MO",39.5080556,-91.5286111
"Center Point, MO",36.9177778,-94.0816667
"Center Post, MO",37.8438889,-91.1263889
"Centertown, MO",38.6186111,-92.4122222
"Centerview, MO",38.7441667,-93.8450000
"Centerville, MO",37.4419000,-90.9959000
"Central, MO",37.4650000,-90.3466667
"Central City, MO",37.0824000,-94.5019000
"Centralia, MO",39.2102778,-92.1377778
"Centropolis, MO",39.0897222,-94.4941667
"Chadwick, MO",36.9300000,-93.0566667
"Chaffee, MO",37.1800000,-89.6550000
"Chain of Rocks, MO",38.9150000,-90.8013889
"Chain-O-Lakes, MO",36.5344444,-93.7247222
"Chalk Level, MO",38.0933333,-93.8094444
"Chambersburg, MO",40.5238889,-91.7991667
"Chamois, MO",38.6752778,-91.7694444
"Champ, MO",39.1205556,-91.9294444
"Champion, MO",36.9313889,-92.3908333
"Champion City, MO",38.3194444,-91.2702778
"Chandler, MO",39.3002778,-94.3825000
"Channel, MO",36.0597222,-89.9408333
"Chapel, MO",36.9355556,-91.6752778
"Chapel Hill, MO",38.9175000,-94.0580556
"Chapin, MO",36.6905556,-91.7713889
"Chariton, MO",40.5699000,-92.6205000
"Charity, MO",37.5152778,-93.0161111
"Charlack, MO",38.7025000,-90.3433333
"Charleston, MO",36.9208333,-89.3505556
"Charter Oak, MO",36.7152778,-89.7197222
"Cheney, MO",36.9069444,-92.4413889
"Cherokee Pass, MO",37.4894444,-90.3050000
"Cherry Box, MO",39.9247222,-92.2350000
"Cherry Valley, MO",37.9547222,-91.2663889
"Cherryville, MO",37.8519444,-91.2766667
"Chesapeake, MO",37.1169444,-93.6813889
"Chesterfield, MO",38.6630556,-90.5769444
"Chestnut Ridge, MO",37.7980556,-90.3363889
"Chestnutridge, MO",36.8366667,-93.2516667
"Chicopee, MO",36.9850000,-91.0055556
"Chilhowee, MO",38.5888889,-93.8541667
"Chillicothe, MO",39.7952778,-93.5522222
"Chilton, MO",36.9330556,-90.9213889
"China, MO",36.6119444,-91.8994444
"Chitwood, MO",37.0888889,-94.5486111
"Chloe, MO",38.1841667,-93.7330556
"Chloride, MO",37.4605556,-90.6869444
"Chouteau Springs, MO",38.9250000,-92.8947222
"Christian Center, MO",36.9408333,-93.1666667
"Christopher, MO",36.7986111,-94.2894444
"Chula, MO",39.9216667,-93.4741667
"Cincinnati, MO",39.5633333,-91.5941667
"Circle City, MO",36.8566667,-89.8022222
"Civil Bend, MO",39.9972222,-94.1000000
"Clair, MO",39.7850000,-94.7441667
"Clapper, MO",39.5900000,-91.8450000
"Clara, MO",37.2997222,-92.0211111
"Clarence, MO",39.7419444,-92.2583333
"Clark, MO",39.2811111,-92.3425000
"Clark City, MO",40.4208333,-91.6813889
"Clark Ford, MO",37.5213889,-92.3911111
"Clarks Fork, MO",38.8869444,-92.6525000
"Clarksburg, MO",38.6298000,-92.6797000
"Clarksdale, MO",39.8136111,-94.5502778
"Clarkson, MO",37.0488889,-94.0047222
"Clarkson Valley, MO",38.6183333,-90.5891667
"Clarksville, MO",39.3705556,-90.9050000
"Clarkton, MO",36.4516667,-89.9669444
"Claryville, MO",37.8922222,-89.8288889
"Claud, MO",37.8133333,-93.7116667
"Clay, MO",40.2275000,-92.4522222
"Claycomo, MO",39.2025000,-94.4922222
"Claysville, MO",38.6613889,-92.2591667
"Clayton, MO",38.6425000,-90.3236111
"Clear Springs, MO",37.1083333,-91.8502778
"Clearmont, MO",40.5097222,-95.0319444
"Clearwater, MO",37.7655556,-90.1383333
"Cleary, MO",39.7433333,-93.5313889
"Cleavesville, MO",38.2727778,-91.6016667
"Clement, MO",38.0569444,-90.1652778
"Clementine, MO",37.8763889,-92.0172222
"Cleopatra, MO",40.5486111,-93.4041667
"Cleveland, MO",38.6791667,-94.5933333
"Clevenger, MO",39.2366667,-94.2213889
"Clever, MO",37.0302778,-93.4727778
"Cliff, MO",37.1686111,-89.7883333
"Cliff Cave, MO",38.4616667,-90.2875000
"Cliff Village, MO",37.0233333,-94.5150000
"Clifton, MO",36.5566667,-91.5300000
"Clifton City, MO",38.7647222,-93.0411111
"Clifton Heights, MO",38.6091667,-90.2861111
"Clifton Hill, MO",39.4380556,-92.6661111
"Climax Springs, MO",38.1041667,-93.0500000
"Clines Island, MO",36.9038889,-89.7936111
"Clinton, MO",38.3686111,-93.7780556
"Clippard, MO",37.2694444,-89.8713889
"Cliquot, MO",37.6938889,-93.4775000
"Clover Bottom, MO",38.5036111,-91.1194444
"Cloverdale, MO",37.6347222,-93.0263889
"Clubb, MO",37.2144444,-90.3455556
"Clyde, MO",40.2691667,-94.6683333
"Coal, MO",38.3258333,-93.6150000
"Coal Hill, MO",37.8783333,-93.9333333
"Coatsville, MO",40.5891667,-92.6333333
"Cobalt Village, MO",37.5450000,-90.2875000
"Cobb, MO",37.8944444,-93.7544444
"Cobbler, MO",39.1636111,-94.3280556
"Cockrell, MO",38.8855556,-94.2375000
"Cockrum, MO",36.0111111,-90.3380556
"Cody, MO",37.1186111,-93.1191667
"Coffey, MO",40.1066667,-94.0050000
"Coffeyton, MO",38.1166667,-91.2727778
"Coffman, MO",37.9773000,-90.0487000
"Cold Springs, MO",38.2313889,-93.3830556
"Coldspring, MO",36.9716667,-92.4302778
"Coldwater, MO",37.3033333,-90.4097222
"Cole Camp, MO",38.4600000,-93.2025000
"Cole Camp Junction, MO",38.4627778,-93.2752778
"Cole Junction, MO",38.6141667,-92.2241667
"Coleman, MO",38.7513889,-94.3944444
"Coleville, MO",38.4155556,-94.3019444
"College Mound, MO",39.6230556,-92.5725000
"Collins, MO",37.8911111,-93.6227778
"Coloma, MO",39.5313889,-93.5230556
"Colony, MO",40.2538889,-91.9905556
"Columbia, MO",38.9516667,-92.3338889
"Columbus, MO",38.8586111,-93.8905556
"Comet, MO",37.3972222,-93.6322222
"Commerce, MO",37.1588889,-89.4427778
"Como, MO",36.6200000,-89.7552778
"Competition, MO",37.4836111,-92.4288889
"Conception, MO",40.2427778,-94.6866667
"Conception Junction, MO",40.2697222,-94.6916667
"Concord, MO",39.0330556,-91.9675000
"Concord Hill, MO",38.6502778,-91.1361111
"Concordia, MO",38.9833333,-93.5683333
"Condray, MO",37.7666667,-91.5547222
"Coney Island, MO",36.5930556,-93.3969444
"Conklin, MO",37.3852778,-93.0188889
"Connelsville, MO",40.2775000,-92.7000000
"Conrads Mill, MO",37.5063889,-89.8605556
"Conran, MO",36.4833333,-89.6466667
"Converse, MO",39.4988889,-94.2761111
"Conway, MO",37.5019444,-92.8208333
"Cook Station, MO",37.8127778,-91.4377778
"Cookman, MO",40.2386111,-93.2736111
"Cooksey, MO",37.7519444,-91.4577778
"Cookville, MO",37.6488889,-92.2097222
"Cool Valley, MO",38.7277778,-90.3100000
"Cooper Hill, MO",38.4272222,-91.6613889
"Coopers, MO",39.3005556,-94.2302778
"Cooter, MO",36.0466667,-89.8100000
"Copeland, MO",38.1922222,-93.9033333
"Copper Mine, MO",37.9036111,-90.1463889
"Cora, MO",40.1097222,-93.1302778
"Corder, MO",39.0983333,-93.6405556
"Corkery, MO",37.7952778,-92.8611111
"Cornelia, MO",38.6436111,-93.7391667
"Corner Campbell School, MO",39.7058333,-93.4825000
"Corners, MO",37.6563889,-90.1108333
"Cornertown, MO",36.4991667,-91.7583333
"Corning, MO",40.2483333,-95.4538889
"Cornland, MO",38.1777778,-94.3836111
"Cornwall, MO",37.5122222,-90.2027778
"Corona, MO",36.5511111,-91.4116667
"Corridon, MO",37.3819444,-91.0722222
"Corry, MO",37.4875000,-93.7250000
"Corsicana, MO",36.7988889,-93.9947222
"Corso, MO",39.1272222,-91.1858333
"Corticelli, MO",38.5100000,-92.5244444
"Cosby, MO",39.8641667,-94.6780556
"Cossville, MO",37.3258333,-94.4480556
"Cottage, MO",39.9833333,-92.5813889
"Cottage Farm, MO",38.2394444,-90.6686111
"Cottbus, MO",36.6497222,-91.8480556
"Cottleville, MO",38.7461111,-90.6538889
"Cotton Plant, MO",36.0900000,-90.0911111
"Cottonwood Point, MO",36.0638889,-89.6991667
"Couch, MO",36.6061111,-91.3830556
"Coulstone, MO",37.5227778,-91.7511111
"Coulter, MO",36.8858333,-89.2525000
"Country Club Hills, MO",38.7208333,-90.2747222
"Country Club Village, MO",39.8322222,-94.8213889
"Country Life Acres, MO",38.6238889,-90.4561111
"Courtney, MO",39.1555556,-94.3933333
"Courtois, MO",37.7647222,-91.0719444
"Cove, MO",36.5805556,-94.1025000
"Covington, MO",36.1072222,-89.8777778
"Cowan, MO",37.0780556,-93.1727778
"Cowgill, MO",39.5591667,-93.9266667
"Cox, MO",39.6372222,-92.3827778
"Coy, MO",36.6611111,-94.5319444
"Craddock, MO",37.6394444,-91.8458333
"Crag O Lea, MO",36.6091667,-94.3522222
"Craig, MO",40.1947222,-95.3708333
"Crane, MO",36.9052778,-93.5713889
"Crawford, MO",40.4747222,-92.2752778
"Cream Ridge, MO",39.7852778,-93.4625000
"Creek Nation, MO",37.5138889,-90.3880556
"Creighton, MO",38.4947222,-94.0730556
"Crescent, MO",38.5211111,-90.6061111
"Crescent Hill, MO",38.4322222,-94.3472222
"Crescent Lake, MO",39.3255556,-94.2402778
"Crest, MO",38.4502778,-93.1347222
"Crestwood, MO",38.5569444,-90.3816667
"Cretcher, MO",39.0313889,-93.3238889
"Creve Coeur, MO",38.6608333,-90.4225000
"Crider, MO",36.7180556,-92.0780556
"Crisp, MO",37.5697222,-93.7877778
"Crites Corner, MO",36.9502778,-90.8225000
"Critesville, MO",37.5152778,-89.8347222
"Crocker, MO",37.9488889,-92.2636111
"Crockerville, MO",38.4427778,-93.1041667
"Crook, MO",38.5505556,-91.7775000
"Crooks Springs, MO",37.9169444,-93.8411111
"Crosno, MO",36.7975000,-89.1772222
"Cross Keys, MO",38.8088889,-90.2986111
"Cross Roads, MO",36.8502778,-92.8541667
"Cross Timbers, MO",38.0247222,-93.2266667
"Cross Way, MO",37.3713889,-93.0555556
"Crossroads, MO",38.0747222,-91.2438889
"Crossroads School, MO",38.8000000,-94.3200000
"Crossroads Store, MO",37.1894444,-92.3925000
"Crosstown, MO",37.7463889,-89.7277778
"Crowder, MO",36.9625000,-89.6833333
"Crown, MO",37.2644444,-92.9511111
"Cruise Mill, MO",38.0825000,-90.7327778
"Crump, MO",37.2786111,-89.8291667
"Crystal City, MO",38.2211111,-90.3788889
"Crystal Lake Park, MO",38.6222222,-90.4341667
"Crystal Lakes, MO",39.3594444,-94.1897222
"Cuba, MO",38.0627778,-91.4033333
"Cuivre Heights, MO",39.0291667,-90.9927778
"Culiver, MO",39.1691667,-91.5663889
"Cull, MO",36.7272222,-91.6841667
"Culp Ford, MO",36.6444444,-91.6016667
"Cunningham, MO",39.6416667,-93.2400000
"Curdton, MO",36.9644444,-90.0552778
"Cureall, MO",36.6672222,-92.0705556
"Current View, MO",36.4988889,-90.7780556
"Curryville, MO",39.3455556,-91.3447222
"Curzon, MO",39.9394444,-95.1527778
"Custer, MO",37.5363889,-91.5194444
"Cyclone, MO",36.6183333,-94.2561111
"Cypress, MO",40.0513889,-94.0572222
"Cyrene, MO",39.2863889,-91.1063889
"Cyrus, MO",36.6594444,-90.0555556
"Czar, MO",37.7530556,-91.1183333
"Dadeville, MO",37.4802778,-93.6736111
"Dagonia, MO",37.3122222,-91.1222222
"Daisy, MO",37.5236111,-89.7930556
"Dale, MO",36.7411111,-93.7841667
"Dallas, MO",38.9397222,-94.6027778
"Dalton, MO",39.3975000,-92.9897222
"Dameron, MO",39.2180556,-90.8002778
"Damon, MO",37.1769444,-90.6105556
"Damsel, MO",38.1097222,-92.6900000
"Danby, MO",38.1091667,-90.3075000
"Danforth, MO",40.2413889,-92.7338889
"Danville, MO",38.9105556,-91.5347222
"Dardenne, MO",38.7658333,-90.7561111
"Dardenne Prairie, MO",38.7694444,-90.7288889
"Darien, MO",37.5200000,-91.5922222
"Darksville, MO",39.5525000,-92.5822222
"Darlington, MO",40.1983333,-94.3958333
"Dart, MO",40.0466667,-92.5672222
"Daugherty, MO",38.6036111,-94.2813889
"Davenport, MO",37.4633333,-94.0811111
"Davis, MO",39.0580556,-91.0194444
"Davis Ford, MO",38.0713889,-91.8244444
"Davisville, MO",37.8077778,-91.1850000
"Dawn, MO",39.6683333,-93.6352778
"Dawson, MO",37.2569444,-92.3077778
"Dawsonville, MO",40.4644444,-95.0991667
"Dawt, MO",36.6100000,-92.2766667
"Dawt Mill, MO",36.6097222,-92.2780556
"Day, MO",36.8130556,-93.2436111
"Dayton, MO",38.4852778,-94.1936111
"Daytown, MO",37.8591667,-90.5813889
"De Kalb, MO",39.5869444,-94.9250000
"De Lassus, MO",37.7644444,-90.4555556
"De Lisle, MO",36.3933333,-89.7172222
"De Soto, MO",38.1394444,-90.5550000
"De Witt, MO",39.3844444,-93.2208333
"Dean, MO",39.8711111,-94.8316667
"Dean Ford, MO",37.9213889,-91.6408333
"Dearborn, MO",39.5219444,-94.7697222
"Decatur, MO",37.2947222,-89.5222222
"Decaturville, MO",37.9075000,-92.6997222
"Deckard-Y, MO",36.5461111,-91.2538889
"Deco, MO",36.1700000,-89.9319444
"Dederick, MO",37.8572222,-94.1275000
"Deep Ford, MO",37.6977778,-91.6152778
"Deepwater, MO",38.2605556,-93.7727778
"Deer, MO",38.6219444,-91.7966667
"Deer Land, MO",36.1613889,-90.0041667
"Deer Park, MO",38.8613889,-92.2500000
"Deer Ridge, MO",40.2127778,-91.8955556
"Deerfield, MO",37.8386111,-94.5058333
"Deering, MO",36.1908333,-89.8827778
"Deering Junction, MO",36.1900000,-89.9052778
"Dees Town, MO",37.0536111,-90.5436111
"Defiance, MO",38.6635000,-90.8184000
"Delaney, MO",39.6416667,-94.4513889
"Delaware, MO",37.1033333,-91.4080556
"Delbridge, MO",37.7947222,-90.9866667
"Delhi, MO",38.1283333,-91.3475000
"Dell, MO",38.1719444,-93.3086111
"Dell Junction, MO",38.1744444,-93.3180556
"Dellwood, MO",38.7494444,-90.2855556
"Delmar, MO",38.3566667,-93.9419444
"Delmo, MO",36.8102778,-89.6811111
"Delta, MO",37.1966667,-89.7361111
"Denlow, MO",36.9808333,-92.3733333
"Dennis Acres, MO",37.0466667,-94.5052778
"Dent, MO",37.5533333,-91.9736111
"Dent Ford, MO",37.7008333,-91.4463889
"Denton, MO",38.6133333,-93.9288889
"Denver, MO",40.3972222,-94.3225000
"Depew, MO",37.0225000,-92.8627778
"Derby, MO",37.8250000,-90.5386111
"Dermott, MO",37.3833333,-92.9372222
"Derrahs, MO",40.2230556,-91.6638889
"Des Arc, MO",37.2825000,-90.6372222
"Des Peres, MO",38.6008333,-90.4327778
"Deslet, MO",37.1619444,-91.1205556
"Desloge, MO",37.8708333,-90.5272222
"Dessa, MO",36.8069444,-94.5213889
"Detmold, MO",38.5427778,-91.2902778
"Deventer, MO",36.8222222,-89.2116667
"Devils Elbow, MO",37.8458333,-92.0636111
"Dexter, MO",36.7958333,-89.9577778
"Diamond, MO",36.8366000,-94.3761000
"Dickens, MO",36.7275000,-93.0472222
"Diehlstadt, MO",36.9583333,-89.4308333
"Diggins, MO",37.1725000,-92.8541667
"Dilday Mill, MO",37.3252778,-93.7805556
"Dillard, MO",37.7366667,-91.2041667
"Dillia, MO",36.6208333,-92.6091667
"Dillman, MO",36.1847222,-90.1047222
"Dillon, MO",37.9719444,-91.6977778
"Dinsmore, MO",40.3411111,-93.7447222
"Dissen, MO",38.5597222,-91.2758333
"Dittmer, MO",38.3355556,-90.6880556
"Dixie, MO",38.7188889,-92.0091667
"Dixon, MO",37.9916667,-92.0936111
"Dockery, MO",39.3611111,-93.9883333
"Dodds, MO",38.1541667,-92.9850000
"Dodge City, MO",39.7941667,-91.5166667
"Dodson, MO",38.9750000,-94.5527778
"Doe Run, MO",37.7427778,-90.4975000
"Dogwood, MO",37.0377778,-92.8308333
"Dongola, MO",37.1680556,-89.9597222
"Donia, MO",37.9772222,-94.0413889
"Doniphan, MO",36.6208333,-90.8233333
"Donnell, MO",38.2136111,-90.4588889
"Doolittle, MO",37.9402778,-91.8808333
"Dora, MO",36.7769444,-92.2172222
"Dorena, MO",36.6161111,-89.2372222
"Dorena Landing, MO",36.5841667,-89.2172222
"Dormis, MO",36.6719444,-92.2422222
"Doss, MO",37.5761111,-91.4847222
"Dotham, MO",40.3352778,-95.2361111
"Douglas, MO",40.1044444,-94.5966667
"Dove, MO",37.7908333,-92.6825000
"Dover, MO",39.1933333,-93.6875000
"Dover Station, MO",39.2080556,-93.6988889
"Downing, MO",40.4875000,-92.3691667
"Doyle, MO",36.5997222,-90.9097222
"Drake, MO",38.4683333,-91.4644444
"Dresden, MO",38.7004000,-93.2287000
"Drew, MO",37.5480556,-92.4680556
"Drexel, MO",38.4794444,-94.6083333
"Drum, MO",37.1886111,-89.8936111
"Drury, MO",36.9300000,-92.3225000
"Dry Valley, MO",37.0250000,-94.0413889
"Drynob, MO",37.6416667,-92.4502778
"Dudenville, MO",37.3055556,-94.0830556
"Dudley, MO",36.7886111,-90.0930556
"Duenweg, MO",37.0836111,-94.4133333
"Duggan, MO",37.1941667,-92.4136111
"Dugginsville, MO",36.5097222,-92.6952778
"Duke, MO",37.6602778,-92.0105556
"Dumas, MO",40.5211111,-91.6352778
"Duncan, MO",37.2816667,-92.6916667
"Duncans Bridge, MO",39.5755556,-92.2636111
"Dundee, MO",38.5933333,-91.1244444
"Dunksburg, MO",38.8991667,-93.4975000
"Dunlap, MO",40.1083333,-93.4822222
"Dunn, MO",36.4094444,-89.9336111
"Dunnegan, MO",37.7080556,-93.5766667
"Dunsford, MO",39.8805556,-91.4686111
"Duquesne, MO",37.0766667,-94.4591667
"Durbin, MO",37.3758333,-92.5013889
"Durgen, MO",40.0725000,-91.6327778
"Durham, MO",39.9761111,-91.6677778
"Durnell, MO",36.9686111,-89.8141667
"Dutchtown, MO",37.2527778,-89.6597222
"Dutzow, MO",38.6055556,-90.9944444
"Dye, MO",39.4850000,-94.9286111
"Dykes, MO",37.3336111,-92.1155556
"Eagle Rock, MO",36.5480556,-93.7541667
"Eaglette, MO",37.0355556,-90.0394444
"Eagleville, MO",40.4691667,-93.9869444
"Earl, MO",38.9311111,-92.0611111
"Earnestville, MO",37.5602778,-92.8919444
"Earth City, MO",38.7688889,-90.4680556
"Easley, MO",38.8016667,-92.3758333
"East Bonne Terre, MO",37.9211111,-90.5275000
"East End, MO",37.6752778,-91.0336111
"East Independence, MO",39.0955556,-94.3550000
"East Joplin, MO",37.0836111,-94.4861111
"East Kansas City, MO",39.1600000,-94.4950000
"East Lake, MO",36.8069444,-89.5202778
"East Leavenworth, MO",39.3144444,-94.8516667
"East Lynne, MO",38.6683333,-94.2291667
"East Prairie, MO",36.7797222,-89.3855556
"East Purdy, MO",36.8152778,-93.8783333
"Easterville, MO",39.6272222,-93.8988889
"Easton, MO",39.7222222,-94.6413889
"Eastville, MO",38.9525000,-92.0319444
"Eastwood, MO",36.8908333,-91.0327778
"Ebenezer, MO",37.3402778,-93.3069444
"Ebo, MO",38.0263889,-90.8991667
"Eccles, MO",39.4891667,-92.8686111
"Echo, MO",39.5980556,-92.8483333
"Echo Lake Ranch, MO",38.4544444,-90.5794444
"Economy, MO",39.8891667,-92.4205556
"Ectonville, MO",39.3677778,-94.4777778
"Edanville, MO",37.5933333,-92.0483333
"Edgar Springs, MO",37.7044444,-91.8663889
"Edgehill, MO",37.5883333,-90.9333333
"Edgerton, MO",39.5050000,-94.6330556
"Edgerton Junction, MO",39.4775000,-94.6747222
"Edgewater Beach, MO",36.6613889,-93.1416667
"Edgewood, MO",39.2716667,-91.0747222
"Edina, MO",40.1675000,-92.1725000
"Edinburg, MO",40.0813889,-93.6936111
"Edmonson, MO",38.3094444,-93.2238889
"Edmundson, MO",38.7358333,-90.3638889
"Edwards, MO",38.1366667,-93.1694444
"Effingham, MO",40.2047222,-94.2636111
"Egbert, MO",38.7597222,-91.6333333
"Egypt Grove, MO",36.6141667,-92.0308333
"Egypt Mills, MO",37.4050000,-89.4636111
"El Dorado Springs, MO",37.8769444,-94.0211111
"Elaver, MO",37.9686111,-91.2783333
"Eldon, MO",38.3483333,-92.5813889
"Eldorado, MO",40.4547222,-91.8880556
"Eldridge, MO",37.8297222,-92.7488889
"Elgin, MO",39.9355556,-91.9966667
"Elijah, MO",36.6116667,-92.1488889
"Elixer, MO",37.8919444,-93.1183333
"Elk Creek, MO",37.1888889,-91.9969444
"Elk Springs, MO",36.5836111,-94.4561111
"Elkhead, MO",37.0136111,-92.9302778
"Elkhorn, MO",39.3091667,-94.1125000
"Elkhurst, MO",38.8325000,-92.2519444
"Elkland, MO",37.4430556,-93.0308333
"Elko, MO",40.4150000,-92.8647222
"Elkton, MO",37.8525000,-93.4258333
"Ellendale, MO",38.6130556,-90.3122222
"Ellenorah, MO",40.3386111,-94.3316667
"Elliff, MO",36.6977778,-94.4322222
"Ellington, MO",37.2416667,-90.9686111
"Elliot Ford, MO",36.6625000,-91.6222222
"Elliott, MO",37.0427778,-93.7475000
"Ellis, MO",37.8247222,-94.4483333
"Ellis Prairie, MO",37.4133333,-92.0394444
"Ellisville, MO",38.5925000,-90.5869444
"Ellsinore, MO",36.9341667,-90.7466667
"Ellsworth, MO",37.4530556,-92.0113889
"Elm, MO",38.8533333,-94.0422222
"Elm Point, MO",38.8180556,-90.4869444
"Elmer, MO",39.9569444,-92.6502778
"Elmira, MO",39.5072222,-94.1544444
"Elmira Camp, MO",39.4963889,-94.1575000
"Elmo, MO",40.5183333,-95.1152778
"Elmont, MO",38.2355556,-91.2425000
"Elmwood, MO",39.0686111,-93.4327778
"Elsberry, MO",39.1666667,-90.7808333
"Elsey, MO",36.8541667,-93.5405556
"Elston, MO",38.6127778,-92.3236111
"Elvins, MO",37.8366667,-90.5327778
"Elwood, MO",37.2280556,-93.4311111
"Ely, MO",39.6916667,-91.6330556
"Embree, MO",37.4122222,-92.2566667
"Emden, MO",39.7963889,-91.8627778
"Emerald Beach, MO",36.5755556,-93.6716667
"Emerson, MO",39.8894444,-91.6975000
"Eminence, MO",37.1505556,-91.3575000
"Emma, MO",38.9716667,-93.4944444
"Empire, MO",36.7633333,-90.3155556
"Empire Prairie, MO",40.0830556,-94.6388889
"Energy, MO",40.4041667,-92.3455556
"Englewood, MO",38.8216667,-92.1841667
"English Town, MO",37.6225000,-90.6402778
"Enon, MO",38.4569444,-92.4894444
"Enough, MO",37.7072222,-90.9166667
"Enterprise, MO",40.0244444,-93.0850000
"Enyart, MO",40.3622222,-94.5477778
"Eolia, MO",39.2358333,-91.0080556
"Epworth, MO",39.8941667,-92.0941667
"Erie, MO",36.7277778,-94.3630556
"Ernestville, MO",38.9322222,-93.6300000
"Esper, MO",40.5288889,-92.8519444
"Esrom, MO",37.4066667,-94.3269444
"Essex, MO",36.8125000,-89.8613889
"Estes, MO",39.2366667,-91.3761111
"Esther, MO",37.8502778,-90.4986111
"Estill, MO",39.0483333,-92.7441667
"Ethel, MO",39.8947222,-92.7377778
"Ethlyn, MO",38.9408333,-90.8258333
"Etlah, MO",38.6391667,-91.2763889
"Etna, MO",40.4175000,-91.9791667
"Eton, MO",39.1708333,-94.3472222
"Etterville, MO",38.3675000,-92.4700000
"Eudora, MO",37.4825000,-93.5375000
"Eugene, MO",38.3527778,-92.4036111
"Eunice, MO",37.2450000,-91.7794444
"Eureka, MO",38.5096000,-90.6390000
"Europa, MO",36.0900000,-90.1775000
"Evans, MO",36.8958333,-92.4405556
"Evansville, MO",39.6961111,-94.7202778
"Eve, MO",37.8397222,-94.5833333
"Evening Shade, MO",37.5755556,-92.1413889
"Everett, MO",38.5044444,-94.4269444
"Eversonville, MO",39.9088889,-93.3597222
"Everton, MO",37.3425000,-93.7022222
"Evona, MO",40.1977778,-94.3288889
"Evorge, MO",36.0175000,-90.1627778
"Ewing, MO",40.0061111,-91.7136111
"Excello, MO",39.6361111,-92.4752778
"Excelsior, MO",38.4775000,-92.7219444
"Excelsior Estates, MO",39.3902778,-94.2075000
"Excelsior Springs, MO",39.3391667,-94.2258333
"Excelsior Springs Junction, MO",39.2377778,-94.2402778
"Exeter, MO",36.6722222,-93.9408333
"Expansion, MO",37.1350000,-93.1986111
"Fabius, MO",40.2886111,-92.1377778
"Fagus, MO",36.5113889,-90.2669444
"Fair Grove, MO",37.3838889,-93.1511111
"Fair Haven, MO",37.9763889,-94.1730556
"Fair Play, MO",37.6300000,-93.5730556
"Fairdealing, MO",36.6627778,-90.6166667
"Fairfax, MO",40.3386111,-95.3930556
"Fairmont, MO",40.3313889,-91.9097222
"Fairmount, MO",39.1105556,-94.4627778
"Fairport, MO",39.9877778,-94.3458333
"Fairview, MO",36.8175000,-94.0880556
"Fairview Acres, MO",37.8583333,-90.5333333
"Fairville, MO",39.2319444,-93.2180556
"Faith, MO",38.0544444,-92.3975000
"Falcon, MO",37.6050000,-92.3786111
"Famous, MO",39.0350000,-91.0119444
"Fanchon, MO",36.7950000,-91.7002778
"Fanning, MO",38.0372222,-91.4697222
"Far West, MO",39.6711111,-94.1313889
"Farber, MO",39.2725000,-91.5744444
"Farewell, MO",36.5011111,-91.3613889
"Faris, MO",36.1855556,-89.7986111
"Farley, MO",39.2822222,-94.8311111
"Farmer, MO",39.2572222,-91.3091667
"Farmers City, MO",40.5530556,-95.4488889
"Farmersville, MO",39.9608333,-93.5416667
"Farmington, MO",37.7808333,-90.4216667
"Faro, MO",37.4472222,-90.4375000
"Farrar, MO",37.7022222,-89.6886111
"Farrenburg, MO",36.6880556,-89.5005556
"Faucett, MO",39.6000000,-94.7972222
"Fawn, MO",37.5438889,-91.4761111
"Fay, MO",36.5552778,-92.3433333
"Fayette, MO",39.1458333,-92.6836111
"Fayetteville, MO",38.8811111,-93.7561111
"Federal, MO",37.8419444,-90.5047222
"Fegley, MO",40.2861111,-92.6491667
"Feigler Ferry, MO",38.5638889,-91.6108333
"Femme Osage, MO",38.6366667,-90.9416667
"Fenton, MO",38.5130556,-90.4358333
"Fenwick, MO",38.6697222,-94.1050000
"Ferguson, MO",38.7441667,-90.3052778
"Fern Glen, MO",38.5519444,-90.5313889
"Fernridge, MO",38.6808333,-90.4775000
"Ferrelview, MO",39.3111111,-94.6647222
"Fertile, MO",38.0738889,-90.6855556
"Festus, MO",38.2205556,-90.3958333
"Fiddlers Ford, MO",37.3838889,-93.7988889
"Fidelity, MO",37.0680556,-94.3130556
"Fielden, MO",36.8619444,-92.3830556
"Filer, MO",37.0297222,-92.4144444
"Filley, MO",37.7588889,-93.9488889
"Fillmore, MO",40.0252778,-94.9733333
"Finey, MO",38.2338889,-93.5455556
"Finley Falls, MO",37.1386111,-92.8400000
"Firma, MO",38.8891667,-90.6758333
"Fisk, MO",36.7819444,-90.2086111
"Flag Spring, MO",38.0250000,-91.6036111
"Flag Springs, MO",40.0250000,-94.6666667
"Flamm City, MO",38.4169444,-90.3566667
"Flat, MO",37.7452778,-91.9288889
"Flat Creek, MO",36.7613889,-93.6127778
"Flat River, MO",37.8500000,-90.5166667
"Flatwood, MO",37.2211111,-91.4475000
"Flatwoods, MO",36.6805556,-90.7002778
"Fleming, MO",39.1991667,-94.0652778
"Flemington, MO",37.8047222,-93.5011111
"Fletcher, MO",38.1658333,-90.7333333
"Flinn, MO",38.9580556,-94.5491667
"Flint Hill, MO",39.6238889,-91.3830556
"Flordell Hills, MO",38.7175000,-90.2655556
"Florence, MO",38.5888889,-92.9788889
"Florida, MO",39.4930556,-91.7869444
"Florissant, MO",38.7891667,-90.3225000
"Floyd, MO",39.1925000,-94.1105556
"Flucom, MO",38.1011111,-90.4425000
"Foil, MO",36.7561111,-92.6352778
"Foley, MO",39.0463889,-90.7422222
"Folk, MO",38.4213889,-92.0977778
"Folsom, MO",38.7333333,-92.1541667
"Foose, MO",37.5613889,-93.1463889
"Forbes, MO",39.9027778,-95.0825000
"Ford City, MO",40.1116667,-94.4644444
"Fordham, MO",39.8300000,-94.2702778
"Fordland, MO",37.1575000,-92.9405556
"Forest City, MO",39.9825000,-95.1916667
"Forest Green, MO",39.3150000,-92.8375000
"Forest Mills, MO",37.1766667,-94.2152778
"Forest Springs, MO",40.1861111,-91.9550000
"Forest Spur, MO",36.5397222,-89.8177778
"Foristell, MO",38.8150000,-90.9558333
"Forker, MO",39.7191667,-93.1855556
"Forkners Hill, MO",37.4727778,-92.9088889
"Forsyth, MO",36.6850000,-93.1197222
"Fort Bellefontaine, MO",38.8361111,-90.2419444
"Fort Henry, MO",39.4636111,-92.6075000
"Fortescue, MO",40.0522222,-95.3180556
"Fortuna, MO",38.5666667,-92.7977778
"Foster, MO",38.1661111,-94.5072222
"Fountain Grove, MO",39.7108333,-93.3155556
"Fountain N' Lakes, MO",38.9688889,-90.8500000
"Fountainbleau, MO",39.9741667,-94.7069444
"Four Points, MO",37.9527778,-91.0955556
"Four Seasons, MO",38.1980556,-92.7108333
"Fourmile Corner, MO",38.5111111,-91.0461111
"Fowkes, MO",39.4830556,-92.0713889
"Fowler, MO",37.2333333,-92.2163889
"Fox Creek, MO",38.5711111,-90.6888889
"Fox Run, MO",38.1822222,-93.5730556
"Fox Springs, MO",38.0086111,-91.4591667
"Frailie, MO",36.4180556,-89.8172222
"Frankclay, MO",37.8616667,-90.6150000
"Frankenstein, MO",38.5741667,-91.8822222
"Frankford, MO",39.4900000,-91.3200000
"Franklin, MO",39.0116667,-92.7530556
"Franks, MO",37.9527778,-92.0366667
"Frankville, MO",36.6972222,-91.8055556
"Frazier, MO",39.6288889,-94.6675000
"Fredericksburg, MO",38.6075000,-91.6413889
"Fredericktown, MO",37.5597222,-90.2938889
"Fredville, MO",36.9094444,-94.4125000
"Freeburg, MO",38.3150000,-91.9225000
"Freedom, MO",38.6352000,-91.7608000
"Freeman, MO",38.6183333,-94.5050000
"Freistatt, MO",37.0183333,-93.8975000
"Fremont, MO",36.9522222,-91.1641667
"Fremont Hills, MO",37.0650000,-93.2486111
"French Mills, MO",37.4558333,-90.4891667
"French Town, MO",37.9550000,-90.6744444
"French Village, MO",37.9725000,-90.3897222
"Friedenberg, MO",37.7008333,-89.7938889
"Friedheim, MO",37.5700000,-89.8200000
"Friendly Valley, MO",37.6900000,-89.9105556
"Frisbee, MO",36.3500000,-90.0286111
"Frisco, MO",36.7588889,-89.8622222
"Fristoe, MO",38.1166667,-93.2755556
"Frogtown, MO",37.9797222,-90.7663889
"Frohna, MO",37.6386111,-89.6213889
"Frontenac, MO",38.6355556,-90.4150000
"Fruit City, MO",37.2905556,-91.0388889
"Fruitland, MO",37.4486111,-89.6386111
"Fruitville, MO",36.6161111,-91.7652778
"Frumet, MO",38.1594444,-90.6930556
"Fuersville, MO",38.3936111,-91.6747222
"Fuget, MO",36.8088889,-89.1919444
"Fulkerson, MO",38.8544444,-94.0888889
"Fulton, MO",38.8466667,-91.9477778
"Furner, MO",38.9175000,-92.4000000
"Fuson, MO",37.3322222,-92.4983333
"Gabriels Mills, MO",38.1808333,-93.3436111
"Gads Hill, MO",37.2383333,-90.6966667
"Gaines, MO",38.2872222,-93.6613889
"Gainesville, MO",36.6030556,-92.4280556
"Galena, MO",36.8052778,-93.4663889
"Galesburg, MO",37.2694444,-94.5152778
"Gallatin, MO",39.9143000,-93.9763000
"Galloway, MO",37.1366667,-93.2377778
"Galmey, MO",37.8941667,-93.3619444
"Galt, MO",40.1286111,-93.3866667
"Gamburg, MO",36.6372222,-90.6400000
"Gamma, MO",39.0672222,-91.3413889
"Gang, MO",37.2066667,-91.2305556
"Garber, MO",36.6916667,-93.2988889
"Garden City, MO",38.5611111,-94.1911111
"Gardner, MO",40.3119444,-93.9752778
"Gardnerville, MO",38.8113889,-90.5261111
"Garfield, MO",36.5852778,-91.3258333
"Garland, MO",38.4433333,-93.8538889
"Garner, MO",39.9658333,-92.9763889
"Garnsey, MO",37.8236111,-92.4569444
"Garrettsburg, MO",39.6875000,-94.7008333
"Garrison, MO",36.8388889,-93.0194444
"Garver, MO",36.3861111,-89.8177778
"Garwood, MO",37.0663889,-90.8777778
"Gasconade, MO",38.6694444,-91.5600000
"Gascondy, MO",38.2994444,-91.8591667
"Gascozark, MO",37.7675000,-92.4038889
"Gashland, MO",39.2463889,-94.5755556
"Gateway Drive, MO",37.0519444,-94.4783333
"Gatewood, MO",36.5769444,-91.0897222
"Gaylor, MO",37.0966667,-90.7138889
"Gaynor, MO",40.4877778,-94.7077778
"Gayoso, MO",36.2561111,-89.7050000
"Gazette, MO",39.2044444,-91.3958333
"Genova, MO",39.9058333,-93.7044444
"Gentry, MO",40.3316667,-94.4200000
"Gentryville, MO",40.1330556,-94.3438889
"Georgetown, MO",38.7586111,-93.2377778
"Georgeville, MO",39.4961111,-93.9080556
"Gerald, MO",38.3997222,-91.3305556
"Germania, MO",40.4291667,-92.4791667
"Germantown, MO",38.2900000,-94.0186111
"Gerster, MO",37.9533333,-93.5755556
"Gheen, MO",36.5994444,-90.5838889
"Ghermanville, MO",37.6488889,-90.6700000
"Gibbons, MO",36.1325000,-89.9777778
"Gibbs, MO",40.0977778,-92.4166667
"Giboney, MO",37.8047222,-89.9905556
"Gibson, MO",36.4411111,-90.0308333
"Gideon, MO",36.4519444,-89.9191667
"Gidson, MO",36.3297222,-89.9338889
"Gifford, MO",40.0255556,-92.6813889
"Gila, MO",37.4302778,-91.3077778
"Gilbert, MO",36.0330556,-90.0427778
"Gildehouse, MO",38.4847222,-90.9383333
"Gilead, MO",40.0194444,-91.6813889
"Gill, MO",36.2191667,-89.7894444
"Gilliam, MO",39.2333333,-93.0044444
"Gilman City, MO",40.1416667,-93.8722222
"Gilmore, MO",38.8102778,-90.8061111
"Ginger Blue, MO",36.5886111,-94.4605556
"Ginlet, MO",38.8597222,-92.1922222
"Gipsy, MO",37.1469444,-90.1794444
"Girdner, MO",36.8538889,-92.5869444
"Gladden, MO",37.4986111,-91.4563889
"Gladstone, MO",39.2038889,-94.5544444
"Glaser Ford, MO",38.2325000,-91.5197222
"Glasgow, MO",39.2272222,-92.8463889
"Glasgow Village, MO",38.7536111,-90.1983333
"Glen Echo Park, MO",38.7011111,-90.2977778
"Glen Town, MO",37.5122222,-93.8066667
"Glenaire, MO",39.2213889,-94.4511111
"Glenallen, MO",37.3177778,-90.0277778
"Glencoe, MO",38.5444444,-90.6236111
"Glendale, MO",38.5837000,-90.4162000
"Glenn, MO",36.5302778,-90.6841667
"Glennon, MO",37.1888889,-89.9183333
"Glennonville, MO",36.5808333,-90.1555556
"Glensted, MO",38.5155556,-92.8552778
"Glenwood, MO",40.5175000,-92.5761111
"Glenwood Junction, MO",40.5313889,-92.5861111
"Glidewell, MO",37.3044444,-93.3269444
"Globe, MO",36.5627778,-91.7550000
"Glover, MO",37.4863889,-90.6911111
"Gobler, MO",36.1561111,-89.9591667
"Golden, MO",36.5241667,-93.6536111
"Golden City, MO",37.3930556,-94.0936111
"Goldman, MO",38.2972222,-90.5213889
"Goldsberry, MO",39.9622222,-92.7691667
"Goltra, MO",37.8297222,-91.4366667
"Good Water, MO",37.7133333,-91.0461111
"Goodfellow Terrace, MO",38.6972222,-90.2705556
"Goodhope, MO",36.9088889,-92.8075000
"Goodland, MO",37.6361111,-91.0016667
"Goodman, MO",36.7416667,-94.3988889
"Goodnight, MO",37.4458333,-93.2263889
"Goodson, MO",37.7019444,-93.2513889
"Goodville, MO",37.0313889,-92.2950000
"Gordonville, MO",37.3111111,-89.6791667
"Gore, MO",38.7144444,-91.3222222
"Gorin, MO",40.3600000,-92.0241667
"Goshen, MO",40.3827778,-93.6794444
"Gospel Ridge, MO",37.8213889,-92.1588889
"Goss, MO",39.5138889,-91.9422222
"Gould Farm, MO",39.6561111,-93.9016667
"Gowdy, MO",38.7655556,-94.2969444
"Gower, MO",39.6108333,-94.5991667
"Grace, MO",39.6008333,-93.4402778
"Graceland, MO",37.7558333,-93.7658333
"Grady, MO",37.1477778,-90.9380556
"Graff, MO",37.3175000,-92.2825000
"Graham, MO",40.2008333,-95.0363889
"Grain Valley, MO",39.0150000,-94.1983333
"Granada, MO",37.0277778,-92.7363889
"Granby, MO",36.9191667,-94.2550000
"Granby City, MO",36.9416667,-94.2694444
"Grand Eddy, MO",37.7550000,-89.6861111
"Grand Falls Plaza, MO",37.0361111,-94.5347222
"Grand Pass, MO",39.2063889,-93.4425000
"Grand Port, MO",39.3958333,-93.1133333
"Grandin, MO",36.8291667,-90.8227778
"Grandview, MO",38.8858333,-94.5327778
"Granger, MO",40.4677778,-91.9755556
"Graniteville, MO",37.6502778,-90.6797222
"Grant City, MO",40.4875000,-94.4108333
"Grantsville, MO",39.9430556,-93.1133333
"Grantwood, MO",38.5541667,-90.3450000
"Grantwood Village, MO",38.5502778,-90.3544444
"Granville, MO",39.4789000,-92.0089000
"Granville, MO",39.4789000,-92.0089000
"Grassy, MO",37.2608333,-90.1236111
"Gratiot, MO",38.6222222,-90.2813889
"Gravel Hill, MO",37.3575000,-89.8400000
"Gravelton, MO",37.2983333,-90.2538889
"Gravois Mills, MO",38.3083333,-92.8252778
"Gray Summit, MO",38.4897222,-90.8166667
"Graydon Springs, MO",37.4566667,-93.5097222
"Grayridge, MO",36.8241667,-89.7808333
"Grays Point, MO",37.2461111,-93.9772222
"Grays Valley, MO",37.4525000,-93.9802778
"Grayson, MO",39.5333333,-94.5641667
"Graysville, MO",40.4458333,-92.7788889
"Greeley, MO",37.5150000,-91.1869444
"Green Bay Terrace, MO",38.0927778,-92.7616667
"Green Castle, MO",40.2625000,-92.8777778
"Green City, MO",40.2686111,-92.9530556
"Green Cox, MO",37.1405556,-89.8388889
"Green Forest, MO",36.7669444,-90.4650000
"Green Grove, MO",40.3138889,-92.7202778
"Green Mound Ridge, MO",36.8922222,-93.2505556
"Green Mountain, MO",37.3358333,-92.3247222
"Green Oaks, MO",36.7880556,-90.1641667
"Green Park, MO",38.5236111,-90.3383333
"Green Ridge, MO",38.6202778,-93.4091667
"Green Town, MO",36.5141667,-91.5422222
"Greenbrier, MO",37.1105556,-90.0255556
"Greendale, MO",38.6952778,-90.3130556
"Greendoor, MO",38.8211111,-93.8266667
"Greenfield, MO",37.4152778,-93.8408333
"Greenlawn, MO",39.4775000,-91.6861111
"Greensburg, MO",40.2963889,-92.2166667
"Greenstreet, MO",38.4063889,-91.2030556
"Greenton, MO",39.0486111,-93.9638889
"Greentop, MO",40.3469444,-92.5688889
"Greenview, MO",37.6561111,-92.2577778
"Greenville, MO",37.1272222,-90.4500000
"Greenville Ford, MO",36.7455556,-90.7355556
"Greenwood, MO",38.8516667,-94.3436111
"Greer, MO",36.7694444,-91.3533333
"Gregg, MO",37.0519444,-94.5641667
"Gregory Landing, MO",40.2813889,-91.4961111
"Gretna, MO",36.6602778,-93.2677778
"Griffin, MO",37.0805556,-93.3780556
"Griffin Ford, MO",36.5666667,-94.3047222
"Grimes Mill, MO",37.3216667,-92.3927778
"Grimmet, MO",36.7813889,-92.0063889
"Grisham, MO",37.3797222,-90.1008333
"Griswold, MO",36.5113889,-91.1447222
"Grogan, MO",37.1547222,-91.8861111
"Grover, MO",38.5761111,-90.6372222
"Grovespring, MO",37.3997222,-92.6094444
"Grubville, MO",38.2883333,-90.7547222
"Guam, MO",36.9019444,-89.8236111
"Guild, MO",37.0700000,-91.8016667
"Guilford, MO",40.1702778,-94.7361111
"Guin, MO",37.0872222,-93.3452778
"Guinn, MO",40.5816667,-92.6547222
"Guiteau, MO",36.5469444,-91.3130556
"Gulfton, MO",37.1836111,-94.5447222
"Gumbo, MO",38.6680556,-90.6177778
"Gunn City, MO",38.6672222,-94.1619444
"Guthridge, MO",39.5436111,-92.9769444
"Guthrie, MO",38.7569444,-92.0963889
"Guyton, MO",39.5144444,-94.3236111
"Hackleman Corner, MO",37.8511111,-93.8747222
"Hackney, MO",37.3450000,-93.3952778
"Hadley, MO",37.0727778,-90.7980556
"Hadsell, MO",38.6983333,-94.1366667
"Hagers Grove, MO",39.8311111,-92.2230556
"Hahatonka, MO",37.9730556,-92.7688889
"Hahn, MO",37.2052778,-90.0697222
"Hahns Mill, MO",37.5586111,-90.1550000
"Hailey, MO",36.7108333,-93.7072222
"Halcyon, MO",37.4763889,-91.3827778
"Hale, MO",39.6036111,-93.3422222
"Hale Crossing, MO",36.8822222,-92.1872222
"Half Rock, MO",40.2730556,-93.4355556
"Halfway, MO",37.6163889,-93.2444444
"Halifax, MO",38.0119444,-90.4897222
"Halleck, MO",39.5780556,-94.8205556
"Halloran, MO",36.8333333,-90.6180556
"Halls, MO",39.6333333,-94.9730556
"Hallsville, MO",39.1052000,-92.2249000
"Halltown, MO",37.1933333,-93.6252778
"Hamburg, MO",38.6697222,-90.7316667
"Hamden, MO",39.5772222,-92.8230556
"Hamilton, MO",39.7436111,-93.9980556
"Hamilton Town, MO",37.7413889,-90.4836111
"Hamlet, MO",37.7572222,-93.6408333
"Hammack, MO",39.7172222,-92.7252778
"Hammond, MO",36.6755556,-92.6441667
"Hampton, MO",39.2813889,-94.7330556
"Hams Prairie, MO",38.7672222,-91.9188889
"Hancock, MO",37.9863889,-92.1816667
"Handley, MO",37.5283333,-92.9294444
"Handy, MO",36.8091667,-91.1069444
"Hanley Hills, MO",38.6858333,-90.3236111
"Hanleyville, MO",36.6886111,-90.2900000
"Hanna, MO",37.7350000,-92.2466667
"Hannibal, MO",39.7083333,-91.3583333
"Hannon, MO",37.6225000,-94.4938889
"Happy Hollow, MO",38.0013889,-90.7250000
"Hardeman, MO",39.0894444,-93.0102778
"Hardenville, MO",36.5891667,-92.3711111
"Hardin, MO",39.2708333,-93.8341667
"Hardyville, MO",37.8944444,-93.7600000
"Harg, MO",38.9266667,-92.2311111
"Hargrove, MO",36.0658333,-90.3202778
"Harkes, MO",39.3483333,-92.4805556
"Harlem, MO",39.1177778,-94.5866667
"Harlow Ford, MO",37.0722222,-91.7050000
"Harold, MO",37.3777778,-93.5152778
"Harper, MO",38.0625000,-93.5183333
"Harrelson, MO",38.7688889,-94.4911111
"Harrill Ford, MO",37.7269444,-92.4641667
"Harris, MO",40.3058333,-93.3500000
"Harrisburg, MO",39.1269000,-92.4399000
"Harrison Mills, MO",38.0802778,-91.1463889
"Harrisonville, MO",38.6533333,-94.3486111
"Harriston, MO",38.8344444,-92.9480556
"Hart, MO",36.7372222,-94.6055556
"Hartford, MO",40.4697222,-92.8355556
"Hartle Ford, MO",37.4330556,-89.8530556
"Hartsburg, MO",38.6950000,-92.3086111
"Hartshorn, MO",37.2647222,-91.6702778
"Hartville, MO",37.2508333,-92.5102778
"Hartwell, MO",38.4352778,-93.9344444
"Hartzell, MO",36.4852778,-89.8558333
"Harvester, MO",38.7458333,-90.5805556
"Harvey, MO",38.4458333,-93.8666667
"Harviell, MO",36.6647222,-90.4722222
"Harwood, MO",37.9561111,-94.1541667
"Haseltine, MO",37.2094444,-93.3858333
"Haseville, MO",40.0263889,-93.3211111
"Hassard, MO",39.6569444,-91.6594444
"Hastain, MO",38.2019444,-93.1761111
"Hatch, MO",39.5888889,-91.6177778
"Hatfield, MO",40.5288889,-94.1547222
"Hattie, MO",37.0797222,-91.7733333
"Hatton, MO",39.0241667,-92.0261111
"Havenhurst, MO",36.5833333,-94.3741667
"Hawk Point, MO",38.9708333,-91.1311111
"Hawkeye, MO",38.0055556,-92.3927778
"Hayden, MO",38.0750000,-91.9766667
"Haydite, MO",39.4975000,-94.8016667
"Haynesville, MO",39.4613889,-94.3155556
"Hayti, MO",36.2336111,-89.7494444
"Hayti Heights, MO",36.2338889,-89.7694444
"Hayward, MO",36.3986111,-89.6700000
"Haywood City, MO",37.0125000,-89.6013889
"Hazel Run, MO",37.9469444,-90.4655556
"Hazelgreen, MO",37.7675000,-92.4272222
"Hazelwood, MO",38.7713889,-90.3708333
"Hazleton, MO",37.5250000,-92.0247222
"Heady, MO",37.3852778,-93.3680556
"Heagy, MO",37.0383333,-89.8027778
"Heather, MO",39.8425000,-91.8072222
"Heatonville, MO",37.1883333,-93.7991667
"Hebron, MO",36.8522222,-92.1530556
"Hecla, MO",39.9397222,-93.3038889
"Hedge City, MO",40.0300000,-92.1366667
"Hedrick, MO",37.6319444,-91.6661111
"Heitmans Mill, MO",37.5963889,-90.0283333
"Helena, MO",39.9127778,-94.6491667
"Helm, MO",37.9841667,-92.1541667
"Helton, MO",39.7747222,-91.4211111
"Hematite, MO",38.2019444,-90.4808333
"Hemenway, MO",36.5483333,-90.6516667
"Hemker, MO",38.3072222,-90.7775000
"Hemple, MO",39.7255556,-94.5613889
"Henderson, MO",37.1411111,-93.0597222
"Hendrickson, MO",36.9044444,-90.4688889
"Henley, MO",38.3444444,-92.3222222
"Henrietta, MO",39.2341667,-93.9352778
"Hensley, MO",38.2433333,-90.8708333
"Henson, MO",36.8561111,-89.2525000
"Herculaneum, MO",38.2683333,-90.3800000
"Hercules, MO",36.7075000,-92.8727778
"Hereford, MO",38.9916667,-92.0936111
"Hermann, MO",38.7041667,-91.4372222
"Hermitage, MO",37.9413889,-93.3161111
"Hermondale, MO",36.0161111,-89.9147222
"Herndon, MO",39.0041667,-93.2700000
"Herrick Ford, MO",37.8608333,-92.9125000
"Hest, MO",36.8958333,-92.6811111
"Hester, MO",39.9108333,-91.6266667
"Heuer, MO",39.7083333,-92.8075000
"Hickman, MO",36.9905556,-90.1169444
"Hickman Mills, MO",38.9194444,-94.5183333
"Hickory Barren, MO",37.3477778,-93.2211111
"Hickory Creek, MO",39.9980556,-93.6691667
"Hickory Hill, MO",38.4005556,-92.3594444
"Hickory Ridge, MO",37.1733333,-89.8050000
"Hicks, MO",37.9225000,-89.9952778
"Hicks City, MO",38.8855556,-94.1236111
"Hicoria Spur, MO",36.6647222,-90.1741667
"Higbee, MO",39.3047222,-92.5125000
"Higdon, MO",37.5927778,-90.1677778
"Higginsville, MO",39.0725000,-93.7169444
"High Gate, MO",38.1577778,-91.6747222
"High Hill, MO",38.8783333,-91.3833333
"High Place Lookout Tower, MO",36.7150000,-92.1669444
"High Point, MO",38.4844444,-92.5905556
"High Prairie, MO",37.2952778,-92.7650000
"High Prarie, MO",37.2938889,-92.7625000
"High Ridge, MO",38.4588889,-90.5363889
"Highland, MO",37.6644444,-89.8913889
"Highlandville, MO",36.9327778,-93.2802778
"Highley Heights, MO",37.8813889,-90.5172222
"Hilda, MO",38.3630556,-93.1783333
"Hilderbrand, MO",37.5755556,-89.8538889
"Hiler, MO",39.0761111,-94.1994444
"Hill City, MO",36.6661111,-93.6716667
"Hill Top, MO",36.6408333,-90.8016667
"Hilldale, MO",39.0630556,-92.5611111
"Hilliard, MO",36.8252778,-90.4166667
"Hills Store, MO",36.7197222,-89.8088889
"Hillsboro, MO",38.2322222,-90.5627778
"Hillsdale, MO",38.6833333,-90.2838889
"Hilltop, MO",36.6541667,-93.8558333
"Himmel, MO",36.9761111,-89.7527778
"Hinch, MO",38.0627778,-91.1552778
"Hine, MO",38.6830556,-90.5233333
"Hines Landing, MO",37.5577778,-89.5263889
"Hinton, MO",39.0536111,-92.3402778
"Hiram, MO",37.1788889,-90.3147222
"Hitt, MO",40.5636111,-92.2555556
"Hobart, MO",39.2108333,-91.0988889
"Hoberg, MO",37.0697222,-93.8486111
"Hobson, MO",37.7555556,-91.6319444
"Hocomo, MO",36.6147222,-92.0038889
"Hodge, MO",39.2236111,-93.6266667
"Hoecker, MO",38.3319444,-92.2902778
"Hoene Spring, MO",38.4513889,-90.6144444
"Hofflins, MO",38.0958333,-91.3605556
"Hoffman, MO",38.8436111,-92.9450000
"Hoffman Junction, MO",37.9100000,-90.5563889
"Hogan, MO",37.5111111,-90.6958333
"Holbert Corner, MO",36.0233333,-89.8677778
"Holcomb, MO",36.3991667,-90.0236111
"Holden, MO",38.7141667,-93.9911111
"Holiday Shores, MO",37.7391667,-90.6744444
"Holland, MO",36.0558333,-89.8708333
"Hollensville, MO",39.3130556,-91.9852778
"Holliday, MO",39.4944444,-92.1286111
"Holliday Landing, MO",37.0361111,-90.4227778
"Hollis, MO",36.7044444,-91.3050000
"Hollister, MO",36.6211111,-93.2152778
"Hollow, MO",38.5500000,-90.7080556
"Hollywood, MO",36.0541667,-90.1861111
"Holman, MO",37.2730556,-93.0530556
"Holmes Park, MO",38.9525000,-94.5355556
"Holmes Place, MO",36.5386111,-90.1933333
"Holstein, MO",38.6552778,-91.1711111
"Holt, MO",39.4527778,-94.3419444
"Holts Summit, MO",38.6402778,-92.1222222
"Holtville, MO",36.9144444,-92.2638889
"Homeland, MO",36.6675000,-91.9191667
"Homer, MO",36.5208333,-93.3958333
"Homestead, MO",39.3627778,-94.2005556
"Homestown, MO",36.3319444,-89.8258333
"Honey Creek, MO",38.4627778,-92.2416667
"Hong, MO",37.8950000,-94.4166667
"Hooker, MO",37.8600000,-92.0605556
"Hoover, MO",39.3688889,-94.6666667
"Hope, MO",38.5283333,-91.6711111
"Hopewell, MO",37.9379000,-90.7396000
"Hopkins, MO",40.5508333,-94.8191667
"Hopkinsville, MO",39.1741667,-91.1055556
"Horine, MO",38.2666667,-90.4244444
"Hornersville, MO",36.0416667,-90.1138889
"Hornersville Junction, MO",36.0397222,-90.0836111
"Hornet, MO",36.9619444,-94.5569444
"Hortense, MO",38.3622222,-93.5958333
"Horton, MO",37.9747222,-94.3650000
"Horton Town, MO",37.7763889,-90.9250000
"Houck, MO",37.3008333,-89.7486111
"Hough, MO",36.9455556,-89.2669444
"House Creek, MO",37.0175000,-91.0625000
"House Springs, MO",38.4088889,-90.5700000
"Houston, MO",37.3261111,-91.9558333
"Houston Lake, MO",39.1927778,-94.6200000
"Houstonia, MO",38.8988889,-93.3580556
"Howards Ridge, MO",36.5288889,-92.3319444
"Howardville, MO",36.5680556,-89.6005556
"Howell, MO",38.7430556,-90.6108333
"Howes, MO",37.7094444,-91.5144444
"Howes Mill, MO",37.6177778,-91.2916667
"Howland, MO",40.5347222,-92.9572222
"Hubbard, MO",39.5825000,-92.6927778
"Hubbells, MO",36.5675000,-90.5572222
"Huber, MO",38.6883333,-94.3366667
"Huckaby, MO",37.7894444,-93.2497222
"Huddleston, MO",36.7275000,-91.4247222
"Hudson, MO",38.2036111,-94.0900000
"Huff, MO",38.2436111,-90.8852778
"Huggins, MO",37.3200000,-92.1983333
"Hughesville, MO",38.8386111,-93.2952778
"Hugo, MO",37.9952778,-92.6588889
"Huiskamp, MO",39.8161111,-91.4405556
"Hulsey, MO",38.1802778,-91.0366667
"Hulston, MO",37.4544444,-93.7325000
"Humansville, MO",37.7944444,-93.5777778
"Hume, MO",38.0900000,-94.5836111
"Humphreys, MO",40.1255556,-93.3188889
"Hunnewell, MO",39.6680556,-91.8616667
"Hunter, MO",36.8905556,-90.8488889
"Hunter Crossing, MO",36.6786111,-91.6672222
"Hunterville, MO",36.8205556,-89.8075000
"Huntingdale, MO",38.4766667,-93.8169444
"Huntington, MO",39.6613889,-91.5986111
"Huntleigh, MO",38.6158333,-90.4105556
"Huntsdale, MO",38.9116667,-92.4722222
"Huntsville, MO",39.4405556,-92.5450000
"Hurdland, MO",40.1500000,-92.3019444
"Hurley, MO",36.9313889,-93.4988889
"Hurlingen, MO",39.7983333,-94.6363889
"Huron, MO",37.7158333,-93.3530556
"Hurricane, MO",37.4161111,-90.0119444
"Hurricane Deck, MO",38.1316667,-92.7936111
"Hurricane Ridge, MO",36.6341667,-89.6641667
"Hurryville, MO",37.8400000,-90.4580556
"Hurst, MO",37.2366667,-92.0866667
"Huskey, MO",37.3194444,-89.8875000
"Hutchison, MO",39.3458333,-91.6425000
"Hutton Valley, MO",36.9616667,-91.8830556
"Huxie, MO",37.2591667,-90.0522222
"Huzzah, MO",37.9041667,-91.1572222
"Iantha, MO",37.5169444,-94.3975000
"Iatan, MO",39.4752778,-94.9825000
"Iberia, MO",38.0902778,-92.2925000
"Iconium, MO",38.1058333,-93.5444444
"Idalia, MO",36.8638889,-89.8608333
"Idlewild, MO",38.0127778,-91.3969444
"Ilasco, MO",39.7066000,-91.3802000
"Illmo, MO",37.2197222,-89.5088889
"Imperial, MO",38.3697222,-90.3783333
"Independence, MO",39.0911111,-94.4152778
"Indian Creek, MO",39.5944444,-91.7766667
"Indian Grove, MO",39.5105556,-93.0347222
"Indian Mound, MO",36.1511111,-89.6988889
"Indian Point, MO",36.6283333,-93.3436111
"Indian Springs, MO",38.0450000,-94.1700000
"Indian Village, MO",38.9650000,-94.5880556
"Ingram Ridge, MO",36.2916667,-89.7908333
"Ink, MO",37.2580556,-91.4836111
"Innsbrook, MO",38.7691667,-91.0519444
"Ionia, MO",38.5041667,-93.3238889
"Ipley, MO",36.2947222,-90.0286111
"Ira, MO",37.8727778,-92.8494444
"Irena, MO",40.5497222,-94.3911111
"Irma, MO",36.7458333,-93.2811111
"Iron Center, MO",38.0347222,-91.4511111
"Iron Gates, MO",37.0669444,-94.5541667
"Iron Mountain, MO",37.6952778,-90.6402778
"Iron Mountain Lake, MO",37.6930556,-90.6225000
"Irondale, MO",37.8319444,-90.6780556
"Ironton, MO",37.5972222,-90.6272222
"Irwin, MO",37.5886111,-94.2852778
"Isabella, MO",36.5808333,-92.6125000
"Isadora, MO",40.5258333,-94.5175000
"Ishmael, MO",37.8061111,-91.0566667
"Island City, MO",40.1455556,-94.5708333
"Iuka Springs, MO",38.0975000,-93.9211111
"Ives, MO",36.7852778,-90.1641667
"Ivory, MO",38.5266667,-90.2769444
"Ivy, MO",37.7711111,-93.8652778
"Jack, MO",37.5761111,-91.6211111
"Jacket, MO",36.5102778,-94.1077778
"Jackson, MO",37.3822222,-89.6661111
"Jackson Mill, MO",36.8972222,-92.7733333
"Jacksonville, MO",39.5793000,-92.4195000
"Jacobs, MO",38.7063889,-90.6025000
"Jadwin, MO",37.4866667,-91.5708333
"Jaegers Shop, MO",38.4611111,-91.2991667
"Jake Prairie, MO",38.1633333,-91.5111111
"James Brothers, MO",38.1572222,-91.8752778
"Jameson, MO",40.0052778,-93.9791667
"Jamesport, MO",39.9747222,-93.8008333
"Jamestown, MO",38.7919000,-92.4841000
"Jamesville, MO",36.9600000,-93.3708333
"Jane, MO",36.5472222,-94.3050000
"Japan, MO",38.2391667,-91.3058333
"Jarvis, MO",38.2680556,-90.4941667
"Jasper, MO",37.3361111,-94.3011111
"Jaudon, MO",38.7594444,-94.5891667
"Jaywye, MO",36.4825000,-89.7011111
"Jedburgh, MO",38.5380556,-90.5819444
"Jeddo, MO",40.1002778,-91.9683333
"Jeff, MO",36.5075000,-91.3880556
"Jefferson Barracks, MO",38.5027778,-90.2802778
"Jefferson City, MO",38.5766667,-92.1733333
"Jefferson Heights, MO",38.3933333,-90.4972222
"Jeffreys, MO",38.9280556,-94.5311111
"Jeffriesburg, MO",38.4402778,-91.0880556
"Jenkins, MO",36.9681000,-93.7225000
"Jennings, MO",38.7191667,-90.2602778
"Jerico, MO",37.1747222,-92.6727778
"Jerico Springs, MO",37.6222222,-94.0083333
"Jerktail, MO",37.4241667,-92.4366667
"Jerome, MO",37.9261111,-91.9775000
"Jewett, MO",37.3802778,-90.5013889
"Joanna, MO",39.5408333,-91.6691667
"Jobe, MO",36.5836111,-91.2513889
"Johnson City, MO",38.1169444,-93.9277778
"Johnson Mill, MO",36.1855556,-90.1313889
"Johnston Ford, MO",37.3605556,-92.7958333
"Johnstown, MO",38.3100000,-94.0822222
"Jolly, MO",36.8958333,-94.0700000
"Jonca, MO",37.8372222,-90.2988889
"Jonesburg, MO",38.8533333,-91.3058333
"Joplin, MO",37.0841667,-94.5130556
"Jordan, MO",38.0213889,-93.1411111
"Josephville, MO",38.8427778,-90.7963889
"Joy, MO",37.5144444,-91.6741667
"Judd, MO",39.4230556,-93.7397222
"Judge, MO",38.4205556,-91.7805556
"Judson, MO",40.3119444,-93.2302778
"Julesburg, MO",40.4616667,-92.6058333
"Junction City, MO",37.5763889,-90.2880556
"Junction Ferry, MO",37.1900000,-91.2677778
"June, MO",36.8011111,-94.3600000
"Junland, MO",36.7686111,-90.2808333
"Kagel, MO",37.2058333,-89.6333333
"Kahoka, MO",40.4202778,-91.7194444
"Kaiser, MO",38.1336111,-92.5897222
"Kampville, MO",38.8525000,-90.5458333
"Kansas City, MO",39.0997222,-94.5783333
"Karlin, MO",37.5541667,-93.4138889
"Kaseyville, MO",39.6244444,-92.6630556
"Katy, MO",37.8283333,-94.5713889
"Kearney, MO",39.3677778,-94.3619444
"Keener Cave, MO",36.9291667,-90.5250000
"Keeners, MO",36.9230556,-90.5055556
"Keeney Corner, MO",37.0625000,-90.9125000
"Keethtown, MO",38.0430556,-92.4238889
"Kellerville, MO",39.8219444,-92.1347222
"Kelley Springs, MO",36.7152778,-94.4197222
"Kellogg, MO",39.7961111,-92.4422222
"Kelly Town, MO",36.7505556,-90.4025000
"Kelso, MO",37.1905556,-89.5494444
"Keltner, MO",36.9688889,-92.9480556
"Kendall, MO",39.7166667,-91.9169444
"Kendricktown, MO",37.1947222,-94.3097222
"Kenmoor, MO",39.6508333,-94.9394444
"Kennedy, MO",36.2644444,-89.5900000
"Kennett, MO",36.2361111,-90.0555556
"Kenoma, MO",37.4394444,-94.1972222
"Kenwood, MO",40.1955556,-92.2869444
"Keota, MO",39.7075000,-92.5763889
"Kern, MO",39.7755556,-92.7008333
"Kerr, MO",39.6783333,-94.1311111
"Kerrville, MO",39.3783333,-94.6950000
"Ketterman, MO",37.9583333,-94.2850000
"Kewanee, MO",36.6711111,-89.5738889
"Keyes Summit, MO",38.5672222,-90.4627778
"Keysville, MO",37.8752778,-91.3888889
"Keytesville, MO",39.4344444,-92.9380556
"Kidder, MO",39.7802778,-94.1022222
"Kiel, MO",38.5216667,-91.2436111
"Kieseweltter Resort, MO",37.8269444,-92.3438889
"Killarney Shores, MO",37.5950000,-90.5652778
"Kilwinning, MO",40.5269444,-92.3369444
"Kimberling City, MO",36.6333333,-93.4166667
"Kimberly, MO",39.4316667,-92.4888889
"Kimble, MO",37.5769444,-91.8411111
"Kime, MO",37.0511111,-90.3997222
"Kimmswick, MO",38.3652778,-90.3627778
"Kinder, MO",37.0158333,-90.0780556
"Kinderpost, MO",37.5730556,-91.9447222
"Kinfolks Ridge, MO",36.1241667,-89.6450000
"King City, MO",40.0513889,-94.5238889
"Kingdom City, MO",38.9527778,-91.9388889
"Kings Lake, MO",39.0683333,-90.7436111
"Kings Point, MO",37.3211111,-93.9344444
"Kingston, MO",39.6441667,-94.0383333
"Kingsville, MO",38.7430556,-94.0697222
"Kinloch, MO",38.7405556,-90.3252778
"Kinsey, MO",38.0311111,-90.3000000
"Kinzer, MO",36.7602778,-90.3338889
"Kirby, MO",39.8455556,-92.1144444
"Kirbyville, MO",36.6230556,-93.1638889
"Kirk, MO",36.2541667,-89.9708333
"Kirksville, MO",40.1947222,-92.5830556
"Kirkwood, MO",38.5833333,-90.4066667
"Kirschner, MO",39.7141667,-94.8833333
"Kissee Mills, MO",36.6836111,-93.0497222
"Kissenger, MO",39.3050000,-90.8583333
"Kissick, MO",37.1077778,-93.2572222
"Klein Ford, MO",37.8913889,-91.4538889
"Klendike, MO",37.4405556,-90.2247222
"Kliever, MO",38.6972222,-92.5033333
"Klondike, MO",37.1450000,-94.5991667
"Knights, MO",37.1402778,-94.2511111
"Knob Lick, MO",37.6752778,-90.3672222
"Knob Noster, MO",38.7666667,-93.5583333
"Knobby, MO",38.1525000,-93.0952778
"Knobtown, MO",38.9655556,-94.4288889
"Knorpp, MO",38.0883333,-90.4627778
"Knox, MO",37.4744444,-93.6102778
"Knox City, MO",40.1436111,-92.0091667
"Knoxville, MO",39.4461111,-94.0166667
"Kodiak, MO",39.9519444,-94.7569444
"Koeltztown, MO",38.3247222,-92.0419444
"Koenig, MO",38.3561111,-91.7680556
"Koester, MO",38.0222222,-90.4094444
"Kohl City, MO",38.5983333,-91.3644444
"Koshkonong, MO",36.5958333,-91.6455556
"Krakow, MO",38.4975000,-91.0455556
"Kremlin Mill, MO",36.6313889,-90.5708333
"Krueger Ford, MO",38.5047222,-91.6086111
"Kurreville, MO",37.4752778,-89.8213889
"Kyle, MO",39.6863889,-94.8322222
"La Belle, MO",40.1169444,-91.9125000
"La Due, MO",38.3125000,-93.8766667
"La Forge, MO",36.6713889,-89.5255556
"La Grange, MO",40.0427778,-91.4975000
"La Monte, MO",38.7741667,-93.4250000
"La Plata, MO",40.0233333,-92.4913889
"La Russell, MO",37.1413889,-94.0613889
"LaMotte, MO",39.5605556,-91.1794444
"LaValle, MO",36.6752778,-89.7736111
"Labadie, MO",38.5288889,-90.8500000
"Laclede, MO",39.7855556,-93.1663889
"Lacyville, MO",38.3972222,-94.4822222
"Ladd, MO",37.5863889,-92.1119444
"Laddonia, MO",39.2425000,-91.6452778
"Ladero, MO",36.9958333,-90.4700000
"Ladue, MO",38.6497222,-90.3805556
"Laflin, MO",37.2769444,-89.8883333
"Lagonda, MO",39.6569444,-92.7327778
"Laguna Beach, MO",38.1302778,-92.6513889
"Lake, MO",38.6794444,-90.5200000
"Lake Annette, MO",38.6541667,-94.5080556
"Lake City, MO",39.1102778,-94.2550000
"Lake Creek, MO",38.5113889,-93.1333333
"Lake Junction, MO",38.6055556,-90.3327778
"Lake Lafayette, MO",38.9458333,-93.9711111
"Lake Lotawana, MO",38.9230556,-94.2438889
"Lake Mykee Town, MO",38.6761111,-92.1041667
"Lake Ozark, MO",38.1986111,-92.6386111
"Lake Saint Louis, MO",38.7975000,-90.7855556
"Lake Spring, MO",37.7825000,-91.6786111
"Lake Springs, MO",37.4536111,-90.7947222
"Lake Station, MO",39.7013889,-94.8891667
"Lake Tapawingo, MO",39.0213889,-94.3113889
"Lake Waukomis, MO",39.2322222,-94.6377778
"Lake Winnebago, MO",38.8313889,-94.3583333
"Lakeland, MO",38.2219444,-92.6308333
"Lakenan, MO",39.6722222,-91.9508333
"Lakeshire, MO",38.5386111,-90.3350000
"Lakeside, MO",37.1588889,-94.4147222
"Lakeview, MO",36.6966667,-93.3686111
"Lakeview Heights, MO",38.2588889,-93.1561111
"Lamar, MO",37.4950000,-94.2763889
"Lamar Heights, MO",37.4936111,-94.2975000
"Lamb, MO",39.7411111,-91.3866667
"Lambert, MO",37.0927778,-89.5538889
"Lamine, MO",38.9466667,-92.8744444
"Lampe, MO",36.5636111,-93.4377778
"Lanagan, MO",36.6080556,-94.4475000
"Lancaster, MO",40.5337000,-92.5168000
"Lance, MO",37.5858333,-90.4530556
"Landrum, MO",37.0597222,-93.9147222
"Lanes Prairie, MO",38.1861111,-91.7288889
"Langdon, MO",40.3563889,-95.5794444
"Langston, MO",37.1811111,-93.2438889
"Lanton, MO",36.5172222,-91.8013889
"Laquey, MO",37.7702778,-92.3033333
"Laredo, MO",40.0255556,-93.4463889
"Larimore, MO",38.7733333,-90.2069444
"Larissa, MO",36.9319444,-92.5763889
"Larrabee, MO",39.2444444,-92.2333333
"Latham, MO",38.5608333,-92.6822222
"Latham Mill, MO",37.2850000,-92.3888889
"Lathrop, MO",39.5483333,-94.3297222
"Latour, MO",38.6344444,-94.1019444
"Latty, MO",37.9877778,-90.8505556
"Laubinger Ford, MO",38.3413889,-91.2452778
"Laura, MO",40.2213889,-91.6013889
"Laurie, MO",38.1991667,-92.8333333
"Lawrenceburg, MO",37.2444444,-93.6600000
"Lawrenceton, MO",37.9650000,-90.3050000
"Lawson, MO",39.4383333,-94.2038889
"Layneville, MO",37.4947222,-94.0952778
"Leachville Junction, MO",36.0463889,-90.1097222
"Lead Branch Junction, MO",37.9036111,-91.3755556
"Leadington, MO",37.8402778,-90.4916667
"Leadmine, MO",37.8366667,-92.9619444
"Leadwood, MO",37.8672222,-90.5930556
"Leann, MO",36.8127778,-93.6900000
"Leasburg, MO",38.0919444,-91.2963889
"Leawood, MO",37.0369444,-94.4966667
"Lebanon, MO",37.6805556,-92.6636111
"Lebeck, MO",37.8897222,-93.9130556
"Lebo, MO",36.5202778,-91.9086111
"Lecoma, MO",37.7761111,-91.7308333
"Lede, MO",36.6166667,-90.8166667
"Leeds, MO",39.0558333,-94.5083333
"Leemon, MO",37.4641667,-89.5883333
"Leeper, MO",37.0750000,-90.7077778
"Lees Summit, MO",38.9108333,-94.3819444
"Leesville, MO",38.3486111,-93.5444444
"Leeton, MO",38.5830556,-93.6944444
"Leibig, MO",36.5486111,-90.9513889
"Leich Ford, MO",39.5091667,-91.8338889
"Lemay, MO",38.5333333,-90.2791667
"Lemons, MO",40.4041667,-93.0472222
"Lenox, MO",37.6530556,-91.7611111
"Lentner, MO",39.7186111,-92.1477778
"Leonard, MO",39.8963889,-92.1783333
"Leopold, MO",37.2577778,-89.9263889
"Leora, MO",37.0002778,-90.0180556
"Leota, MO",36.5313889,-92.0375000
"Leslie, MO",38.4177778,-91.2319444
"Lesterville, MO",37.4538889,-90.8433333
"Leta, MO",39.3705556,-93.3283333
"Levasy, MO",39.1355556,-94.1327778
"Leverton, MO",39.9433333,-93.0583333
"Levick Mill, MO",39.5761111,-92.3463889
"Levy, MO",37.9133333,-90.9450000
"Lewis, MO",38.4352778,-93.6913889
"Lewis Mill, MO",39.2575000,-92.8527778
"Lewis and Clark Village, MO",39.5430556,-95.0525000
"Lewistown, MO",40.0861111,-91.8130556
"Lexington, MO",39.1847222,-93.8797222
"Liberal, MO",37.5580556,-94.5197222
"Liberty, MO",39.2461111,-94.4188889
"Libertyville, MO",37.7036111,-90.2880556
"Licking, MO",37.4994444,-91.8569444
"Lickskillet, MO",40.4444444,-92.7108333
"Lilbourn, MO",36.5922222,-89.6152778
"Lilly, MO",39.4700000,-94.4444444
"Limberlost, MO",37.8069444,-91.3591667
"Lincoln, MO",38.3908333,-93.3344444
"Lincoln Beach, MO",38.5463889,-90.5394444
"Linda, MO",36.4108333,-89.5469444
"Lindale, MO",38.1533333,-94.0436111
"Lindbergh, MO",38.9558333,-92.1280556
"Lindell, MO",38.1708333,-91.7916667
"Linden, MO",37.0463889,-93.1338889
"Lindley, MO",40.0819444,-93.3680556
"Lindstrew Ford, MO",37.2652778,-92.9216667
"Lingo, MO",39.7680556,-92.8202778
"Linkville, MO",39.3111111,-94.6488889
"Linn, MO",38.4858333,-91.8502778
"Linn Creek, MO",38.0380556,-92.7113889
"Linneus, MO",39.8786111,-93.1886111
"Lippstadt Community, MO",38.7580556,-91.1438889
"Lisbon, MO",39.1063889,-92.9061111
"Lisle, MO",38.5494444,-94.5944444
"Lithium, MO",37.8333333,-89.8858333
"Little Berger, MO",38.6213889,-91.3941667
"Little Blue, MO",38.9908333,-94.4122222
"Little Compton, MO",39.5683333,-93.2858333
"Little River, MO",36.8544444,-89.6633333
"Little Rock Landing, MO",38.0050000,-90.0600000
"Little Union, MO",39.8308333,-91.6541667
"Lively, MO",38.2102778,-93.1077778
"Livingston, MO",38.4077778,-93.8105556
"Livonia, MO",40.4913889,-92.7000000
"Lixville, MO",37.5769444,-89.9116667
"Local, MO",38.3736111,-90.6227778
"Lock Springs, MO",39.8488889,-93.7772222
"Lockwood, MO",37.3855556,-93.9530556
"Locust, MO",36.5636111,-92.5422222
"Locust Hill, MO",40.0258333,-92.2755556
"Lodi, MO",37.2563889,-90.4527778
"Loeffler, MO",40.1030556,-92.8330556
"Loehr, MO",38.6150000,-90.5411111
"Logan, MO",37.0144444,-93.6158333
"Lohman, MO",38.5430556,-92.3641667
"Lohmer, MO",36.6663889,-93.7086111
"Loimbach Landing, MO",37.7002778,-89.5505556
"Lois, MO",38.1480556,-91.7555556
"Loma Linda, MO",36.7933333,-90.4369444
"Lon, MO",37.1836111,-93.0591667
"London, MO",40.4450000,-95.2347222
"Lone Corner, MO",40.1155556,-95.0022222
"Lone Elm, MO",38.8250000,-92.7366667
"Lone Hill, MO",36.7011111,-90.5372222
"Lone Jack, MO",38.8708333,-94.1736111
"Lone Star, MO",39.5780556,-94.7900000
"Lone Tree, MO",38.5722222,-94.3608333
"Lonedell, MO",38.3080556,-90.8275000
"Long Beach, MO",36.7072222,-93.1297222
"Long Lane, MO",37.6113889,-92.9091667
"Longrun, MO",36.6491667,-92.7230556
"Longtown, MO",37.6697222,-89.7736111
"Longview, MO",38.9041667,-94.4044444
"Longwood, MO",38.7791500,-93.2178000
"Loose Creek, MO",38.5080556,-91.9572222
"Lopez, MO",37.6519444,-90.6463889
"Loring, MO",37.3447222,-92.5744444
"Lorwood, MO",36.6094444,-89.8558333
"Lost Creek Landing, MO",37.0222222,-90.3063889
"Loughboro, MO",37.7783333,-90.5219444
"Louisburg, MO",37.7577778,-93.1391667
"Louisiana, MO",39.4488889,-91.0513889
"Louisville, MO",39.2425000,-92.8436111
"Love Lake, MO",39.9555556,-92.4855556
"Lovejoy, MO",37.5333333,-89.5280556
"Low Gap, MO",36.8669444,-93.1047222
"Low Wassie, MO",36.9886111,-91.2580556
"Lowell, MO",39.8513889,-93.3544444
"Lowground, MO",40.3738889,-92.7352778
"Lowndes, MO",37.1488889,-90.2633333
"Lowry City, MO",38.1400000,-93.7266667
"Loyd, MO",37.4341667,-90.0725000
"Lucas, MO",38.4163889,-94.0286111
"Lucerne, MO",40.4638889,-93.2919444
"Ludlow, MO",39.6559000,-93.7038000
"Ludwig, MO",38.2350000,-90.4188889
"Luebbering, MO",38.2702778,-90.8191667
"Lulu, MO",36.6886111,-91.3050000
"Luna, MO",36.6519444,-92.3055556
"Lundy, MO",37.2830556,-92.0594444
"Lupus, MO",38.8461111,-92.4530556
"Luray, MO",40.4530556,-91.8816667
"Lusk, MO",37.0322222,-89.3816667
"Lutesville, MO",37.3002778,-89.9811111
"Lutie, MO",36.5872222,-92.6975000
"Luystown, MO",38.5580556,-91.8338889
"Lynchburg, MO",37.4950000,-92.3091000
"Lyon, MO",38.5116667,-91.1738889
"Lyons, MO",37.5658333,-92.4944444
"Mabel, MO",39.8216667,-94.1997222
"Macedonia Neighborhood, MO",38.7611111,-91.1988889
"Machens, MO",38.9030556,-90.3322222
"Mackenzie, MO",38.5791667,-90.3169444
"Mackeys, MO",36.2486111,-89.9952778
"Macks Camp, MO",38.3100000,-93.4461111
"Macks Creek, MO",37.9663889,-92.9691667
"Mackville, MO",39.0591667,-91.0600000
"Macomb, MO",37.0941667,-92.4916667
"Macon, MO",39.7422222,-92.4725000
"Maddens Richwoods, MO",38.0666667,-90.6586111
"Madison, MO",39.4736111,-92.2097222
"Madisonville, MO",39.4572222,-91.4963889
"Madry, MO",36.8694444,-93.7200000
"Magill, MO",39.8780556,-93.8897222
"Magnolia, MO",38.6391667,-93.9138889
"Mahan, MO",37.4036111,-91.8269444
"Main City, MO",38.4894444,-94.4919444
"Maines, MO",37.3797222,-92.3633333
"Maitland, MO",40.2008333,-95.0741667
"Majorville, MO",38.1819444,-93.2697222
"Malden, MO",36.5569444,-89.9663889
"Malta Bend, MO",39.1933333,-93.3627778
"Malty, MO",37.3666667,-94.2108333
"Mammoth, MO",36.5358333,-92.4005556
"Mamre, MO",39.8733333,-92.0244444
"Manchester, MO",38.5969444,-90.5091667
"Manchester School, MO",39.0930556,-94.5013889
"Mandeville, MO",39.4963889,-93.6208333
"Manes, MO",37.3800000,-92.3666667
"Manila, MO",38.5511111,-93.3361111
"Mano, MO",36.5769444,-93.6975000
"Mansfield, MO",37.1066667,-92.5805556
"Mapaville, MO",38.2488889,-90.4833333
"Maple Grove, MO",37.2536111,-94.1255556
"Maple Hill, MO",39.7016667,-94.4075000
"Maple Park, MO",39.1897222,-94.5080556
"Maples, MO",37.5841667,-91.7833333
"Maplewood, MO",38.6125000,-90.3244444
"Marais Croche, MO",38.8477778,-90.4013889
"Marble Hill, MO",37.3058333,-89.9702778
"Marceline, MO",39.7119444,-92.9480556
"March, MO",37.5225000,-93.0891667
"Marco, MO",36.7477778,-89.8080556
"Marcoot, MO",37.5544444,-91.2583333
"Marion, MO",38.6908333,-92.3661111
"Marionville, MO",37.0030556,-93.6372222
"Mark, MO",39.8880556,-91.4633333
"Marlborough, MO",38.9766667,-94.5619444
"Marling, MO",39.1338889,-91.3097222
"Marlo, MO",37.9497222,-90.1136111
"Marlow, MO",36.3897222,-89.9788889
"Marmaros, MO",36.6191667,-93.4538889
"Marquand, MO",37.4291667,-90.1680556
"Marsh Creek, MO",37.4172222,-90.4644444
"Marshall, MO",39.1230556,-93.1966667
"Marshall Junction, MO",38.9580556,-93.2063889
"Marshfield, MO",37.3386111,-92.9069444
"Marston, MO",36.5188889,-89.6125000
"Marthasville, MO",38.6283333,-91.0575000
"Martin City, MO",38.8861111,-94.5900000
"Martinsburg, MO",39.1022222,-91.6475000
"Martinstown, MO",40.4105556,-92.7702778
"Martinsville, MO",40.3386111,-94.1613889
"Marvel Cave, MO",36.6997222,-93.3366667
"Marvin, MO",38.4163889,-92.7705556
"Mary Ridge, MO",38.7208333,-90.3736111
"Maryknoll, MO",38.9352778,-90.7780556
"Maryland Heights, MO",38.7130556,-90.4297222
"Marys Home, MO",38.3055556,-92.3550000
"Maryville, MO",40.3461111,-94.8722222
"Mascot, MO",37.2627778,-93.2966667
"Masters, MO",37.6055556,-93.6613889
"Mathis, MO",37.7216667,-93.1652778
"Matkins, MO",40.1819444,-94.1633333
"Matney, MO",39.6911111,-94.7980556
"Matson, MO",38.6080556,-90.7969444
"Mattese, MO",38.4855556,-90.3486111
"Matthews, MO",36.7591667,-89.5866667
"Maud, MO",39.6333333,-92.1952778
"Maulsby, MO",36.6463889,-89.8100000
"Maupin, MO",38.2405556,-90.7838889
"Maurine, MO",38.4908333,-93.9122222
"Mauser Mill, MO",37.3127778,-91.3150000
"Max, MO",37.5747222,-91.3833333
"Maxey, MO",39.6725000,-94.8227778
"Maxville, MO",38.4363889,-90.3886111
"Maxwells Mill, MO",37.7058333,-90.9719444
"May, MO",36.7511111,-94.5219444
"Mayberry, MO",36.6900000,-90.2547222
"Mayesburg, MO",38.4025000,-94.0858333
"Mayfield, MO",37.4541667,-89.9491667
"Mayflower, MO",36.5105556,-94.0513889
"Maysville, MO",39.8891667,-94.3616667
"Mayview, MO",39.0530556,-93.8302778
"Maywood, MO",39.9541667,-91.6030556
"Mazzaville Resort, MO",37.9105556,-92.0416667
"McBaine, MO",38.8869444,-92.4463889
"McBride, MO",37.8327778,-89.8400000
"McCann Landing, MO",38.8647222,-90.5972222
"McCarty, MO",36.1177778,-89.6988889
"McClurg, MO",36.7844444,-92.7747222
"McCord Bend, MO",36.7858333,-93.5038889
"McCracken, MO",37.0175000,-93.1577778
"McCullough Ford, MO",36.6291667,-94.2527778
"McCune, MO",39.4055556,-91.2458333
"McCurry, MO",40.2075000,-94.4252778
"McDowell, MO",36.8241667,-93.7930556
"McElhany, MO",36.7880556,-94.3986111
"McElyea Place, MO",36.5008333,-90.1391667
"McFall, MO",40.1108333,-94.2230556
"McFry Ford, MO",36.7544444,-91.2594444
"McGee, MO",37.0744444,-90.1955556
"McGirk, MO",38.6111111,-92.4761111
"McGuire, MO",36.4980556,-89.9705556
"McIntosh, MO",39.4041667,-90.9733333
"McKinley, MO",37.0611111,-93.6272222
"McKittrick, MO",38.7350000,-91.4436111
"McMullin, MO",36.9541667,-89.6202778
"McNatt, MO",36.7355556,-94.3125000
"Meacham Park, MO",38.5625000,-90.4022222
"Meadors Ford, MO",36.6191667,-94.2958333
"Meadville, MO",39.7841667,-93.3019444
"Mecca, MO",39.4841667,-94.5227778
"Mechanicsville, MO",38.6925000,-90.7983333
"Medford, MO",38.6516667,-94.0069444
"Medill, MO",40.4344444,-91.7758333
"Medoc, MO",37.3072222,-94.5266667
"Mehlville, MO",38.5083333,-90.3227778
"Meinert, MO",37.3352778,-93.9905556
"Melbourne, MO",40.1416667,-93.7875000
"Melby, MO",36.6052778,-89.8786111
"Melrose, MO",38.5727778,-90.7230556
"Melton, MO",37.4283333,-91.1800000
"Melva, MO",36.5769444,-93.2119444
"Melville, MO",38.9902778,-94.5447222
"Melzo, MO",38.0100000,-90.5694444
"Memphis, MO",40.4577778,-92.1711111
"Mendon, MO",39.5897222,-93.1344444
"Mendota, MO",40.5672222,-92.8944444
"Menfro, MO",37.7769444,-89.7233333
"Menorkanut, MO",36.7038889,-90.1733333
"Mentor, MO",37.1061111,-93.1988889
"Meramec Terrace, MO",38.4158333,-90.8300000
"Mercer, MO",40.5113889,-93.5319444
"Mercyville, MO",39.9716667,-92.6430556
"Merna, MO",38.9711111,-92.6494444
"Merriam Woods, MO",36.7138889,-93.1616667
"Merritt, MO",36.8986111,-92.8691667
"Merwin, MO",38.4047222,-94.5908333
"Messler, MO",37.0661111,-89.8033333
"Meta, MO",38.3125000,-92.1658333
"Metz, MO",37.9975000,-94.4430556
"Mexico, MO",39.1697222,-91.8827778
"Meyerstown, MO",38.1613889,-92.1613889
"Miami, MO",39.3213889,-93.2277778
"Micola, MO",36.1316667,-89.7858333
"Mid City, MO",36.2336111,-89.8966667
"Middle Fabius, MO",40.4550000,-92.3186111
"Middle Grove, MO",39.3950000,-92.2702778
"Middlebrook, MO",37.6622222,-90.6469444
"Middleton, MO",39.1172222,-92.3019444
"Middletown, MO",39.1269444,-91.4138889
"Midland, MO",37.9783333,-91.3269444
"Midridge, MO",37.3352778,-91.2216667
"Midvale, MO",37.2111111,-91.7297222
"Midway, MO",38.9850000,-92.4491667
"Mike, MO",39.5963889,-92.9572222
"Milan, MO",40.2022222,-93.1250000
"Mildred, MO",36.6369444,-93.0991667
"Miles Point, MO",39.2311111,-93.6991667
"Milford, MO",37.5847222,-94.1569444
"Mill, MO",37.8894444,-90.3466667
"Mill Grove, MO",40.3091667,-93.5933333
"Mill Spring, MO",37.0619444,-90.6838889
"Millard, MO",40.1072222,-92.5458333
"Millbrook, MO",38.4991667,-92.3563889
"Millcreek, MO",37.5266667,-90.3097222
"Miller, MO",37.2147222,-93.8397222
"Millers, MO",38.8527778,-92.1411111
"Millersburg, MO",38.8986111,-92.1233333
"Millersville, MO",37.4327778,-89.7994444
"Millheim, MO",37.6175000,-89.8872222
"Millport, MO",40.2672222,-92.0930556
"Millrock Ford, MO",38.3311111,-91.3033333
"Milltown, MO",36.7775000,-90.6050000
"Millville, MO",39.4052778,-93.9177778
"Millwood, MO",39.1027778,-91.1061111
"Milo, MO",37.7561111,-94.3058333
"Milton, MO",40.2847222,-95.4169444
"Miltondale, MO",39.2583333,-94.2219444
"Minaville, MO",39.1633333,-94.4622222
"Mincy, MO",36.5641667,-93.1100000
"Mindenmines, MO",37.4713889,-94.5897222
"Mine La Motte, MO",37.6155556,-90.2897222
"Mineola, MO",38.8880556,-91.5713889
"Miner, MO",36.8913889,-89.5383333
"Mineral City, MO",37.7163889,-90.5336111
"Mineral Point, MO",37.9447222,-90.7241667
"Mineral Spring, MO",36.6705556,-93.7727778
"Mineral Springs City, MO",37.3366667,-91.9491667
"Mines, MO",40.2125000,-92.8133333
"Mingo, MO",36.9372222,-90.2000000
"Mingsville, MO",37.4516667,-92.3394444
"Minimum, MO",37.3761111,-90.5875000
"Minke, MO",38.5386111,-90.5605556
"Minnie, MO",39.1888889,-92.4566667
"Minnith, MO",37.7980556,-90.0500000
"Mint Hill, MO",38.5491667,-91.7469444
"Mirabile, MO",39.6161111,-94.1416667
"Miramiguoa Park, MO",38.2388889,-91.0686111
"Missionary Acres, MO",37.2041667,-90.4208333
"Missouri City, MO",39.2408333,-94.2877778
"Mitchell, MO",37.8466667,-90.5797222
"Mitchells Corner, MO",37.4088889,-92.0719444
"Mitchellville, MO",40.2119444,-94.0713889
"Moark, MO",36.3825000,-89.9888889
"Moberly, MO",39.4183333,-92.4380556
"Moccasin Springs, MO",37.4516667,-89.4583333
"Mock Corner, MO",39.5336111,-94.8908333
"Modena, MO",40.3002778,-93.6802778
"Mohawk Corner, MO",37.7577778,-93.3052778
"Mokane, MO",38.6750000,-91.8741667
"Moline Acres, MO",38.7469444,-90.2400000
"Molino, MO",39.3016667,-91.8780556
"Monarch, MO",38.6433333,-90.6713889
"Monark Springs, MO",36.8644444,-94.2913889
"Monastery, MO",40.2263889,-94.7177778
"Monday, MO",38.2166667,-91.0211111
"Monegaw Springs, MO",38.0291667,-93.8388889
"Monett, MO",36.9288889,-93.9275000
"Monkey Run, MO",39.7066000,-91.3802000
"Monroe City, MO",39.6536111,-91.7344444
"Montague, MO",36.9280556,-93.3277778
"Montague Hill, MO",39.1283333,-93.1522222
"Montauk, MO",37.4477778,-91.6955556
"Monteith Junction, MO",38.2141667,-94.3666667
"Monterey, MO",37.5719444,-90.8530556
"Montevallo, MO",37.7261111,-94.1080556
"Montgomery City, MO",38.9775000,-91.5047222
"Monticello, MO",40.1183333,-91.7119444
"Montier, MO",36.9869444,-91.5752778
"Montreal, MO",37.9900000,-92.5200000
"Montrose, MO",38.2577778,-93.9811111
"Montserrat, MO",38.7747222,-93.6216667
"Moody, MO",36.5294444,-91.9891667
"Mooresville, MO",39.7452778,-93.7175000
"Moors, MO",39.7194444,-94.3919444
"Mora, MO",38.5236111,-93.2155556
"Morehouse, MO",36.8472222,-89.6852778
"Morgan, MO",37.5102778,-92.6763889
"Morgan Heights, MO",37.1658333,-94.3550000
"Morley, MO",37.0436111,-89.6102778
"Morocco, MO",36.7366667,-90.3600000
"Morrison, MO",38.6727778,-91.6361111
"Morrisville, MO",37.4811111,-93.4272222
"Morschels, MO",38.5394444,-90.5358333
"Morse Mill, MO",38.2766667,-90.6530556
"Morton, MO",39.3194444,-93.8605556
"Mosby, MO",39.3155556,-94.2936111
"Moscow Mills, MO",38.9477778,-90.9180556
"Moselle, MO",38.3866667,-90.8977778
"Mosher, MO",37.9711111,-90.0766667
"Motley, MO",37.0602778,-94.1858333
"Mounce, MO",37.6661111,-91.3869444
"Mound City, MO",40.1311111,-95.2313889
"Moundville, MO",37.7641667,-94.4519444
"Mount Airy, MO",39.3769444,-92.6347222
"Mount Freedom, MO",38.1933333,-90.6472222
"Mount Hope, MO",38.2983333,-90.8736111
"Mount Leonard, MO",39.1241667,-93.3927778
"Mount Moriah, MO",40.3297222,-93.7944444
"Mount Olive, MO",38.9005556,-93.6947222
"Mount Pleasant, MO",40.2272222,-94.5008333
"Mount Pleasant Ford, MO",38.1683333,-91.5438889
"Mount Shira, MO",36.5816667,-94.4641667
"Mount Sterling, MO",38.4650000,-91.6269444
"Mount Vernon, MO",37.0986000,-93.8185000
"Mount Vernon, MO",37.0986000,-93.8185000
"Mount Waller, MO",40.4705556,-94.3752778
"Mount Washington, MO",39.0994444,-94.4661111
"Mount Zion, MO",37.0133333,-92.6608333
"Mount Zion Community, MO",39.7433333,-91.4527778
"Mountain Dale, MO",37.1888889,-92.7538889
"Mountain Grove, MO",37.1305556,-92.2633333
"Mountain Ridge, MO",38.5500000,-90.5408333
"Mountain View, MO",36.9952778,-91.7036111
"Mud Town, MO",38.0194444,-90.7394444
"Mulberry, MO",38.2905556,-94.5644444
"Mumford, MO",37.1877778,-93.2005556
"Mundy Landing, MO",39.5516667,-91.1608333
"Munger, MO",37.5975000,-90.7963889
"Mungers, MO",39.7555556,-91.4022222
"Munsell, MO",37.0980556,-91.3275000
"Munsons, MO",38.2513889,-90.4261111
"Murphy, MO",38.4902778,-90.4869444
"Murry, MO",39.0427778,-92.1766667
"Musicks Ferry, MO",38.8613889,-90.3383333
"Musselfork, MO",39.5513889,-92.8752778
"Myrick, MO",39.1755556,-93.9027778
"Myrtle, MO",36.5086111,-91.2669444
"Mystic, MO",40.1563889,-92.9316667
"Nagle, MO",37.1666667,-91.8191667
"Nance, MO",36.6108333,-92.8000000
"Naomi, MO",39.9263889,-91.6955556
"Napier, MO",40.0488889,-95.2575000
"Napoleon, MO",39.1313889,-94.0705556
"Napton, MO",39.0527778,-93.0836111
"Nash, MO",37.2380556,-89.6194444
"Nashua, MO",39.3005556,-94.5797222
"Nashville, MO",37.3744444,-94.4905556
"Nassau Junction, MO",37.8202778,-94.3216667
"Natural Bridge Junction, MO",38.7575000,-90.4330556
"Nauvoo, MO",36.5038889,-93.5119444
"Naylor, MO",36.5752778,-90.6038889
"Nebo, MO",37.5711111,-92.3350000
"Neck City, MO",37.2569444,-94.4441667
"Needmore, MO",37.6183333,-93.7069444
"Neelys Landing, MO",37.5022222,-89.5019444
"Neelyville, MO",36.5616667,-90.5061111
"Neeper, MO",40.3325000,-91.7913889
"Neier, MO",38.3911111,-91.1102778
"Nelson, MO",38.9947222,-93.0325000
"Nelsonville, MO",39.9261111,-91.7963889
"Nemo, MO",37.8766667,-93.2616667
"Neola, MO",37.5055556,-93.8694444
"Neongwah, MO",38.0327778,-92.7925000
"Neosho, MO",36.8688889,-94.3677778
"Nesbit, MO",36.0902778,-90.1347222
"Netherlands, MO",36.2991667,-89.7511111
"Nettleton, MO",39.7580556,-93.9044444
"Nevada, MO",37.8391667,-94.3544444
"New Bloomfield, MO",38.7202778,-92.0911111
"New Boston, MO",39.9519444,-92.8594444
"New Bourbon, MO",37.9497222,-90.0208333
"New Cambria, MO",39.7752778,-92.7502778
"New Castle, MO",38.5705556,-93.6363889
"New Court Village, MO",40.1066667,-91.8130556
"New Florence, MO",38.9102778,-91.4480556
"New Frankfort, MO",39.3055556,-93.0058333
"New Franklin, MO",39.0172222,-92.7372222
"New Garden, MO",39.3230556,-94.1658333
"New Garver, MO",36.4011111,-89.8177778
"New Grove, MO",37.2447222,-92.6633333
"New Hamburg, MO",37.1263889,-89.5933333
"New Hampton, MO",40.2636111,-94.1958333
"New Harmony, MO",39.2941667,-91.3747222
"New Hartford, MO",39.1994444,-91.2700000
"New Haven, MO",38.6083333,-91.2188889
"New Home, MO",38.1436111,-94.4722222
"New Hope, MO",39.1366667,-90.8641667
"New Kirk, MO",37.2875000,-93.8300000
"New Lebanon, MO",38.7638889,-92.9391667
"New Liberty, MO",36.8644444,-91.2805556
"New London, MO",39.5852778,-91.4008333
"New Madrid, MO",36.5863889,-89.5277778
"New Market, MO",39.5025000,-94.7991667
"New Melle, MO",38.7097222,-90.8794444
"New Offenburg, MO",37.9086111,-90.1972222
"New Oyer, MO",37.9530556,-93.8719444
"New Piper, MO",38.3577778,-94.0136111
"New Point, MO",40.0547222,-95.0788889
"New Santa Fe, MO",38.9066667,-94.6044444
"New Survey, MO",36.1033333,-89.9138889
"New Truxton, MO",38.9783333,-91.2377778
"New Wells, MO",37.5561111,-89.6244444
"New Woollam, MO",38.3769444,-91.5727778
"New York, MO",39.6852778,-93.9266667
"Newark, MO",39.9930556,-91.9727778
"Newburg, MO",37.8661000,-91.9135000
"Newcomer, MO",39.5113889,-93.0894444
"Newhall, MO",39.5772222,-93.0319444
"Newland, MO",38.8094444,-93.1730556
"Newmarket, MO",39.7597222,-91.7319444
"Newport, MO",37.5277778,-94.1041667
"Newtonia, MO",36.8766667,-94.1852778
"Newtown, MO",40.3763889,-93.3347222
"Niangua, MO",37.3872222,-92.8325000
"Niangua Junction, MO",37.3966667,-92.8447222
"Niantic, MO",39.9655556,-93.4566667
"Nichols, MO",37.2177778,-93.3619444
"Nichols Grove, MO",40.0194444,-95.0847222
"Nickellton, MO",39.9266667,-92.3072222
"Nickelville, MO",37.2400000,-93.7005556
"Nile, MO",37.3600000,-91.6658333
"Nind, MO",40.0705556,-92.7677778
"Nineveh, MO",40.2741667,-92.6944444
"Ninnescah Park, MO",38.1883333,-93.6147222
"Nishnabotna, MO",40.2958333,-95.5083333
"Nixa, MO",37.0433333,-93.2941667
"Noble, MO",36.7475000,-92.5697222
"Nodaway, MO",39.9094444,-94.9675000
"Noel, MO",36.5455556,-94.4850000
"Nogo, MO",37.2527778,-93.1652778
"Nona, MO",38.5661111,-90.9402778
"Norborne, MO",39.3025000,-93.6772222
"Normandy, MO",38.7208333,-90.2972222
"Norris, MO",38.5205556,-93.8952778
"North Fork, MO",39.6111111,-91.9188889
"North Jefferson, MO",38.6058333,-92.1636111
"North Kansas City, MO",39.1300000,-94.5619444
"North Lenox, MO",37.6647222,-91.7563889
"North Lilbourn, MO",36.6016667,-89.6200000
"North Moor, MO",39.1925000,-94.6127778
"North Patton, MO",37.5302778,-90.0150000
"North River, MO",39.8438889,-91.4894444
"North Salem, MO",40.0313889,-92.9883333
"North Wardell, MO",36.3586111,-89.8144444
"Northcut, MO",38.1225000,-90.9661111
"Northern Heights, MO",39.2133333,-94.6022222
"Northmoor, MO",39.1830556,-94.5925000
"Northview, MO",37.2866667,-92.9963889
"Northwoods, MO",38.7041667,-90.2833333
"Northwye, MO",37.9750000,-91.7555556
"Norton, MO",39.1961111,-93.1347222
"Norville, MO",39.7544444,-93.4722222
"Norwalk, MO",36.6269444,-93.5333333
"Norwood, MO",37.1083333,-92.4147222
"Norwood Court, MO",38.7183333,-90.2922222
"Noser Mill, MO",38.3930556,-91.1922222
"Not, MO",36.8952778,-91.5802778
"Notch, MO",36.6761111,-93.3383333
"Nottinghill, MO",36.6683333,-92.5744444
"Novelty, MO",40.0125000,-92.2080556
"Novinger, MO",40.2319444,-92.7083333
"Noxall, MO",36.7225000,-89.5777778
"Number Eight, MO",39.7316667,-92.5611111
"Nyhart, MO",38.2041667,-94.4333333
"Nyssa, MO",36.6397222,-90.2425000
"O'Fallon, MO",38.8105556,-90.6997222
