name,lat,lon
"A Country Place, NJ",40.0883333,-74.2291667
"Abertown, NJ",41.2508333,-74.7850000
"Ablett Village, NJ",39.9486111,-75.1027778
"Absecon, NJ",39.4283333,-74.4961111
"Absecon Highlands, NJ",39.4466667,-74.4744444
"Ackermans Mills, NJ",41.0272222,-74.1691667
"Ackerson, NJ",41.0822222,-74.6683333
"Ackors Corner, NJ",40.3347222,-74.8494444
"Acton, NJ",39.5841667,-75.4136111
"Adams, NJ",40.4508333,-74.4936111
"Adamston, NJ",40.0452778,-74.0955556
"Adelphia, NJ",40.2180556,-74.2566667
"Afton, NJ",40.7725000,-74.3900000
"Albion, NJ",39.7786111,-74.9552778
"Albion Place, NJ",40.8911111,-74.1761111
"Aldene, NJ",40.6633333,-74.2733333
"Aldine, NJ",39.5688889,-75.2752778
"Alexauken, NJ",40.3894444,-74.9394444
"Algers Mills, NJ",40.1652778,-74.0750000
"Allaire, NJ",40.1583333,-74.1258333
"Allamuchy, NJ",40.9216667,-74.8105556
"Allendale, NJ",41.0413889,-74.1294444
"Allenhurst, NJ",40.2361111,-74.0011111
"Allens Corner, NJ",40.5466667,-74.9388889
"Allens Mills, NJ",40.7400000,-75.1188889
"Allentown, NJ",40.1777778,-74.5838889
"Allenwood, NJ",40.1413889,-74.1002778
"Allerton, NJ",40.6111111,-74.8788889
"Alliance, NJ",39.5186111,-75.0922222
"Alloway, NJ",39.5608333,-75.3627778
"Alloway Junction, NJ",39.5813889,-75.3633333
"Alluvium, NJ",39.8350000,-74.9422222
"Allwood, NJ",40.8425000,-74.1591667
"Almonesson, NJ",39.8188889,-75.0988889
"Alpha, NJ",40.6669444,-75.1577778
"Alphano, NJ",40.9022222,-74.8619444
"Alpine, NJ",40.9558333,-73.9316667
"Altura, NJ",40.2675000,-74.8166667
"Alvater Corner, NJ",40.5658333,-74.9702778
"Ampere, NJ",40.7666667,-74.1952778
"Amsterdam, NJ",40.5875000,-75.1588889
"Amwell, NJ",40.4313889,-74.7525000
"Anchorage, NJ",40.0013889,-74.1430556
"Ancora, NJ",39.6944444,-74.8416667
"Anderson, NJ",40.7705556,-74.9194444
"Andover, NJ",40.9858333,-74.7425000
"Andover Junction, NJ",40.9969444,-74.7461111
"Andrews, NJ",39.7238889,-74.9594444
"Anglesea, NJ",39.0186111,-74.7952778
"Annandale, NJ",40.6408333,-74.8816667
"Anthony, NJ",40.7483333,-74.8816667
"Applegarth, NJ",40.2783333,-74.4730556
"Apshawa, NJ",41.0175000,-74.3633333
"Archers Corner, NJ",40.0883333,-74.4558333
"Archertown, NJ",40.0652778,-74.5002778
"Arcola, NJ",40.9258333,-74.0897222
"Ardena, NJ",40.2113889,-74.2330556
"Ardmore Estates, NJ",40.2061111,-74.2250000
"Arlington, NJ",40.7775000,-74.1386111
"Armstrong, NJ",41.1494444,-74.6902778
"Arneys Mount, NJ",40.0097222,-74.6969444
"Arneytown, NJ",40.1013889,-74.5663889
"Arrowhead Village, NJ",40.0763889,-74.1041667
"Asbury, NJ",40.6958333,-75.0105556
"Asbury Park, NJ",40.2202778,-74.0125000
"Aserdaten, NJ",39.8563889,-74.3383333
"Ashland, NJ",39.8630556,-75.0063889
"Atco, NJ",39.7697222,-74.8877778
"Athenia, NJ",40.8666667,-74.1547222
"Atlantic City, NJ",39.3641667,-74.4233333
"Atlantic Highlands, NJ",40.4077778,-74.0347222
"Atsion, NJ",39.7425000,-74.7263889
"Auburn, NJ",39.7108333,-75.3680556
"Audubon, NJ",39.8908333,-75.0733333
"Audubon Park, NJ",39.8963889,-75.0880556
"Augusta, NJ",41.1288889,-74.7286111
"Aura, NJ",39.6727778,-75.1377778
"Avalon, NJ",39.1011111,-74.7180556
"Avenel, NJ",40.5802778,-74.2855556
"Avis Mills, NJ",39.6658333,-75.2486111
"Avon Park, NJ",40.5930556,-74.4000000
"Avon-by-the-Sea, NJ",40.1922222,-74.0163889
"Avondale, NJ",40.8147222,-74.1505556
"Awosting, NJ",41.1544444,-74.3369444
"Babbitt, NJ",40.8097222,-74.0202778
"Baileys Corner, NJ",40.1527778,-74.0725000
"Baileytown, NJ",39.3194444,-75.0733333
"Bairdsville, NJ",40.2419444,-74.3841667
"Bakersville, NJ",40.2747222,-74.7066667
"Baldwins Corner, NJ",40.3138889,-74.7863889
"Balesville, NJ",41.1041667,-74.7600000
"Ballingers Mill, NJ",39.5763889,-75.2694444
"Baltusrol, NJ",40.7244444,-74.3283333
"Bamberry Estates, NJ",39.9936111,-74.2180556
"Baptistown, NJ",40.5216667,-75.0063889
"Barber, NJ",40.5305556,-74.2583333
"Barbertown, NJ",40.4852778,-75.0275000
"Barclay Farm, NJ",39.9058333,-74.9941667
"Bargaintown, NJ",39.3625000,-74.5813889
"Barnard, NJ",39.6208333,-74.7847222
"Barnegat, NJ",39.7530556,-74.2233333
"Barnegat Bay, NJ",39.7580556,-74.1919444
"Barnegat Bay Estates, NJ",39.9708333,-74.1300000
"Barnegat Beach, NJ",39.7786111,-74.1911111
"Barnegat Estates, NJ",39.7611111,-74.2594444
"Barnegat Light, NJ",39.7575000,-74.1066667
"Barnegat Pines, NJ",39.8961111,-74.2102778
"Barnsboro, NJ",39.7616667,-75.1602778
"Barrington, NJ",39.8647222,-75.0555556
"Bartles Corners, NJ",40.5366667,-74.8577778
"Bartley, NJ",40.8225000,-74.7186111
"Basking Ridge, NJ",40.7061111,-74.5497222
"Bass River, NJ",39.5925000,-74.4430556
"Bates Mill, NJ",39.7069444,-74.8655556
"Batsto, NJ",39.6416667,-74.6480556
"Bay Harbor Estates, NJ",40.0208333,-74.1333333
"Bay Head, NJ",40.0716667,-74.0547222
"Bay Head Junction, NJ",40.0777778,-74.0463889
"Bay Shore, NJ",39.9508333,-74.1136111
"Bay Side, NJ",39.3825000,-75.4069444
"Bayonne, NJ",40.6686111,-74.1147222
"Bayside Beach, NJ",39.8202778,-74.1811111
"Bayview Harbors, NJ",39.9636111,-74.1208333
"Bayville, NJ",39.9091667,-74.1552778
"Bayway, NJ",40.6388889,-74.2127778
"Baywood, NJ",40.0227778,-74.0894444
"Beach Glen, NJ",40.9297222,-74.4866667
"Beach Haven, NJ",39.5591667,-74.2436111
"Beach Haven Crest, NJ",39.6125000,-74.2033333
"Beach Haven Gardens, NJ",39.5822222,-74.2275000
"Beach Haven Heights, NJ",39.5344444,-74.2608333
"Beach Haven Park, NJ",39.5975000,-74.2130556
"Beach Haven Terrace, NJ",39.5861111,-74.2238889
"Beach Haven West, NJ",39.6697222,-74.2322222
"Beach View, NJ",39.7247222,-74.2430556
"Beachwood, NJ",39.9388889,-74.1933333
"Beals Mill, NJ",39.5286111,-75.2661111
"Bear Tavern, NJ",40.3088889,-74.8488889
"Beattyestown, NJ",40.8191667,-74.8555556
"Beattystown, NJ",40.8130556,-74.8433333
"Beaufort, NJ",40.8177778,-74.3300000
"Beaver Dam, NJ",39.6502778,-75.4925000
"Beaver Lake, NJ",41.1075000,-74.5538889
"Beaver Run, NJ",41.1533333,-74.6200000
"Beaverville, NJ",39.9016667,-74.7422222
"Beckett, NJ",39.7538889,-75.3577778
"Bedminster, NJ",40.6805556,-74.6458333
"Beemerville, NJ",41.2105556,-74.6919444
"Beesleys Point, NJ",39.2766667,-74.6366667
"Belcoville, NJ",39.4372222,-74.7363889
"Belford, NJ",40.4258333,-74.0872222
"Bellcrest Park, NJ",39.9750000,-74.1375000
"Belle Mead, NJ",40.4666667,-74.6611111
"Belleplain, NJ",39.2686111,-74.8669444
"Belleville, NJ",40.7936111,-74.1505556
"Bellmawr, NJ",39.8675000,-75.0950000
"Bells Crossing, NJ",40.7044444,-74.9436111
"Bells Lake, NJ",39.7536111,-75.0491667
"Bellview, NJ",40.0208333,-74.9950000
"Belmar, NJ",40.1783333,-74.0222222
"Belvidere, NJ",40.8297222,-75.0780556
"Benders Corner, NJ",40.6802778,-74.4116667
"Bennett, NJ",38.9833333,-74.9016667
"Bennetts Mill, NJ",39.4244444,-74.9116667
"Bennetts Mills, NJ",40.1288889,-74.2755556
"Bennys Landing, NJ",39.0672222,-74.8130556
"Berdines Corners, NJ",40.4672222,-74.4538889
"Bergen, NJ",40.7291667,-74.0661111
"Bergen Mills, NJ",40.2627778,-74.4197222
"Bergen Point, NJ",40.6475000,-74.1416667
"Bergenfield, NJ",40.9275000,-73.9977778
"Bergerville, NJ",40.2019444,-74.2619444
"Berkeley Heights, NJ",40.6833333,-74.4430556
"Berkeley Shores, NJ",39.9125000,-74.1333333
"Berkshire Valley, NJ",40.9300000,-74.5911111
"Berlin, NJ",39.7911111,-74.9294444
"Berlin Heights, NJ",39.8130556,-74.8908333
"Bernardsville, NJ",40.7186111,-74.5697222
"Berryland, NJ",39.6111111,-74.9061111
"Bevans, NJ",41.1963889,-74.8511111
"Beverly, NJ",40.0652778,-74.9194444
"Biddles Landing, NJ",39.6755556,-75.4658333
"Big Oak, NJ",39.4861111,-75.2088889
"Big Springs, NJ",41.1277778,-74.6222222
"Billingsport, NJ",39.8483333,-75.2422222
"Birch Hills, NJ",40.8094444,-74.4319444
"Birchfield, NJ",39.9361111,-74.9250000
"Birchwood Lakes, NJ",39.8661111,-74.8127778
"Birmingham, NJ",39.9758333,-74.7105556
"Bishop Wood, NJ",39.7541667,-75.0144444
"Bishops, NJ",39.7852778,-74.9066667
"Bissell, NJ",40.6666667,-74.7922222
"Bivalve, NJ",39.2341667,-75.0341667
"Black Horse, NJ",40.4180556,-74.5025000
"Blackwells Mills, NJ",40.4755556,-74.5716667
"Blackwood, NJ",39.8022222,-75.0644444
"Blackwood Terrace, NJ",39.8050000,-75.0861111
"Blairstown, NJ",40.9827778,-74.9608333
"Blansingburg, NJ",40.1366667,-74.0575000
"Blawenburg, NJ",40.4075000,-74.7030556
"Blenheim, NJ",39.8091667,-75.0777778
"Bloomfield, NJ",40.8066667,-74.1858333
"Bloomingdale, NJ",41.0019444,-74.3269444
"Bloomsbury, NJ",40.6538889,-75.0869444
"Blue Anchor, NJ",39.6894444,-74.8830556
"Blue Bell, NJ",39.5719444,-74.9744444
"Bogota, NJ",40.8761111,-74.0302778
"Bon Air, NJ",39.9691667,-75.0233333
"Bonaparte Landing, NJ",40.9536111,-74.6400000
"Bonhamtown, NJ",40.5233333,-74.3580556
"Boonton, NJ",40.9025000,-74.4075000
"Bordentown, NJ",40.1461111,-74.7122222
"Borton Landing, NJ",40.0027778,-74.8888889
"Bossert Estates, NJ",40.1472222,-74.6916667
"Bougher, NJ",39.9933333,-74.8800000
"Bound Brook, NJ",40.5683333,-74.5388889
"Bound Brook Junction, NJ",40.5588889,-74.5658333
"Bowentown, NJ",39.4244444,-75.2766667
"Bowman Manor, NJ",39.0161111,-74.9344444
"Bowne, NJ",40.4197222,-74.9130556
"Boynton Beach, NJ",40.5472222,-74.2550000
"Bozuretown, NJ",39.8266667,-74.6894444
"Braddock, NJ",39.7008333,-74.8900000
"Braddocks Mill, NJ",39.8222222,-74.8491667
"Bradevelt, NJ",40.3344444,-74.2397222
"Bradley Beach, NJ",40.2022222,-74.0125000
"Bradley Gardens, NJ",40.5627778,-74.6550000
"Bradley Park, NJ",40.2050000,-74.0247222
"Brady Park, NJ",40.9605556,-74.6188889
"Braeburn Heights, NJ",40.2566667,-74.7686111
"Brainards, NJ",40.7736111,-75.1700000
"Branchburg Park, NJ",40.5722222,-74.6852778
"Branchport, NJ",40.3088889,-73.9983333
"Branchville, NJ",41.1463889,-74.7527778
"Branchville Junction, NJ",41.0736111,-74.7016667
"Brant Beach, NJ",39.6208333,-74.1975000
"Brantwood, NJ",40.7291667,-74.3402778
"Brass Castle, NJ",40.7647222,-75.0113889
"Breton Woods, NJ",40.0455556,-74.1091667
"Briar Manor, NJ",40.2116667,-74.6588889
"Bricksboro, NJ",39.3019444,-74.9788889
"Bricktown, NJ",40.0591667,-74.1375000
"Bridgeboro, NJ",40.0219444,-74.9327778
"Bridgepoint, NJ",40.4325000,-74.6488889
"Bridgeport, NJ",39.8008333,-75.3477778
"Bridgeton, NJ",39.4272222,-75.2344444
"Bridgeton Junction, NJ",39.4527778,-75.2130556
"Bridgeville, NJ",40.8366667,-75.0263889
"Brielle, NJ",40.1077778,-74.0569444
"Brigantine, NJ",39.4100000,-74.3650000
"Brighton, NJ",40.9850000,-74.7638889
"Brighton Beach, NJ",39.6063889,-74.2083333
"Brimfield Crossing, NJ",39.5708333,-74.9080556
"Brindletown, NJ",40.0472222,-74.5055556
"Broad Lane, NJ",39.6702778,-74.9266667
"Broadway, NJ",40.7319444,-75.0519444
"Brook Valley, NJ",40.9644444,-74.3683333
"Brookdale, NJ",40.8336111,-74.1833333
"Brookfield, NJ",39.8825000,-75.0161111
"Brooklawn, NJ",39.8780556,-75.1211111
"Brookside, NJ",40.7941667,-74.5683333
"Brookside Heights, NJ",39.9616667,-74.1602778
"Brookview, NJ",40.4205556,-74.4744444
"Brookville, NJ",40.4005556,-74.9663889
"Brotmanville, NJ",39.5205556,-75.0827778
"Brownings, NJ",40.9525000,-75.1136111
"Browns, NJ",41.1566667,-74.3486111
"Browns Mills, NJ",39.9725000,-74.5833333
"Browns Mills Junction, NJ",39.9483333,-74.5902778
"Brownsville, NJ",39.8119444,-75.0188889
"Browntown, NJ",40.4016667,-74.3069444
"Brownville, NJ",40.4005556,-74.2955556
"Brunswick Gardens, NJ",40.3905556,-74.3366667
"Buck Landing, NJ",38.9491667,-74.9125000
"Buckingham, NJ",39.9311111,-74.4477778
"Buckingham Park, NJ",40.0436111,-74.8861111
"Buckingham Village, NJ",39.7602778,-75.1375000
"Bucks Mill, NJ",40.2844444,-74.1980556
"Buckshutem, NJ",39.3188889,-75.0130556
"Budd Lake, NJ",40.8711111,-74.7344444
"Buddtown, NJ",39.9391667,-74.7033333
"Buena, NJ",39.5136111,-74.9250000
"Bullock, NJ",39.8816667,-74.4500000
"Bulltown, NJ",39.6380556,-74.5944444
"Bunnvale, NJ",40.7016667,-74.8836111
"Burkesville, NJ",40.1605556,-74.4213889
"Burleigh, NJ",39.0455556,-74.8519444
"Burlington, NJ",40.0711111,-74.8652778
"Burlington Heights, NJ",40.2716667,-74.2361111
"Burnt Mills, NJ",40.6358333,-74.6872222
"Burrs Mill, NJ",39.8883333,-74.6502778
"Bustleton, NJ",40.0880556,-74.7830556
"Butler, NJ",41.0036111,-74.3419444
"Butler Park, NJ",40.7516667,-74.9313889
"Butlers Place, NJ",39.8541667,-74.5083333
"Butterworth Farms, NJ",40.8213889,-74.5236111
"Buttzville, NJ",40.8322222,-75.0066667
"Byram, NJ",40.4236111,-75.0600000
"Byram Cove, NJ",40.9555556,-74.6602778
"Caldwell, NJ",40.8397222,-74.2769444
"Califon, NJ",40.7194444,-74.8361111
"Calno, NJ",41.0561111,-75.0055556
"Cambridge, NJ",40.0288889,-74.9730556
"Camden, NJ",39.9258333,-75.1200000
"Camelot, NJ",39.9605556,-74.2152778
"Camp Columbus, NJ",39.8958333,-74.3216667
"Camp Osborne, NJ",40.0083333,-74.0591667
"Campbells Corner, NJ",39.4858333,-75.3191667
"Campgaw, NJ",41.0238889,-74.2013889
"Candlewood, NJ",40.1500000,-74.2138889
"Candlewyck, NJ",39.8919444,-74.9458333
"Canton, NJ",39.4708333,-75.4152778
"Cape May, NJ",38.9350000,-74.9063889
"Cape May Court House, NJ",39.0825000,-74.8241667
"Cape May Point, NJ",38.9372222,-74.9697222
"Capitol Hill, NJ",40.0552778,-74.9038889
"Cardiff, NJ",39.4100000,-74.5875000
"Carey, NJ",40.8555556,-74.6788889
"Carlls Corner, NJ",39.4627778,-75.2055556
"Carlstadt, NJ",40.8402778,-74.0911111
"Carlton Hill, NJ",40.8463889,-74.1111111
"Carmantown, NJ",39.5091667,-74.6944444
"Carmel, NJ",39.4341667,-75.1216667
"Carmerville, NJ",40.1769444,-74.1294444
"Carneys Point, NJ",39.7111111,-75.4705556
"Carpentersville, NJ",40.6358333,-75.1888889
"Carrs Corner, NJ",40.2330556,-74.3708333
"Carrs Tavern, NJ",40.1713889,-74.4219444
"Carsons Mills, NJ",40.2169444,-74.5602778
"Carteret, NJ",40.5772222,-74.2286111
"Cassville, NJ",40.1044444,-74.3869444
"Catawba, NJ",39.4069444,-74.7144444
"Cecil, NJ",39.6483333,-74.9475000
"Cedar Beach, NJ",39.8733333,-74.1497222
"Cedar Bridge, NJ",40.0558333,-74.1286111
"Cedar Bridge Manor, NJ",40.0561111,-74.1300000
"Cedar Brook, NJ",39.7152778,-74.9011111
"Cedar Crest, NJ",39.9025000,-74.3225000
"Cedar Crest Manor, NJ",39.6772222,-75.4761111
"Cedar Glen Lakes, NJ",39.9522222,-74.4002778
"Cedar Glen West, NJ",40.0419444,-74.2930556
"Cedar Grove, NJ",40.8516667,-74.2294444
"Cedar Heights, NJ",40.6605556,-74.8772222
"Cedar Knolls, NJ",40.8219444,-74.4491667
"Cedar Lake, NJ",39.5836111,-74.9005556
"Cedar Run, NJ",39.6847222,-74.2675000
"Cedar Springs, NJ",39.2452778,-74.7072222
"Cedarville, NJ",39.3325000,-75.2000000
"Cedarwood Park, NJ",40.0497222,-74.1305556
"Centerton, NJ",39.5252778,-75.1680556
"Centerville, NJ",40.5383333,-74.7544444
"Central Park, NJ",39.6597222,-75.5150000
"Centre City, NJ",39.7758333,-75.1811111
"Centre Grove, NJ",39.3563889,-75.1222222
"Chadwick, NJ",39.9930556,-74.0641667
"Chadwick Beach, NJ",39.9827778,-74.0638889
"Chairville, NJ",39.8983333,-74.7894444
"Chambers Corners, NJ",40.0177778,-74.7330556
"Changewater, NJ",40.7380556,-74.9444444
"Chapel Hill, NJ",40.3972222,-74.0708333
"Charcoal Landing, NJ",39.6416667,-74.5122222
"Charleston, NJ",40.0388889,-74.8916667
"Charleston East, NJ",39.8894444,-74.9788889
"Charleston Springs, NJ",40.2005556,-74.3736111
"Charlestown, NJ",40.6891667,-74.9727778
"Charlotteburg, NJ",41.0302778,-74.4241667
"Chatham, NJ",40.7408333,-74.3841667
"Chatsworth, NJ",39.8175000,-74.5352778
"Cheesequake, NJ",40.4247222,-74.2880556
"Chelsea Heights, NJ",39.3555556,-74.4630556
"Cherry Downs, NJ",39.8891667,-74.9561111
"Cherry Hill, NJ",39.9347222,-75.0311111
"Cherry Hill Estates, NJ",39.9333333,-75.0194444
"Cherry Hill Mall, NJ",39.9358333,-75.0094444
"Cherry Quay, NJ",40.0263889,-74.1233333
"Cherry Valley, NJ",39.9369444,-74.9911111
"Cherryville, NJ",40.5611111,-74.9036111
"Cherrywood, NJ",39.7983333,-75.0255556
"Chesilhurst, NJ",39.7322222,-74.8813889
"Chester, NJ",40.7841667,-74.6972222
"Chesterfield, NJ",40.1150000,-74.6397222
"Chestnut Estates, NJ",40.0538889,-74.2147222
"Chestnut Ridge, NJ",41.0569444,-74.0680556
"Chewalla Park, NJ",40.2313889,-74.7127778
"Chews, NJ",39.8333333,-75.0633333
"Chimney Rock, NJ",40.5797222,-74.5572222
"Christopher Mills, NJ",39.8780556,-74.8591667
"Chrome, NJ",40.5763889,-74.2166667
"Church Landing, NJ",39.6758333,-75.5111111
"Churchtown, NJ",39.6719444,-75.5102778
"Cinnaminson, NJ",39.9966667,-74.9930556
"Clara Barton, NJ",40.5341667,-74.3397222
"Clark, NJ",40.6408333,-74.3111111
"Clarks Landing, NJ",39.5736111,-74.5405556
"Clarks Mill, NJ",39.5175000,-74.5063889
"Clarks Mills, NJ",40.3169444,-74.3505556
"Clarksboro, NJ",39.7997222,-75.2241667
"Clarksburg, NJ",40.1886111,-74.4411111
"Clarkstown, NJ",39.4350000,-74.7155556
"Clarksville, NJ",40.7013889,-74.9436111
"Clayton, NJ",39.6600000,-75.0925000
"Claytons Corner, NJ",40.3286111,-74.2869444
"Clayville, NJ",39.4333333,-75.0311111
"Clearbrook Park, NJ",40.3097222,-74.4650000
"Clearwater, NJ",41.0277778,-74.7125000
"Clementon, NJ",39.8113889,-74.9833333
"Clements Bridge, NJ",39.8408333,-75.0836111
"Clermont, NJ",39.1511111,-74.7630556
"Cliffside Park, NJ",40.8213889,-73.9880556
"Cliffwood, NJ",40.4366667,-74.2400000
"Cliffwood Beach, NJ",40.4419444,-74.2172222
"Clifton, NJ",40.8583333,-74.1641667
"Clinton, NJ",40.6366667,-74.9102778
"Closter, NJ",40.9730556,-73.9619444
"Clover Leaf Lakes, NJ",39.4702778,-74.7108333
"Cloverhill, NJ",40.4880556,-74.7825000
"Clyde, NJ",40.4863889,-74.5108333
"Cobbs Corner, NJ",40.8705556,-74.4191667
"Cobbs Mill, NJ",39.5291667,-75.3213889
"Coffins Corner, NJ",39.8600000,-74.9891667
"Cohansey, NJ",39.5113889,-75.2952778
"Cokesbury, NJ",40.6833333,-74.8366667
"Cold Indian Springs, NJ",40.2422222,-74.0666667
"Cold Spring, NJ",38.9666667,-74.9166667
"Coleman Hollow, NJ",40.8122222,-74.6077778
"Colemantown, NJ",39.9297222,-74.8875000
"Colestown, NJ",39.9333333,-74.9891667
"Colesville, NJ",41.2750000,-74.6502778
"Colliers Mills, NJ",40.0675000,-74.4497222
"Collings Lakes, NJ",39.5955556,-74.8819444
"Collingswood, NJ",39.9180556,-75.0716667
"Collingwood Park, NJ",40.2222222,-74.1341667
"Cologne, NJ",39.5047222,-74.6136111
"Colonia, NJ",40.5744444,-74.3025000
"Colonial Gardens, NJ",39.9777778,-74.2102778
"Colonial Manor, NJ",39.8550000,-75.1516667
"Colts Neck, NJ",40.2875000,-74.1727778
"Columbia, NJ",40.9261111,-75.0930556
"Columbia Lakes, NJ",39.9347222,-75.0052778
"Columbus, NJ",40.0725000,-74.7211111
"Colwick, NJ",39.9519444,-75.0233333
"Comical Corners, NJ",39.9833333,-74.6836111
"Communipaw, NJ",40.7086111,-74.0613889
"Concordia, NJ",40.3108333,-74.4486111
"Conovertown, NJ",39.4397222,-74.4788889
"Cooks Mills, NJ",40.2891667,-74.1138889
"Cookstown, NJ",40.0488889,-74.5627778
"Cooleys Corner, NJ",40.2147222,-74.5166667
"Coontown, NJ",40.6186111,-74.5186111
"Cooper, NJ",39.7991667,-75.3330556
"Cooper Village, NJ",39.8200000,-75.1177778
"Coopers Corner, NJ",40.3719444,-74.8483333
"Cooperstown, NJ",40.0466667,-74.9036111
"Coopersville, NJ",40.7069444,-75.1094444
"Copper Hill, NJ",40.4750000,-74.8638889
"Corbin City, NJ",39.3033333,-74.7561111
"Cornish, NJ",40.7975000,-75.0350000
"Cottageville, NJ",40.4102778,-74.4847222
"Cottrell Corners, NJ",40.4030556,-74.2963889
"Country Club Ridge, NJ",40.0166667,-74.8958333
"Country Lake Estates, NJ",39.9425000,-74.5444444
"Courses Landing, NJ",39.6611111,-75.4094444
"Coventry Square, NJ",40.1077778,-74.2077778
"Coxs Corner, NJ",39.9205556,-74.8791667
"Coxstown, NJ",39.6486111,-74.2966667
"Coytesville, NJ",40.8641667,-73.9625000
"Cragmere Park, NJ",41.0944444,-74.1363889
"Cramer Hill, NJ",39.9575000,-75.0852778
"Cranberry Hill, NJ",39.8519444,-74.1936111
"Cranberry Lake, NJ",40.9541667,-74.7469444
"Cranbury, NJ",40.3161111,-74.5141667
"Cranbury Station, NJ",40.3019444,-74.4922222
"Crandon Lakes, NJ",41.1241667,-74.8402778
"Crane Square, NJ",40.6819444,-74.2086111
"Cranford, NJ",40.6583333,-74.3000000
"Cranford Junction, NJ",40.6619444,-74.2916667
"Cranmoor Manor, NJ",39.9508333,-74.1716667
"Crawford Corners, NJ",40.3847222,-74.1891667
"Cream Ridge, NJ",40.1350000,-74.5244444
"Creesville, NJ",39.7563889,-75.0811111
"Crescent Heights, NJ",39.9686111,-74.7169444
"Cresskill, NJ",40.9413889,-73.9597222
"Crestmoore, NJ",40.7483333,-74.8269444
"Creston, NJ",40.2313889,-74.6933333
"Crestview, NJ",40.7450000,-74.4083333
"Crestwood Village, NJ",39.9480556,-74.3611111
"Cropwell, NJ",39.8936111,-74.9358333
"Cross Keys, NJ",39.7133333,-75.0300000
"Crossmans, NJ",40.4850000,-74.3216667
"Crossroads, NJ",39.9152778,-74.8263889
"Crosswicks, NJ",40.1533333,-74.6480556
"Croton, NJ",40.5108333,-74.9305556
"Crowfoot, NJ",39.7944444,-74.8994444
"Crowleytown, NJ",39.6283333,-74.6180556
"Croxton, NJ",40.7397222,-74.0633333
"Crystal Lake, NJ",41.0188889,-74.2127778
"Culvers Inlet, NJ",41.1686111,-74.7925000
"Cumberland, NJ",39.3697222,-74.9411111
"Cushetunk, NJ",40.6222222,-74.7911111
"Da Costa, NJ",39.6166667,-74.7750000
"Danceys Corner, NJ",39.7013889,-75.4391667
"Daretown, NJ",39.6041667,-75.2577778
"Darlington, NJ",41.0802778,-74.1825000
"Darts Mills, NJ",40.5388889,-74.8341667
"Davis Bridge, NJ",40.6802778,-74.5272222
"Davis Mill, NJ",39.4247222,-75.3669444
"Davisville, NJ",40.1097222,-74.6183333
"Dayton, NJ",40.3725000,-74.5105556
"DeKays, NJ",41.2302778,-74.4408333
"Deacons, NJ",40.0377778,-74.8277778
"Deal, NJ",40.2430556,-74.0011111
"Deal Park, NJ",40.2513889,-74.0091667
"Deans, NJ",40.4041667,-74.5163889
"Deepwater, NJ",39.6833333,-75.4908333
"Deer Chase Manor, NJ",39.9680556,-74.2236111
"Deer Lake Park, NJ",39.7013889,-74.2600000
"Deer Park, NJ",39.9061111,-74.9763889
"Deerfield, NJ",39.5236111,-75.2363889
"Deerhaven, NJ",39.6902778,-74.2777778
"Deerwoods, NJ",39.9208333,-74.9850000
"Del Haven, NJ",39.0466667,-74.9200000
"Delair, NJ",39.9813889,-75.0519444
"Delair Junction, NJ",39.9741667,-75.0650000
"Delanco, NJ",40.0505556,-74.9538889
"Delawanna, NJ",40.8288889,-74.1413889
"Delaware, NJ",40.8927778,-75.0650000
"Delaware Gardens, NJ",39.9605556,-75.0675000
"Dellette, NJ",39.7908333,-74.7744444
"Delmont, NJ",39.2141667,-74.9502778
"Demarest, NJ",40.9572222,-73.9638889
"Dennisville, NJ",39.1930556,-74.8255556
"Denville, NJ",40.8922222,-74.4777778
"Devonshire, NJ",39.5425000,-74.6677778
"Diamond Beach, NJ",38.9594444,-74.8527778
"Dias Creek, NJ",39.0888889,-74.8808333
"Dickerson Corner, NJ",39.4575000,-75.3219444
"Dicktown, NJ",39.7561111,-74.9816667
"Dilkes Mills, NJ",39.7347222,-75.2819444
"Dilkesboro, NJ",39.7391667,-75.0805556
"Dilts Corner, NJ",40.4125000,-74.9350000
"Dividing Creek, NJ",39.2702778,-75.1013889
"Dogs Corners, NJ",40.2647222,-74.0425000
"Donaldson Park, NJ",40.4894444,-74.4255556
"Donlontown, NJ",39.9100000,-74.9327778
"Dorchester, NJ",39.2727778,-74.9772222
"Dorothy, NJ",39.4005556,-74.8241667
"Double Trouble, NJ",39.8977778,-74.2211111
"Doughty, NJ",39.4452778,-74.8619444
"Dover, NJ",40.8838889,-74.5625000
"Dover Beaches North, NJ",39.9911111,-74.0641667
"Dover Beaches South, NJ",39.9555556,-74.0747222
"Dover Forge, NJ",39.9111111,-74.2819444
"Downer, NJ",39.6944444,-75.0522222
"Downs Farms, NJ",39.8677778,-75.0016667
"Downstown, NJ",39.5397222,-74.9561111
"Dragston, NJ",39.2655556,-75.0725000
"Drakestown, NJ",40.8436111,-74.7827778
"Dreahook, NJ",40.6000000,-74.7816667
"Dukes Bridge, NJ",39.7947222,-74.5247222
"Dumont, NJ",40.9405556,-73.9972222
"Dunbarton, NJ",39.7491667,-74.8752778
"Dunellen, NJ",40.5891667,-74.4722222
"Dunhams Corners, NJ",40.4238889,-74.4222222
"Dunnfield, NJ",40.9711111,-75.1241667
"Dunns Mills, NJ",40.1291667,-74.6938889
"Dutch Neck, NJ",40.2822222,-74.6141667
"Dutchtown, NJ",39.7205556,-74.7375000
"Duttonville, NJ",41.3513889,-74.6863889
"Eagle, NJ",39.7672222,-74.5680556
"Earle, NJ",40.2252778,-74.1405556
"Earlys Crossing, NJ",39.9086111,-74.6061111
"East Berlin, NJ",39.7972222,-74.9155556
"East Brunswick, NJ",40.4277778,-74.4163889
"East Burlington, NJ",40.0788889,-74.8383333
"East Camden, NJ",39.9527778,-75.1019444
"East Freehold, NJ",40.2808333,-74.2516667
"East Hanover, NJ",40.8200000,-74.3652778
"East Keansburg, NJ",40.4388889,-74.1172222
"East Lake, NJ",39.6444444,-75.3144444
"East Long Branch, NJ",40.3133333,-73.9783333
"East Millstone, NJ",40.5013889,-74.5811111
"East Newark, NJ",40.7483333,-74.1622222
"East Orange, NJ",40.7672222,-74.2052778
"East Pennsauken, NJ",39.9711111,-75.0227778
"East Riverton, NJ",40.0175000,-74.9952778
"East Rutherford, NJ",40.8338889,-74.0975000
"East Spotswood, NJ",40.4113889,-74.3647222
"East Trenton Heights, NJ",40.2586111,-74.7102778
"East Vineland, NJ",39.4808333,-74.9197222
"Eatontown, NJ",40.2961111,-74.0513889
"Eayrestown, NJ",39.9450000,-74.7905556
"Ebenezer, NJ",40.9547222,-74.9300000
"Echelon, NJ",39.8483333,-74.9961111
"Echo Lake, NJ",41.0586111,-74.3950000
"Edgar, NJ",40.5675000,-74.2761111
"Edgebrook, NJ",40.1927778,-74.6461111
"Edgemere Estates, NJ",40.0202778,-74.2369444
"Edgewater, NJ",40.8269444,-73.9761111
"Edgewater Park, NJ",40.0680556,-74.9011111
"Edgewood Park, NJ",40.1463889,-74.2625000
"Edinburg, NJ",40.2580556,-74.6163889
"Edinburg Park, NJ",40.2686111,-74.6172222
"Edison, NJ",40.5186111,-74.4125000
"Egg Harbor City, NJ",39.5286111,-74.6483333
"Eilers Corner, NJ",40.2333333,-74.5313889
"Elberon, NJ",40.2691667,-73.9922222
"Elberon Park, NJ",40.2613889,-74.0063889
"Eldora, NJ",39.2152778,-74.9063889
"Eldridge Hill, NJ",39.6644444,-75.3038889
"Eldridge Park, NJ",40.2652778,-74.7452778
"Elizabeth, NJ",40.6638889,-74.2111111
"Elizabethport, NJ",40.6500000,-74.1875000
"Elks Terrace, NJ",39.5588889,-75.4413889
"Ellisburg, NJ",39.9136111,-75.0108333
"Ellisdale, NJ",40.1316667,-74.5844444
"Elm, NJ",39.6791667,-74.8294444
"Elmer, NJ",39.5950000,-75.1705556
"Elmora, NJ",40.6622222,-74.2277778
"Elmwood Park, NJ",40.9038889,-74.1188889
"Elsmere, NJ",39.6963889,-75.1375000
"Elton, NJ",40.2169444,-74.3416667
"Elwood, NJ",39.5763889,-74.7172222
"Ely, NJ",40.2030556,-74.3875000
"Elys Corner, NJ",40.2363889,-74.4777778
"Emerson, NJ",40.9761111,-74.0266667
"Emmelsville, NJ",39.4877778,-74.7677778
"Englewood, NJ",40.8927778,-73.9730556
"Englewood Cliffs, NJ",40.8852778,-73.9527778
"English Creek, NJ",39.3491667,-74.6711111
"English Creek Landing, NJ",39.3347222,-74.6783333
"Englishtown, NJ",40.2972222,-74.3586111
"Erial, NJ",39.7733333,-75.0066667
"Erlton, NJ",39.9169444,-75.0183333
"Erma, NJ",38.9805556,-74.9083333
"Erma Park, NJ",39.0058333,-74.8838889
"Ernston, NJ",40.4561111,-74.3108333
"Erskine, NJ",41.0908333,-74.2586111
"Erskine Lakes, NJ",41.1055556,-74.2513889
"Essex Fells, NJ",40.8244444,-74.2850000
"Estell Manor, NJ",39.4119444,-74.7427778
"Estellville, NJ",39.3958333,-74.7475000
"Etra, NJ",40.2525000,-74.5072222
"Evans Corner, NJ",39.8780556,-74.9036111
"Everett, NJ",40.3541667,-74.1469444
"Evergreen Shores, NJ",40.0047222,-74.1377778
"Everittstown, NJ",40.5658333,-75.0291667
"Evesboro, NJ",39.9133333,-74.9238889
"Ewan, NJ",39.6986111,-75.1863889
"Ewansville, NJ",39.9783333,-74.7355556
"Ewing, NJ",40.2697222,-74.8002778
"Ewingville, NJ",40.2769444,-74.7811111
"Extonville, NJ",40.1433333,-74.5991667
"Fair Haven, NJ",40.3605556,-74.0386111
"Fair Lawn, NJ",40.9402778,-74.1322222
"Fair Play, NJ",40.2366667,-74.4650000
"Fairfield, NJ",40.8836111,-74.3063889
"Fairmount, NJ",40.7269444,-74.7766667
"Fairton, NJ",39.3816667,-75.2202778
"Fairview, NJ",40.8125000,-73.9994444
"Fairview Estates, NJ",39.9833333,-74.1458333
"Fairview Knolls, NJ",40.4291667,-74.4263889
"Fairwoods, NJ",40.7686111,-74.4288889
"Fanwood, NJ",40.6408333,-74.3838889
"Far Hills, NJ",40.6841667,-74.6361111
"Fardale, NJ",41.0408333,-74.1769444
"Farmersville, NJ",40.7261111,-74.8072222
"Farmingdale, NJ",40.1963889,-74.1688889
"Farnerville, NJ",40.0694444,-74.8647222
"Farrington Lake Heights, NJ",40.4355556,-74.4569444
"Fayson Lakes, NJ",40.9758333,-74.3575000
"Feaster Park, NJ",40.4844444,-74.4430556
"Febletown, NJ",40.9316667,-74.9625000
"Fellowship, NJ",39.9275000,-74.9669444
"Fenwick, NJ",39.6175000,-75.3372222
"Ferdinands Mills, NJ",41.0255556,-74.1930556
"Fernwood, NJ",40.2588889,-74.7963889
"Ferrell, NJ",39.6752778,-75.1991667
"Ferry Road Manor, NJ",40.2533333,-74.8047222
"Fieldsboro, NJ",40.1363889,-74.7291667
"Fieldville, NJ",40.5472222,-74.5069444
"Finderne, NJ",40.5630556,-74.5780556
"Finesville, NJ",40.6083333,-75.1713889
"Finley, NJ",39.4772222,-75.2025000
"Fishing Creek, NJ",39.0227778,-74.9341667
"Fithians Corner, NJ",39.4269444,-75.2919444
"Five Points, NJ",39.4797222,-74.8938889
"Flagtown, NJ",40.5169444,-74.6847222
"Flanders, NJ",40.8455556,-74.6952778
"Flatbrookville, NJ",41.1002778,-74.9638889
"Flemington, NJ",40.5122222,-74.8597222
"Flemington Junction, NJ",40.5316667,-74.8400000
"Floral Hill, NJ",40.7294444,-74.4063889
"Florence, NJ",40.1194444,-74.8058333
"Florence Station, NJ",40.1083333,-74.7844444
"Florham Park, NJ",40.7877778,-74.3886111
"Flyat, NJ",39.8227778,-74.7575000
"Folsom, NJ",39.6019444,-74.8430556
"Folwell, NJ",40.0438889,-74.7091667
"Fords, NJ",40.5291667,-74.3163889
"Fordville, NJ",39.4252778,-75.1702778
"Forest Acres, NJ",39.9613889,-74.1736111
"Forest Grove, NJ",39.5266667,-75.0430556
"Fork Landing, NJ",39.9777778,-75.0130556
"Forked River, NJ",39.8397222,-74.1905556
"Forked River Beach, NJ",39.8169444,-74.1705556
"Forked River Point, NJ",39.8261111,-74.1977778
"Fort Dix, NJ",40.0297222,-74.6188889
"Fort Elfsborg, NJ",39.5483333,-75.5258333
"Fort Hancock, NJ",40.4638889,-74.0030556
"Fort Lee, NJ",40.8508333,-73.9705556
"Fort Mott, NJ",39.6047222,-75.5505556
"Fort Plains, NJ",40.1833333,-74.2547222
"Fortescue, NJ",39.2375000,-75.1719444
"Fostertown, NJ",39.9427778,-74.8177778
"Foul Rift, NJ",40.8022222,-75.0980556
"Four Corners, NJ",41.2880556,-74.7630556
"Four Mile, NJ",39.8913889,-74.5813889
"Four Mile Circle, NJ",39.8980556,-74.5958333
"Fox Chase, NJ",39.8563889,-74.7266667
"Fox Hill, NJ",40.8775000,-74.4444444
"Fox Hollow Woods, NJ",39.8788889,-74.9563889
"Foxs Mill, NJ",39.6133333,-75.2541667
"Frames Corner, NJ",39.3033333,-75.1641667
"Francis Mills, NJ",40.1347222,-74.3977778
"Frankfort, NJ",40.5086111,-74.6836111
"Franklin, NJ",41.1219444,-74.5808333
"Franklin Corner, NJ",40.2802778,-74.7169444
"Franklin Grove, NJ",41.0311111,-74.9572222
"Franklin Lakes, NJ",41.0166667,-74.2061111
"Franklin Park, NJ",40.4388889,-74.5355556
"Franklinville, NJ",39.6180556,-75.0761111
"Fredon, NJ",41.0391667,-74.8091667
"Free Acres, NJ",40.6605556,-74.4441667
"Freehold, NJ",40.2600000,-74.2741667
"Freewood Acres, NJ",40.1688889,-74.2383333
"Frenchtown, NJ",40.5261111,-75.0619444
"Freneau, NJ",40.4016667,-74.2380556
"Fresh Ponds, NJ",40.4052778,-74.4661111
"Friars Landing, NJ",39.8291667,-75.2277778
"Friendship, NJ",39.8705556,-74.6916667
"Friendship Station, NJ",39.7341667,-75.4591667
"Fries Mill, NJ",39.6561111,-75.0455556
"Friesburg, NJ",39.5447222,-75.2894444
"Furmans Corner, NJ",40.4597222,-74.7869444
"Galilee, NJ",40.3363889,-73.9747222
"Gandys Beach, NJ",39.2719444,-75.2352778
"Garden City, NJ",39.7725000,-75.0708333
"Gardenville, NJ",39.8225000,-75.1211111
"Gardenville Center, NJ",39.8300000,-75.1227778
"Gardiners Landing, NJ",39.6250000,-74.6402778
"Garfield, NJ",40.8813889,-74.1136111
"Garfield Park, NJ",40.0208333,-74.8797222
"Garfield Park East, NJ",40.0230556,-74.8675000
"Garfield Park North, NJ",40.0311111,-74.8622222
"Garrison Corner, NJ",39.4458333,-75.3905556
"Garton, NJ",39.4686111,-75.1694444
"Garwood, NJ",40.6594444,-74.3233333
"Gary Corner, NJ",40.5305556,-74.9211111
"Georgetown, NJ",40.0794444,-74.6536111
"Georgia, NJ",40.1872222,-74.2850000
"Germania, NJ",39.5116667,-74.5997222
"Germania Gardens, NJ",39.5033333,-74.6094444
"Gibbsboro, NJ",39.8380556,-74.9652778
"Gibbstown, NJ",39.8250000,-75.2838889
"Gibson Landing, NJ",39.3561111,-74.7266667
"Giffordtown, NJ",39.6002778,-74.3722222
"Gigantic City, NJ",39.4963889,-74.8238889
"Gilford Park, NJ",39.9486111,-74.1375000
"Gillespie, NJ",40.4519444,-74.3563889
"Gillette, NJ",40.6738889,-74.4663889
"Gillilandtown, NJ",40.3969444,-74.4200000
"Gladstone, NJ",40.7225000,-74.6658333
"Glassboro, NJ",39.7027778,-75.1122222
"Glen Alpin, NJ",40.7541667,-74.5266667
"Glen Cedar City, NJ",40.0080556,-74.2397222
"Glen Cove, NJ",39.8833333,-74.1430556
"Glen Gardner, NJ",40.6966667,-74.9411111
"Glen Ridge, NJ",40.8052778,-74.2041667
"Glen Rock, NJ",40.9627778,-74.1333333
"Glendale, NJ",39.8536111,-74.9827778
"Glendola, NJ",40.1908333,-74.0772222
"Glendora, NJ",39.8394444,-75.0738889
"Glenfield, NJ",40.7430556,-74.4055556
"Glenmoore, NJ",40.3680556,-74.7844444
"Glenside, NJ",39.6663889,-75.4886111
"Glenwood, NJ",41.2511111,-74.4900000
"Gloucester City, NJ",39.8916667,-75.1166667
"Gloucester Heights, NJ",39.8977778,-75.1047222
"Glouster Landing, NJ",39.5847222,-74.5669444
"Golden Crest, NJ",40.2083333,-74.6647222
"Golden Triangle, NJ",39.9277778,-75.0391667
"Golf Manor, NJ",39.6966667,-75.4711111
"Golf View, NJ",39.7005556,-75.4697222
"Golf View Manor, NJ",40.2805556,-74.5916667
"Good Intent, NJ",39.8041667,-75.0780556
"Goodmans Crossing, NJ",40.6152778,-74.3400000
"Gordons Corner, NJ",40.3177778,-74.3058333
"Goshen, NJ",39.1413889,-74.8533333
"Goshen Crossing, NJ",39.1280556,-74.8252778
"Gouldtown, NJ",39.4205556,-75.1847222
"Grand Sprute, NJ",39.7613889,-75.3380556
"Grandin, NJ",40.6175000,-74.9341667
"Grantwood, NJ",40.8266667,-73.9875000
"Grasselli, NJ",40.6150000,-74.2091667
"Grassy Sound, NJ",39.0133333,-74.8163889
"Gravel Hill, NJ",40.2997222,-74.4197222
"Gravelly Run, NJ",39.4258333,-74.7016667
"Great Meadows, NJ",40.8708333,-74.9125000
"Great Notch, NJ",40.8744444,-74.2080556
"Greater Cross Roads, NJ",40.6688889,-74.6802778
"Green Bank, NJ",39.6127778,-74.5883333
"Green Creek, NJ",39.0461111,-74.9016667
"Green Curve Heights, NJ",40.2661111,-74.7850000
"Green Grove, NJ",40.2341667,-74.0777778
"Green Island, NJ",40.0105556,-74.1100000
"Green Knoll, NJ",40.6000000,-74.6125000
"Green Pond, NJ",41.0172222,-74.4780556
"Green Pond Junction, NJ",41.0272222,-74.4169444
"Green Tree, NJ",39.7508333,-75.0763889
"Green Village, NJ",40.7391667,-74.4538889
"Green-Fields, NJ",39.8169444,-75.1666667
"Greenbriar, NJ",40.0911111,-74.1383333
"Greendell, NJ",40.9738889,-74.8213889
"Greenfield, NJ",39.2283333,-74.7061111
"Greenfield Heights, NJ",39.8097222,-75.1686111
"Greenhaven, NJ",39.9166667,-74.9958333
"Greenland, NJ",39.8588889,-75.0300000
"Greensand, NJ",40.4916667,-74.3875000
"Greentree, NJ",39.8969444,-74.9561111
"Greentree Village, NJ",39.9125000,-74.9388889
"Greenville, NJ",40.7002778,-74.0947222
"Greenwich, NJ",39.3897222,-75.3388889
"Greenwood Manor, NJ",39.9791667,-74.2472222
"Grenloch, NJ",39.7855556,-75.0561111
"Grenloch Terrace, NJ",39.7802778,-75.0630556
"Griggstown, NJ",40.4377778,-74.6136111
"Grovers Mill, NJ",40.3166667,-74.6097222
"Groveville, NJ",40.1697222,-74.6719444
"Gum Tree Corner, NJ",39.4375000,-75.3852778
"Guttenberg, NJ",40.7919444,-74.0041667
"Hackensack, NJ",40.8858333,-74.0438889
"Hackettstown, NJ",40.8538889,-74.8294444
"Hacklebarney, NJ",40.7669444,-74.7208333
"Haddon, NJ",39.8975000,-75.0963889
"Haddon Heights, NJ",39.8772222,-75.0650000
"Haddon Hills, NJ",39.9000000,-75.0527778
"Haddon Leigh, NJ",39.8897222,-75.0472222
"Haddon Towne, NJ",39.8863889,-75.0116667
"Haddonfield, NJ",39.8913889,-75.0380556
"Hagerville, NJ",39.5333333,-75.4666667
"Haines Corner, NJ",39.8686111,-74.9447222
"Hainesburg, NJ",40.9550000,-75.0616667
"Hainesport, NJ",39.9836111,-74.8275000
"Hainesville, NJ",41.2519444,-74.8033333
"Halberton, NJ",39.2955556,-74.9094444
"Haledon, NJ",40.9355556,-74.1866667
"Haleyville, NJ",39.2894444,-75.0172222
"Half Acre, NJ",40.3205556,-74.4527778
"Halltown, NJ",39.6380556,-75.4130556
"Halsey, NJ",41.0969444,-74.7488889
"Hamburg, NJ",41.1533333,-74.5766667
"Hamden, NJ",40.6033333,-74.9008333
"Hamilton, NJ",40.5061111,-74.6205556
"Hamilton Square, NJ",40.2272222,-74.6536111
"Hammonton, NJ",39.6363889,-74.8027778
"Hampton, NJ",40.7069444,-74.9563889
"Hampton Furnace, NJ",39.7694444,-74.6808333
"Hampton Gate, NJ",39.8041667,-74.6788889
"Hampton Junction, NJ",40.7111111,-74.9530556
"Hampton Lakes, NJ",39.8916667,-74.7122222
"Hancocks Bridge, NJ",39.5052778,-75.4622222
"Haneys Mill, NJ",41.1288889,-74.9108333
"Hanford, NJ",41.2952778,-74.5633333
"Hanover, NJ",40.8044444,-74.3672222
"Hanover Furnace, NJ",39.9813889,-74.5266667
"Hanover Neck, NJ",40.8316667,-74.3533333
"Harbourton, NJ",40.3522222,-74.8525000
"Harding, NJ",39.6433333,-75.1222222
"Harding Lakes, NJ",39.4525000,-74.7525000
"Hardingville, NJ",39.6600000,-75.1744444
"Hardistonville, NJ",41.1388889,-74.5697222
"Hardwick, NJ",41.0544444,-74.9325000
"Hardwick Center, NJ",41.0083333,-74.9488889
"Harlingen, NJ",40.4475000,-74.6627778
"Harmersville, NJ",39.4988889,-75.4347222
"Harmony, NJ",39.4991667,-75.2880556
"Harmonyvale, NJ",41.1466667,-74.6369444
"Harneys Corner, NJ",40.2491667,-74.7430556
"Harrington Park, NJ",40.9836111,-73.9802778
"Harrison, NJ",40.7463889,-74.1566667
"Harrisonville, NJ",39.6850000,-75.2663889
"Harrisville, NJ",39.6613889,-74.5222222
"Hartford, NJ",39.9761111,-74.8944444
"Harts Corner, NJ",40.3088889,-74.8130556
"Harvey Cedars, NJ",39.7061111,-74.1344444
"Hasbrouck Heights, NJ",40.8580556,-74.0811111
"Haskell, NJ",41.0283333,-74.2963889
"Haven Beach, NJ",39.5933333,-74.2161111
"Haven Homes, NJ",40.5094444,-74.4066667
"Haworth, NJ",40.9608333,-73.9905556
"Hawthorne, NJ",40.9491667,-74.1541667
"Hawthorne Park, NJ",40.0383333,-74.8730556
"Hazelton, NJ",40.5883333,-74.2911111
"Hazen, NJ",40.8141667,-75.0433333
"Hazlet, NJ",40.4155556,-74.1913889
"Heath Manor, NJ",40.2588889,-74.7630556
"Heathcote, NJ",40.3886111,-74.5761111
"Hedding, NJ",40.1077778,-74.7441667
"Heislerville, NJ",39.2230556,-74.9927778
"Helmetta, NJ",40.3766667,-74.4250000
"Hemlock Glen, NJ",40.9805556,-75.0408333
"Hendrickson Corners, NJ",40.4108333,-74.1369444
"Henningers Mill, NJ",40.3955556,-74.2536111
"Hensfoot, NJ",40.6294444,-74.9694444
"Herberts, NJ",40.4358333,-74.4233333
"Herberts Corner, NJ",40.3308333,-74.2611111
"Herbertsville, NJ",40.1119444,-74.1094444
"Heritage Village, NJ",39.8908333,-74.9052778
"Herman, NJ",39.6175000,-74.5947222
"Herwood, NJ",39.9377778,-75.0055556
"Hesstown, NJ",39.3636111,-74.9308333
"Hewitt, NJ",41.1416667,-74.3111111
"Hi-Nella, NJ",39.8355556,-75.0247222
"Hibernia, NJ",40.9438889,-74.4930556
"Hickory Corner, NJ",40.2719444,-74.5569444
"Hickory Tree, NJ",40.7463889,-74.4325000
"Hickstown, NJ",39.7791667,-75.0125000
"Higbeeville, NJ",39.5152778,-74.4569444
"Higginsville, NJ",40.5100000,-74.7888889
"High Bank Landing, NJ",39.4347222,-74.7250000
"High Bridge, NJ",40.6669444,-74.8961111
"High Crossing, NJ",39.7691667,-74.6444444
"High Point, NJ",39.7097222,-74.1327778
"Highland Lake, NJ",41.1766667,-74.4569444
"Highland Lakes, NJ",41.1772222,-74.4691667
"Highland Park, NJ",40.4958333,-74.4247222
"Highlands, NJ",40.4036111,-73.9919444
"Highs Beach, NJ",39.0791667,-74.9088889
"Hightstown, NJ",40.2694444,-74.5236111
"Hillcrest, NJ",40.2425000,-74.7841667
"Hillsborough, NJ",40.4775000,-74.6272222
"Hillsdale, NJ",41.0025000,-74.0408333
"Hillsdale Manor, NJ",41.0116667,-74.0425000
"Hillside, NJ",40.7011111,-74.2305556
"Hillside Terrace, NJ",40.2008333,-74.6097222
"Hilltop, NJ",39.8244444,-75.0677778
"Hilltop Estates, NJ",39.9758333,-74.2416667
"Hilltown, NJ",40.9211111,-74.5511111
"Hilton, NJ",40.4119444,-74.0225000
"Ho-Ho-Kus, NJ",40.9963889,-74.1016667
"Hoboken, NJ",40.7438889,-74.0327778
"Hockamik, NJ",40.0363889,-74.5469444
"Hoffman, NJ",40.3177778,-74.4122222
"Hoffmans, NJ",40.7058333,-74.8605556
"Hoffmans Mill, NJ",39.2588889,-74.9100000
"Holcomb Mills, NJ",40.5258333,-74.8302778
"Holgate, NJ",39.5400000,-74.2572222
"Holiday Beach, NJ",39.8013889,-74.1913889
"Holiday City, NJ",40.0222222,-74.1666667
"Holiday Estates, NJ",39.9675000,-74.1563889
"Holiday Heights, NJ",39.9458333,-74.2544444
"Holland, NJ",40.5719444,-75.1658333
"Holly Park, NJ",39.8952778,-74.1433333
"Holmansville, NJ",40.1008333,-74.3183333
"Holmdel, NJ",40.3450000,-74.1844444
"Holmeson, NJ",40.1655556,-74.4172222
"Homes Mills, NJ",40.1344444,-74.5427778
"Homestead Park, NJ",40.6900000,-74.4505556
"Hoot Owl Estates, NJ",39.8827778,-74.8475000
"Hopatcong, NJ",40.9327778,-74.6597222
"Hopatcong Heights, NJ",40.9205556,-74.6786111
"Hopatcong Hills, NJ",40.9438889,-74.6711111
"Hope, NJ",40.9111111,-74.9677778
"Hopelawn, NJ",40.5269444,-74.2933333
"Hopewell, NJ",40.3891667,-74.7622222
"Hopkins Corner, NJ",41.1355556,-74.6436111
"Hornerstown, NJ",40.1061111,-74.5144444
"Houses Corner, NJ",41.0708333,-74.6541667
"Howardsville, NJ",39.8127778,-74.3652778
"Hudson Heights, NJ",40.8069444,-74.0041667
"Hughesville, NJ",40.6219444,-75.1561111
"Hunters Mill, NJ",39.3236111,-74.8608333
"Huntsburg, NJ",40.9972222,-74.8380556
"Huntsville, NJ",40.9802778,-74.7758333
"Hurdtown, NJ",40.9700000,-74.5994444
"Hurffville, NJ",39.7625000,-75.1086111
"Husted, NJ",39.5252778,-75.1894444
"Husted Landing, NJ",39.3513889,-75.2575000
"Hutchinson, NJ",40.7736111,-75.1316667
"Hutchinson Mills, NJ",40.2455556,-74.7088889
"Hutton Park, NJ",40.7791667,-74.2508333
"Huyler Landing, NJ",40.9263889,-73.9252778
"Hyson, NJ",40.1408333,-74.2669444
"Idell, NJ",40.4583333,-75.0283333
"Imlaystown, NJ",40.1675000,-74.5155556
"Independence Corner, NJ",41.2100000,-74.5516667
"Indian Mills, NJ",39.7938889,-74.7447222
"Interlaken, NJ",40.2333333,-74.0161111
"Iona, NJ",39.6013889,-75.0675000
"Iron Rock, NJ",39.9594444,-75.0252778
"Ironia, NJ",40.8227778,-74.6261111
"Irvington, NJ",40.7322222,-74.2352778
"Iselin, NJ",40.5752778,-74.3227778
"Island Beach Heights, NJ",39.9541667,-74.1563889
"Island Heights, NJ",39.9419444,-74.1502778
"Ivystone Farms, NJ",39.7672222,-74.9055556
"Ivywood, NJ",39.9819444,-74.9897222
"Jackson, NJ",39.7763889,-74.8627778
"Jacksonburg, NJ",40.9916667,-74.9808333
"Jacksons Mills, NJ",40.1477778,-74.3244444
"Jacksonville, NJ",40.0502778,-74.7638889
"Jacobstown, NJ",40.0758333,-74.5836111
"Jamesburg, NJ",40.3525000,-74.4405556
"Jamesburg Gardens, NJ",40.3430556,-74.4208333
"Jamesburg Park, NJ",40.3797222,-74.4391667
"Janvier, NJ",39.6269444,-75.0177778
"Jeffers Landing, NJ",39.3180556,-74.6522222
"Jefferson, NJ",39.7536111,-75.2122222
"Jenkins, NJ",39.6980556,-74.5269444
"Jericho, NJ",39.8055556,-75.1402778
"Jersey City, NJ",40.7280556,-74.0780556
"Jerseyville, NJ",40.2391667,-74.2297222
"Jessups Mill, NJ",39.6616667,-75.2308333
"Jobstown, NJ",40.0369444,-74.6933333
"Johnson Place, NJ",39.8627778,-74.6183333
"Johnsonburg, NJ",40.9644444,-74.8788889
"Johnsontown, NJ",39.5236111,-74.4602778
"Jones Mill, NJ",39.7963889,-74.5272222
"Jordantown, NJ",39.9641667,-75.0377778
"Juliustown, NJ",40.0133333,-74.6691667
"Jumbo, NJ",39.7730556,-75.3991667
"Jutland, NJ",40.6227778,-74.9647222
"Kalarama, NJ",40.9658333,-74.9925000
"Kampe, NJ",41.1669444,-74.4566667
"Karrsville, NJ",40.8091667,-74.9325000
"Kay Gardens, NJ",39.7438889,-75.4200000
"Keansburg, NJ",40.4416667,-74.1302778
"Kearny, NJ",40.7683333,-74.1458333
"Keasbey, NJ",40.5166667,-74.3055556
"Kendall Park, NJ",40.4208333,-74.5611111
"Kenilworth, NJ",40.6763889,-74.2911111
"Kennedy Mills, NJ",40.6608333,-75.1136111
"Kennedys, NJ",40.6480556,-75.1277778
"Kenvil, NJ",40.8797222,-74.6188889
"Kernan Corner, NJ",39.4533333,-75.3333333
"Keswick Grove, NJ",39.9505556,-74.3444444
"Keyport, NJ",40.4330556,-74.2000000
"Kimbles Beach, NJ",39.1044444,-74.8941667
"Kimseytown, NJ",39.0011111,-74.9350000
"King Crab Landing, NJ",39.0769444,-74.9105556
"Kings Woods, NJ",40.9516667,-73.9258333
"Kingsland, NJ",40.8063889,-74.1113889
"Kingston, NJ",40.3752778,-74.6138889
"Kingston Estates, NJ",39.9236111,-74.9883333
"Kingtown, NJ",40.5936111,-74.9466667
"Kingwood, NJ",40.4697222,-75.0194444
"Kinkora, NJ",40.1175000,-74.7555556
"Kinnelon, NJ",41.0016667,-74.3675000
"Kirbys Mill, NJ",39.9166667,-74.8047222
"Kirbys Mills, NJ",40.1286111,-74.5394444
"Kirkwood, NJ",39.8311111,-74.9916667
"Kitchell, NJ",41.0069444,-74.4650000
"Klinesville, NJ",40.5413889,-74.8813889
"Knollwood, NJ",40.7602778,-74.4044444
"Knowlton, NJ",40.9302778,-75.0283333
"Kresson, NJ",39.8575000,-74.9216667
"Lacey, NJ",39.8725000,-74.2955556
"Lafayette, NJ",41.0983333,-74.6888889
"Lafayette Mills, NJ",40.3075000,-74.3044444
"Lahiere, NJ",40.5188889,-74.4027778
"Lake Club, NJ",40.1461111,-74.2486111
"Lake Como, NJ",40.1597222,-74.0286111
"Lake Hiawatha, NJ",40.8825000,-74.3819444
"Lake Hopatcong, NJ",40.9483333,-74.6175000
"Lake Junction, NJ",40.9052778,-74.6011111
"Lake Mohawk, NJ",41.0183333,-74.6605556
"Lake Parsippany, NJ",40.8500000,-74.4291667
"Lake Pine, NJ",39.8658333,-74.8497222
"Lake Riviera, NJ",40.0450000,-74.1538889
"Lake Telemark, NJ",40.9566667,-74.4983333
"Lake View, NJ",40.8919444,-74.1469444
"Lakehurst, NJ",40.0144444,-74.3116667
"Lakeland, NJ",39.7852778,-75.0758333
"Lakeside, NJ",41.1816667,-74.3363889
"Lakeside Park, NJ",40.1927778,-74.6875000
"Lakeview Terrace, NJ",39.7050000,-74.2777778
"Lakewood, NJ",40.0977778,-74.2180556
"Lakewood Corner Estates, NJ",40.0311111,-74.2297222
"Lambertville, NJ",40.3658333,-74.9433333
"Lambs Terrace, NJ",39.7705556,-75.0430556
"Lamington, NJ",40.6608333,-74.7177778
"Land of Pines, NJ",40.1580556,-74.2291667
"Landing, NJ",40.9050000,-74.6655556
"Landisville, NJ",39.5247222,-74.9386111
"Lanes Mills, NJ",40.0911111,-74.1530556
"Lanoka Harbor, NJ",39.8666667,-74.1683333
"Lansdowne, NJ",40.6083333,-74.9066667
"Larisons Corners, NJ",40.4413889,-74.8566667
"Larrabees, NJ",40.1144444,-74.1966667
"Laurel Farms, NJ",40.6930556,-74.7811111
"Laurel Harbor, NJ",39.8602778,-74.1344444
"Laurel Lake, NJ",39.3394444,-75.0302778
"Laurel Park, NJ",40.4569444,-74.3138889
"Laurel Springs, NJ",39.8200000,-75.0066667
"Laureldale, NJ",39.4991667,-74.6855556
"Laurelton, NJ",40.0686111,-74.1308333
"Laurelton Gardens, NJ",40.0741667,-74.1344444
"Laurence Harbor, NJ",40.4566667,-74.2469444
"Lavallette, NJ",39.9702778,-74.0691667
"Lawnside, NJ",39.8663889,-75.0286111
"Lawrence, NJ",40.2738889,-74.6800000
"Lawrence Brook Manor, NJ",40.4722222,-74.4161111
"Lawrence Corner, NJ",39.5494444,-75.1355556
"Lawrenceville, NJ",40.2972222,-74.7300000
"Layton, NJ",41.2161111,-74.8233333
"Leamings Mill, NJ",39.4027778,-74.9797222
"Lebanon, NJ",40.6416667,-74.8363889
"Lebanon Lake Estates, NJ",39.9069444,-74.5650000
"Ledgewood, NJ",40.8811111,-74.6563889
"Leeds Point, NJ",39.4919444,-74.4294444
"Leektown, NJ",39.6244444,-74.4675000
"Leesburg, NJ",39.2566667,-74.9877778
"Leesville, NJ",40.1336111,-74.3827778
"Legler, NJ",40.0505556,-74.3352778
"Leisure Knoll, NJ",40.0188889,-74.2925000
"Leisure Village, NJ",40.0425000,-74.1852778
"Leisure Village East, NJ",40.0300000,-74.1647222
"Leisuretowne, NJ",39.8922222,-74.7025000
"Lenola, NJ",39.9622222,-74.9827778
"Leonardo, NJ",40.4172222,-74.0625000
"Leonards, NJ",39.8422222,-75.2063889
"Leonardville, NJ",40.4061111,-74.0422222
"Leonia, NJ",40.8613889,-73.9886111
"Lewisburg, NJ",41.1966667,-74.6125000
"Lewistown, NJ",40.0061111,-74.6486111
"Lewisville, NJ",40.2888889,-74.7263889
"Liberty Corner, NJ",40.6647222,-74.5777778
"Liberty Square, NJ",40.6500000,-74.1941667
"Libertyville, NJ",41.2397222,-74.6547222
"Lincoln, NJ",39.6694444,-75.2411111
"Lincoln Park, NJ",40.9241667,-74.3025000
"Lincroft, NJ",40.3305556,-74.1213889
"Linden, NJ",40.6219444,-74.2450000
"Lindenau, NJ",40.5150000,-74.4113889
"Lindenwold, NJ",39.8241667,-74.9980556
"Linvale, NJ",40.3930556,-74.8361111
"Linwood, NJ",39.3397222,-74.5755556
"Lippincotts Corner, NJ",39.9291667,-74.7775000
"Little Brook, NJ",40.7411111,-74.8613889
"Little Falls, NJ",40.8688889,-74.2086111
"Little Ferry, NJ",40.8527778,-74.0425000
"Little Rocky Hill, NJ",40.3975000,-74.5891667
"Little Silver, NJ",40.3366667,-74.0475000
"Little Silver Point, NJ",40.3355556,-74.0291667
"Little York, NJ",40.6111111,-75.0763889
"Littleton, NJ",40.8433333,-74.4630556
"Littletown, NJ",40.5750000,-74.9638889
"Livingston, NJ",40.7958333,-74.3152778
"Llewellyn Park, NJ",40.7875000,-74.2416667
"Loantaka Estates, NJ",40.7722222,-74.4405556
"Loch Arbour, NJ",40.2327778,-74.0013889
"Locktown, NJ",40.4847222,-74.9702778
"Lockwood, NJ",40.9205556,-74.7197222
"Locust, NJ",40.3944444,-74.0266667
"Locust Corner, NJ",40.2844444,-74.5619444
"Locust Grove, NJ",39.8919444,-74.9552778
"Locust Manor, NJ",40.0500000,-74.2327778
"Locustwood, NJ",39.9241667,-75.0286111
"Lodi, NJ",40.8822222,-74.0836111
"Logansville, NJ",40.7258333,-74.5222222
"Lommasons Glen, NJ",40.7941667,-75.0833333
"Long Beach, NJ",39.6855556,-74.1452778
"Long Branch, NJ",40.3041667,-73.9927778
"Long Bridge, NJ",40.9200000,-74.8405556
"Long Hill, NJ",40.7077778,-74.4300000
"Long Valley, NJ",40.7858333,-74.7805556
"Longport, NJ",39.3141667,-74.5252778
"Lores Mill, NJ",39.2838889,-75.0658333
"Louden, NJ",39.7755556,-74.8750000
"Low Moor, NJ",40.3497222,-73.9738889
"Lower Bank, NJ",39.6033333,-74.5483333
"Lower Fairmount, NJ",40.7058333,-74.7752778
"Lower Forge, NJ",39.7247222,-74.6733333
"Lower Harmony, NJ",40.7363889,-75.1411111
"Lower Longwood, NJ",40.9647222,-74.5650000
"Lower Mill, NJ",39.9444444,-74.6091667
"Lower Montville, NJ",40.9005556,-74.3650000
"Lower Squankum, NJ",40.1586111,-74.1572222
"Lower Valley, NJ",40.7266667,-74.8441667
"Lows Hollow, NJ",40.7138889,-75.1144444
"Loyds Corner, NJ",39.3605556,-75.3011111
"Lucaston, NJ",39.8183333,-74.9677778
"Lumberton, NJ",39.9658333,-74.8055556
"Lummistown, NJ",39.3508333,-75.1794444
"Lyndhurst, NJ",40.8119444,-74.1247222
"Lynn Woodoaks, NJ",40.5888889,-74.3336111
"Lyons, NJ",40.6852778,-74.5475000
"Lyonsville, NJ",40.9566667,-74.4400000
"MacArthur Manor, NJ",40.4583333,-74.3694444
"Macedonia, NJ",40.2861111,-74.0969444
"Macopin, NJ",41.0522222,-74.3891667
"Madison, NJ",40.7597222,-74.4175000
"Madison Heights, NJ",40.7536111,-74.4322222
"Madison Hill, NJ",40.6111111,-74.3091667
"Madison Park, NJ",40.4513889,-74.3083333
"Madisonville, NJ",40.7194444,-74.5408333
"Magnolia, NJ",39.8544444,-75.0394444
"Mahoneyville, NJ",39.6322222,-75.5100000
"Mahwah, NJ",41.0886111,-74.1441667
"Malaga, NJ",39.5697222,-75.0480556
"Malapardis, NJ",40.8294444,-74.4322222
"Manahawkin, NJ",39.6952778,-74.2591667
"Manahawkin Terrace, NJ",39.7019444,-74.2477778
"Manalapan, NJ",40.2572222,-74.3961111
"Manasquan, NJ",40.1261111,-74.0497222
"Manasquan Park, NJ",40.1000000,-74.0750000
"Mandalay, NJ",40.0152778,-74.0905556
"Manitou Park, NJ",39.9722222,-74.1841667
"Mannington Mills, NJ",39.5869444,-75.4547222
"Mansfield, NJ",40.0911111,-74.7141667
"Mansfield Square, NJ",40.1161111,-74.7061111
"Mantoloking, NJ",40.0391667,-74.0502778
"Mantoloking Estates, NJ",40.0069444,-74.0630556
"Mantoloking Shores, NJ",40.0180556,-74.0583333
"Mantua, NJ",39.7938889,-75.1725000
"Mantua Grove, NJ",39.8175000,-75.1941667
"Manumuskin, NJ",39.3350000,-74.9613889
"Manunka Chunk, NJ",40.8613889,-75.0486111
"Manville, NJ",40.5408333,-74.5880556
"Maple Grove, NJ",39.6244444,-75.2011111
"Maple Meade, NJ",40.4436111,-74.4758333
"Maple Shade, NJ",39.9525000,-74.9927778
"Maplewood, NJ",40.7738889,-74.2738889
"Marble Hill, NJ",40.8858333,-74.9352778
"Marcella, NJ",40.9869444,-74.4747222
"Margate City, NJ",39.3277778,-74.5038889
"Mariannes Corner, NJ",40.6530556,-74.9125000
"Marion, NJ",40.7352778,-74.0744444
"Marksboro, NJ",40.9883333,-74.9077778
"Marlboro, NJ",40.3152778,-74.2466667
"Marlton, NJ",39.8911111,-74.9222222
"Marlton Heights, NJ",39.6638889,-75.3577778
"Marlton Lakes, NJ",39.8088889,-74.8986111
"Marlyn Manor, NJ",39.0169444,-74.8738889
"Marmora, NJ",39.2666667,-74.6452778
"Marshalls Corner, NJ",40.3613889,-74.7963889
"Marshalltown, NJ",39.6375000,-75.4536111
"Marshallville, NJ",39.2963889,-74.7688889
"Martha, NJ",39.6819444,-74.5108333
"Martins, NJ",41.1936111,-74.5944444
"Martins Beach, NJ",40.0083333,-74.8877778
"Martins Landing, NJ",40.4930556,-74.4000000
"Martinsville, NJ",40.6011111,-74.5594444
"Maryland, NJ",40.1527778,-74.3780556
"Maskells Mill, NJ",39.4863889,-75.4013889
"Masonicus, NJ",41.0827778,-74.1266667
"Masonville, NJ",39.9783333,-74.8705556
"Matawan, NJ",40.4147222,-74.2300000
"Matchaponix, NJ",40.3383333,-74.3794444
"Matthews, NJ",40.1569444,-74.2577778
"Maurer, NJ",40.5369444,-74.2694444
"Maurice River, NJ",39.2316667,-75.0291667
"Mauricetown, NJ",39.2858333,-74.9936111
"Maxim, NJ",40.1527778,-74.1819444
"Maxwell, NJ",39.6691667,-74.5463889
"Mayetta, NJ",39.6777778,-74.2733333
"Mays Landing, NJ",39.4522222,-74.7280556
"Mayville, NJ",39.0672222,-74.8319444
"Maywood, NJ",40.9025000,-74.0622222
"McAfee, NJ",41.1783333,-74.5408333
"McCoys Corner, NJ",41.1977778,-74.6305556
"McCrea Mills, NJ",40.6616667,-74.7666667
"McDonald, NJ",39.9066667,-74.5452778
"McKee City, NJ",39.4502778,-74.6411111
"McPherson, NJ",40.6066667,-74.8480556
"Meadford Farms, NJ",39.8636111,-74.7427778
"Meadow Village, NJ",40.8686111,-74.2355556
"Meadowbrook, NJ",39.9786111,-74.7963889
"Meadows Terrace, NJ",40.2422222,-74.6019444
"Mechanicsville, NJ",39.8111111,-75.0686111
"Mechlings Corner, NJ",40.6102778,-74.9883333
"Medford, NJ",39.9008333,-74.8238889
"Medford Lakes, NJ",39.8583333,-74.8033333
"Melrose, NJ",39.8986111,-74.8530556
"Menantico, NJ",39.3608333,-74.9919444
"Mendham, NJ",40.7758333,-74.6011111
"Menlo Park, NJ",40.5650000,-74.3377778
"Menlo Park Terrace, NJ",40.5525000,-74.3238889
"Mercerville, NJ",40.2369444,-74.6869444
"Merchantville, NJ",39.9472222,-75.0669444
"Meriden, NJ",40.9472222,-74.4580556
"Merrygold, NJ",39.6061111,-74.4508333
"Metedeconk, NJ",40.0566667,-74.0838889
"Mettler, NJ",40.4991667,-74.5422222
"Metuchen, NJ",40.5430556,-74.3636111
"Meyersville, NJ",40.6897222,-74.4708333
"Miami Beach, NJ",39.0344444,-74.9372222
"Mickles Mill, NJ",39.4933333,-75.3430556
"Mickleton, NJ",39.7900000,-75.2380556
"Middle Valley, NJ",40.7605556,-74.8208333
"Middlebush, NJ",40.4975000,-74.5297222
"Middlesex, NJ",40.5725000,-74.4930556
"Middlesex Downs, NJ",40.2875000,-74.4041667
"Middletown, NJ",40.3941667,-74.1175000
"Middleville, NJ",41.0558333,-74.8633333
"Midland Park, NJ",40.9891667,-74.1411111
"Midwood, NJ",40.0972222,-74.4186111
"Mile Hollow, NJ",40.1608333,-74.7002778
"Milford, NJ",40.5686111,-75.0950000
"Mill Brook, NJ",40.8644444,-74.5577778
"Millbridge, NJ",39.8069444,-75.0344444
"Millbrook, NJ",41.0733333,-74.9633333
"Millbrook Park, NJ",40.0250000,-74.8894444
"Millburn, NJ",40.7394444,-74.3044444
"Millhurst, NJ",40.2536111,-74.3419444
"Millington, NJ",40.6772222,-74.5180556
"Millside Heights, NJ",40.0072222,-74.9533333
"Millstone, NJ",40.4991667,-74.5891667
"Milltown, NJ",40.4561111,-74.4436111
"Millville, NJ",39.4019444,-75.0397222
"Milmay, NJ",39.4391667,-74.8572222
"Milton, NJ",41.0213889,-74.5361111
"Mine Brook, NJ",40.6930556,-74.6075000
"Mine Hill, NJ",40.8777778,-74.5941667
"Minotola, NJ",39.5186111,-74.9486111
"Mizpah, NJ",39.4866667,-74.8361111
"Moe, NJ",41.1622222,-74.3869444
"Moerls Corner, NJ",40.3605556,-74.3177778
"Monks, NJ",41.1227778,-74.3000000
"Monmouth Beach, NJ",40.3302778,-73.9819444
"Monmouth Heights at Manalapan, NJ",40.3008333,-74.2938889
"Monmouth Heights at Marlboro, NJ",40.3277778,-74.2436111
"Monmouth Hills, NJ",40.4030556,-74.0022222
"Monmouth Junction, NJ",40.3788889,-74.5469444
"Monroe, NJ",40.8127778,-74.4427778
"Monroeville, NJ",39.6288889,-75.1597222
"Montague, NJ",41.3030556,-74.7938889
"Montana, NJ",40.7650000,-75.0677778
"Montclair, NJ",40.8258333,-74.2094444
"Montclair Heights, NJ",40.8575000,-74.2027778
"Monterey Beach, NJ",39.9847222,-74.0677778
"Montgomery, NJ",40.4783333,-74.7541667
"Montrose, NJ",40.3016667,-74.2216667
"Montvale, NJ",41.0466667,-74.0233333
"Montville, NJ",40.9147222,-74.3841667
"Moonachie, NJ",40.8411111,-74.0455556
"Moore, NJ",40.3241667,-74.9150000
"Moores Corner, NJ",39.5544444,-75.4666667
"Moores Mill, NJ",39.8613889,-74.7255556
"Moorestown, NJ",39.9669444,-74.9430556
"Morehousetown, NJ",40.7966667,-74.3413889
"Morgan, NJ",40.4666667,-74.2686111
"Morgan Heights, NJ",40.4625000,-74.2636111
"Morgan Village, NJ",39.9125000,-75.1127778
"Morganville, NJ",40.3763889,-74.2447222
"Morrell Corners, NJ",40.4111111,-74.1908333
"Morris, NJ",39.9872222,-75.0447222
"Morris Beach, NJ",39.3083333,-74.6369444
"Morris Plains, NJ",40.8216667,-74.4813889
"Morristown, NJ",40.7966667,-74.4819444
"Morrisville, NJ",39.9722222,-75.0491667
"Morsemere, NJ",40.8427778,-74.0050000
"Mount, NJ",39.6852778,-74.6061111
"Mount Airy, NJ",40.3986111,-74.9075000
"Mount Arlington, NJ",40.9258333,-74.6352778
"Mount Bethel, NJ",40.6375000,-74.5150000
"Mount Ephraim, NJ",39.8783333,-75.0930556
"Mount Fern, NJ",40.8655556,-74.5788889
"Mount Freedom, NJ",40.8261111,-74.5705556
"Mount Hermon, NJ",40.9247222,-74.9941667
"Mount Holly, NJ",39.9927778,-74.7880556
"Mount Hope, NJ",40.9261111,-74.5430556
"Mount Horeb, NJ",40.6183333,-74.5619444
"Mount Joy, NJ",40.5869444,-75.1872222
"Mount Laurel, NJ",39.9338889,-74.8913889
"Mount Lebanon, NJ",40.7569444,-74.8680556
"Mount Misery, NJ",39.9197222,-74.5233333
"Mount Olive, NJ",40.8513889,-74.7333333
"Mount Pisgah, NJ",41.1508333,-74.7655556
"Mount Pleasant, NJ",39.4013889,-74.5133333
"Mount Rose, NJ",40.3691667,-74.7394444
"Mount Royal, NJ",39.8100000,-75.2116667
"Mount Salem, NJ",40.6080556,-74.9850000
"Mount Vernon, NJ",40.9952778,-75.0330556
"Mountain Lakes, NJ",40.8947222,-74.4333333
"Mountain View, NJ",40.9177778,-74.2663889
"Mountainside, NJ",40.6722222,-74.3577778
"Mountainville, NJ",40.6905556,-74.8119444
"Mounts Mills, NJ",40.3255556,-74.3613889
"Mowers, NJ",39.5866667,-75.3630556
"Muirhead, NJ",40.4513889,-74.8594444
"Mullica Hill, NJ",39.7391667,-75.2244444
"Munion Field, NJ",39.6644444,-74.3922222
"Murphy, NJ",39.6544444,-74.8325000
"Murray Grove, NJ",39.8569444,-74.1780556
"Murray Hill, NJ",40.6952778,-74.4013889
"Myrtle Grove, NJ",41.1072222,-74.7897222
"Mystic Islands, NJ",39.5441667,-74.3827778
"Natco, NJ",40.4397222,-74.1597222
"National Park, NJ",39.8658333,-75.1791667
"Naughright, NJ",40.7966667,-74.7461111
"Navesink, NJ",40.3994444,-74.0358333
"Navesink Beach, NJ",40.3894444,-73.9758333
"Necombtown, NJ",39.3986111,-75.0513889
"Nelsonville, NJ",40.1702778,-74.5352778
"Neptune City, NJ",40.2000000,-74.0283333
"Nesco, NJ",39.6380556,-74.6969444
"Neshanic, NJ",40.4977778,-74.7202778
"Neshanic Station, NJ",40.5080556,-74.7305556
"Netcong, NJ",40.8988889,-74.7069444
"Netherwood, NJ",40.6305556,-74.4125000
"New Albany, NJ",40.0013889,-74.9716667
"New Bedford, NJ",40.1791667,-74.0625000
"New Bridge, NJ",40.9166667,-74.0286111
"New Brooklyn, NJ",39.6930556,-74.9430556
"New Brunswick, NJ",40.4861111,-74.4522222
"New Canton, NJ",40.1869444,-74.5669444
"New Dover, NJ",40.5850000,-74.3436111
"New Durham, NJ",40.7847222,-74.0333333
"New Egypt, NJ",40.0675000,-74.5311111
"New England Crossroads, NJ",39.3611111,-75.2255556
"New Freedom, NJ",39.7586111,-74.9269444
"New Gretna, NJ",39.5922222,-74.4513889
"New Hampton, NJ",40.7219444,-74.9605556
"New Italy, NJ",39.2636111,-75.0575000
"New Lisbon, NJ",39.9580556,-74.6283333
"New Market, NJ",40.5741667,-74.4527778
"New Milford, NJ",40.9350000,-74.0194444
"New Monmouth, NJ",40.4119444,-74.1036111
"New Providence, NJ",40.6983333,-74.4019444
"New Sharon, NJ",39.8083333,-75.1291667
"New Vernon, NJ",40.7452778,-74.4977778
"New Village, NJ",40.7172222,-75.0827778
"Newark, NJ",40.7355556,-74.1727778
"Newark Heights, NJ",40.7341667,-74.2583333
"Newbolds Corner, NJ",39.9630556,-74.7800000
"Newfield, NJ",39.5463889,-75.0252778
"Newfoundland, NJ",41.0463889,-74.4355556
"Newport, NJ",39.2966667,-75.1769444
"Newport Landing, NJ",39.2897222,-75.1977778
"Newstead, NJ",40.7525000,-74.2783333
"Newstead North, NJ",40.7594444,-74.2727778
"Newton, NJ",41.0580556,-74.7530556
"Newton Heights, NJ",40.4327778,-74.3983333
"Newtonville, NJ",39.5588889,-74.8663889
"Newtown, NJ",40.5519444,-74.4608333
"Nixon, NJ",40.5141667,-74.3677778
"Norburys Landing, NJ",39.0502778,-74.9280556
"Norma, NJ",39.4961111,-75.0883333
"Normandie, NJ",40.3797222,-73.9755556
"Normandy Beach, NJ",40.0025000,-74.0608333
"Normanook, NJ",41.1866667,-74.8027778
"North Arlington, NJ",40.7883333,-74.1336111
"North Beach, NJ",39.6791667,-74.1516667
"North Beach Haven, NJ",39.5730556,-74.2319444
"North Bergen, NJ",40.8041667,-74.0125000
"North Branch, NJ",40.6019444,-74.6777778
"North Branch Depot, NJ",40.5897222,-74.6816667
"North Caldwell, NJ",40.8647222,-74.2586111
"North Cape May, NJ",38.9819444,-74.9583333
"North Centerville, NJ",40.4250000,-74.1611111
"North Crosswicks, NJ",40.1588889,-74.6480556
"North Dennis, NJ",39.2011111,-74.8544444
"North Edison, NJ",40.6000000,-74.3777778
"North Hackensack, NJ",40.9147222,-74.0388889
"North Haledon, NJ",40.9550000,-74.1863889
"North Highlands Beach, NJ",39.0150000,-74.9447222
"North Long Branch, NJ",40.3130556,-73.9844444
"North Middletown, NJ",40.4394444,-74.1194444
"North Plainfield, NJ",40.6300000,-74.4277778
"North Port Norris, NJ",39.2686111,-75.0272222
"North Princeton, NJ",40.3638889,-74.6613889
"North Stelton, NJ",40.5369444,-74.4213889
"North Vineland, NJ",39.5261111,-75.0227778
"North Wildwood, NJ",39.0005556,-74.7997222
"North Woodbury, NJ",39.8541667,-75.1363889
"Northfield, NJ",39.3702778,-74.5505556
"Northmont, NJ",39.8833333,-75.0952778
"Northrup, NJ",41.1361111,-74.7175000
"Northvale, NJ",41.0063889,-73.9494444
"Northville, NJ",39.5111111,-75.2047222
"Northwood, NJ",39.9158333,-74.9841667
"Norton, NJ",40.6572222,-74.9794444
"Nortonville, NJ",39.7852778,-75.4063889
"Norwood, NJ",40.9980556,-73.9622222
"Nottingham, NJ",40.2325000,-74.6822222
"Nugentown, NJ",39.6113889,-74.3558333
"Nummytown, NJ",39.0250000,-74.8966667
"Nutley, NJ",40.8222222,-74.1602778
"Oak Glen, NJ",40.1691667,-74.1977778
"Oak Grove, NJ",40.5341667,-74.9547222
"Oak Hill, NJ",40.3816667,-74.0750000
"Oak Island Junction, NJ",40.7122222,-74.1463889
"Oak Ridge, NJ",41.0461111,-74.4863889
"Oak Ridge Estates, NJ",39.9705556,-74.2244444
"Oak Shade, NJ",39.8691667,-74.7333333
"Oak Tree, NJ",40.5777778,-74.3769444
"Oak Valley, NJ",39.8011111,-75.1627778
"Oakhurst, NJ",40.2708333,-74.0166667
"Oakhurst Manor, NJ",40.2602778,-74.0125000
"Oakland, NJ",41.0130556,-74.2647222
"Oakland Mills, NJ",40.2330556,-74.3447222
"Oaklyn, NJ",39.9008333,-75.0850000
"Oakville, NJ",39.3619444,-74.7569444
"Oakwood, NJ",40.1411111,-74.2580556
"Oakwood Beach, NJ",39.5550000,-75.5188889
"Oakwood Lakes, NJ",39.8727778,-74.8319444
"Oakwood Park, NJ",40.7094444,-74.4072222
"Ocean Acres, NJ",39.7433333,-74.2813889
"Ocean Beach, NJ",39.9813889,-74.0666667
"Ocean City, NJ",39.2775000,-74.5750000
"Ocean Gate, NJ",39.9266667,-74.1341667
"Ocean Grove, NJ",40.2119444,-74.0069444
"Ocean Heights, NJ",39.3291667,-74.5877778
"Ocean View, NJ",39.1763889,-74.7338889
"Oceanic, NJ",40.3777778,-74.0111111
"Oceanport, NJ",40.3180556,-74.0155556
"Oceanville, NJ",39.4711111,-74.4608333
"Ogden, NJ",39.8116667,-75.2025000
"Ogdensburg, NJ",41.0816667,-74.5927778
"Old Bridge, NJ",40.4147222,-74.3658333
"Old Mill Farms, NJ",40.3150000,-74.6041667
"Old Tappan, NJ",41.0105556,-73.9916667
"Oldmans, NJ",39.7566667,-75.4305556
"Oldwick, NJ",40.6725000,-74.7477778
"Oliphants Mills, NJ",39.8850000,-74.8333333
"Olivet, NJ",39.5480556,-75.1550000
"Ong, NJ",39.9108333,-74.6211111
"Oradell, NJ",40.9586111,-74.0372222
"Orange, NJ",40.7705556,-74.2330556
"Orchard Center, NJ",39.4769444,-75.2177778
"Orchard Estates, NJ",40.2833333,-74.2472222
"Orchard Heights, NJ",40.4369444,-74.4033333
"Orchard View, NJ",40.0658333,-74.8744444
"Ordmont, NJ",39.7408333,-75.4588889
"Oriental, NJ",39.8155556,-74.7275000
"Ormond, NJ",39.3283333,-74.9533333
"Ortley Beach, NJ",39.9538889,-74.0719444
"Ortley Terrace, NJ",39.9577778,-74.0691667
"Osage, NJ",39.8502778,-75.0072222
"Osborn Mills, NJ",40.7216667,-74.5311111
"Osbornes Mills, NJ",40.1536111,-74.0591667
"Osbornsville, NJ",40.0383333,-74.1080556
"Othello, NJ",39.4125000,-75.3472222
"Outcalt, NJ",40.3772222,-74.4077778
"Overbrook, NJ",39.8177778,-74.9883333
"Overlook, NJ",40.7125000,-74.3519444
"Owens, NJ",41.2636111,-74.5283333
"Oxford, NJ",40.8030556,-74.9900000
"Oyster Creek, NJ",39.5041667,-74.4169444
"Packanack Lake, NJ",40.9425000,-74.2566667
"Pages Corner, NJ",40.2133333,-74.5836111
"Pahaquarry, NJ",40.9850000,-75.1291667
"Palatine, NJ",39.5533333,-75.1813889
"Palermo, NJ",39.2400000,-74.6727778
"Palisades Park, NJ",40.8480556,-73.9980556
"Palmyra, NJ",40.0069444,-75.0286111
"Pancoast, NJ",39.5225000,-74.8711111
"Papakating, NJ",41.1938889,-74.5888889
"Paradise, NJ",39.8391667,-75.2225000
"Paradise Lakes, NJ",39.5263889,-75.3391667
"Paramus, NJ",40.9444444,-74.0758333
"Park Ridge, NJ",41.0375000,-74.0411111
"Park Village, NJ",40.6513889,-74.2911111
"Parkdale, NJ",39.7211111,-74.7602778
"Parker, NJ",40.7583333,-74.7586111
"Parkers Landing, NJ",39.8125000,-75.2097222
"Parkertown, NJ",39.6269444,-74.3152778
"Parkside, NJ",39.9283333,-75.0969444
"Parkville, NJ",39.8147222,-75.1825000
"Parkway Manor, NJ",39.9569444,-74.2152778
"Parkway Pines, NJ",40.1027778,-74.1500000
"Parkway Village, NJ",40.2591667,-74.7888889
"Parlin, NJ",40.4619444,-74.3386111
"Parry, NJ",39.9875000,-75.0102778
"Parsippany, NJ",40.8577778,-74.4263889
"Parsonville, NJ",40.1697222,-74.6972222
"Passaic, NJ",40.8566667,-74.1288889
"Passaic Junction, NJ",40.9022222,-74.1044444
"Paterson, NJ",40.9166667,-74.1722222
"Patricks Corners, NJ",40.4238889,-74.4772222
"Pattenburg, NJ",40.6361111,-75.0166667
"Paulas Corners, NJ",40.4150000,-74.4647222
"Paulding, NJ",39.6091667,-75.2838889
"Paulina, NJ",40.9763889,-74.9441667
"Paulins Kill, NJ",41.0580556,-74.8236111
"Paulsboro, NJ",39.8302778,-75.2408333
"Pavonia, NJ",39.9508333,-75.0875000
"Paynters Crossing, NJ",39.3063889,-75.1219444
"Peahala Park, NJ",39.6019444,-74.2119444
"Peapack, NJ",40.7166667,-74.6569444
"Peapack and Gladstone, NJ",40.7177778,-74.6586111
"Pebble Beach, NJ",39.7652778,-74.1972222
"Pecks Corner, NJ",39.5066667,-75.3488889
"Pedricktown, NJ",39.7672222,-75.4150000
"Pellettown, NJ",41.1613889,-74.6750000
"Pemberton, NJ",39.9719444,-74.6833333
"Pemberton Heights, NJ",39.9625000,-74.6791667
"Penbryn, NJ",39.7625000,-74.9430556
"Penn Place, NJ",39.7425000,-74.4691667
"Pennington, NJ",40.3283333,-74.7911111
"Penns Beach, NJ",39.6419444,-75.5277778
"Penns Grove, NJ",39.7294444,-75.4683333
"Penns Neck, NJ",40.3322222,-74.6372222
"Pennsauken, NJ",39.9561111,-75.0583333
"Pennsville, NJ",39.6533333,-75.5169444
"Penny Pot, NJ",39.5719444,-74.8225000
"Pennypacker Park, NJ",40.0316667,-74.8997222
"Penton, NJ",39.5783333,-75.4019444
"Penwell, NJ",40.7780556,-74.9027778
"Pequannock, NJ",40.9522222,-74.2991667
"Pequest, NJ",40.8297222,-74.9769444
"Perkintown, NJ",39.7333333,-75.4230556
"Perrineville, NJ",40.2283333,-74.4411111
"Perryville, NJ",40.6358333,-74.9697222
"Perth Amboy, NJ",40.5066667,-74.2658333
"Perth Amboy Junction, NJ",40.5980556,-74.2858333
"Pestletown, NJ",39.7041667,-74.8191667
"Petersburg, NJ",39.2536111,-74.7269444
"Phalanx, NJ",40.3175000,-74.1383333
"Pheasant Run, NJ",39.9930556,-74.9638889
"Philips Mills, NJ",40.4227778,-74.1341667
"Phillipsburg, NJ",40.6936111,-75.1905556
"Phoenix, NJ",40.4777778,-74.3133333
"Pierce Heights, NJ",40.6630556,-74.8847222
"Pierces, NJ",39.0652778,-74.8986111
"Pierces Point, NJ",39.0838889,-74.9058333
"Pill Hill, NJ",40.7005556,-74.5911111
"Pine Acres, NJ",40.0419444,-74.1938889
"Pine Beach, NJ",39.9358333,-74.1713889
"Pine Brook, NJ",40.8602778,-74.3408333
"Pine Crest, NJ",39.7963889,-74.5813889
"Pine Grove, NJ",39.8836111,-74.8802778
"Pine Hill, NJ",39.7841667,-74.9925000
"Pine Island, NJ",39.4202778,-75.4255556
"Pine Lake Park, NJ",40.0030556,-74.2569444
"Pine Lane, NJ",40.0305556,-74.6883333
"Pine Ridge at Crestwood, NJ",39.9544444,-74.3155556
"Pine Tavern, NJ",39.6616667,-75.2102778
"Pine Terrace, NJ",40.0080556,-74.1208333
"Pine Valley, NJ",39.7855556,-74.9755556
"Pinehurst, NJ",39.4783333,-74.5500000
"Pines Lake, NJ",40.9916667,-74.2625000
"Pinewald, NJ",39.8955556,-74.1733333
"Piney Hollow, NJ",39.5877778,-74.9277778
"Pinkneyville, NJ",41.0463889,-74.6927778
"Pipers Corner, NJ",39.8327778,-74.7836111
"Piscataway, NJ",40.4991667,-74.3994444
"Pitman, NJ",39.7327778,-75.1319444
"Pittstown, NJ",40.5819444,-74.9594444
"Plainfield, NJ",40.6336111,-74.4077778
"Plains, NJ",41.1405556,-74.7022222
"Plainsboro, NJ",40.3333333,-74.6008333
"Plainsboro Center, NJ",40.3316667,-74.5950000
"Plainville, NJ",39.5925000,-75.0158333
"Plaza Park, NJ",40.0677778,-74.8758333
"Pleasant Grove, NJ",40.7797222,-74.8511111
"Pleasant Hill, NJ",40.8108333,-74.6961111
"Pleasant Mills, NJ",39.6397222,-74.6616667
"Pleasant Plains, NJ",40.4477778,-74.5583333
"Pleasant Run, NJ",40.5613889,-74.7933333
"Pleasant Valley, NJ",40.3666667,-74.2133333
"Pleasant Valley Crossroads, NJ",40.3452778,-74.1952778
"Pleasantdale, NJ",40.8102778,-74.2608333
"Pleasantview, NJ",40.4775000,-74.6558333
"Pleasantville, NJ",39.3897222,-74.5244444
"Pluckemin, NJ",40.6455556,-74.6394444
"Plumbsock, NJ",41.2186111,-74.6711111
"Point Airy, NJ",39.6763889,-75.3197222
"Point Breeze, NJ",40.5061111,-74.9647222
"Point Pleasant, NJ",40.0830556,-74.0686111
"Point Pleasant Beach, NJ",40.0911111,-74.0483333
"Point of Woods, NJ",39.9094444,-74.9577778
"Pointers, NJ",39.5938889,-75.4455556
"Pointville, NJ",40.0036111,-74.6033333
"Pole Tavern, NJ",39.6166667,-75.2294444
"Polhemustown, NJ",40.1505556,-74.5480556
"Polktown, NJ",40.6713889,-74.9458333
"Polkville, NJ",40.9386111,-75.0516667
"Pomona, NJ",39.4783333,-74.5755556
"Pompton, NJ",40.9913889,-74.2800000
"Pompton Junction, NJ",41.0036111,-74.3005556
"Pompton Lakes, NJ",41.0052778,-74.2911111
"Pompton Plains, NJ",40.9680556,-74.2961111
"Porches Mill, NJ",39.7002778,-75.3330556
"Porchtown, NJ",39.5944444,-75.0833333
"Port Colden, NJ",40.7630556,-74.9541667
"Port Elizabeth, NJ",39.3133333,-74.9813889
"Port Johnson, NJ",40.6522222,-74.1166667
"Port Mercer, NJ",40.3041667,-74.6852778
"Port Monmouth, NJ",40.4300000,-74.0988889
"Port Morris, NJ",40.9050000,-74.6852778
"Port Murray, NJ",40.7855556,-74.9163889
"Port Norris, NJ",39.2458333,-75.0355556
"Port Reading, NJ",40.5652778,-74.2608333
"Port Republic, NJ",39.5205556,-74.4861111
"Port Warren, NJ",40.6947222,-75.1408333
"Port-au-Peck, NJ",40.3150000,-74.0083333
"Portertown, NJ",39.6136111,-75.3533333
"Possumtown, NJ",40.5544444,-74.4919444
"Post Corner, NJ",40.2827778,-74.6375000
"Postville, NJ",41.0883333,-74.4158333
"Potato Island, NJ",39.0833333,-74.8625000
"Potters, NJ",40.5936111,-74.3616667
"Potterstown, NJ",40.6422222,-74.7988889
"Pottersville, NJ",40.7136111,-74.7222222
"Powerville, NJ",40.9213889,-74.4272222
"Prallsville, NJ",40.4116667,-74.9869444
"Preakness, NJ",40.9302778,-74.2280556
"Presidential Lake Estates, NJ",39.9163889,-74.5652778
"Presidential Lakes Estates, NJ",39.9136111,-74.5650000
"Princessville, NJ",40.2925000,-74.7080556
"Princeton, NJ",40.3486111,-74.6594444
"Princeton Colonial Park, NJ",40.3019444,-74.6194444
"Princeton Estates, NJ",40.2980556,-74.6127778
"Princeton Ivy East, NJ",40.3000000,-74.6066667
"Princeton Junction, NJ",40.3172222,-74.6202778
"Princeton Meadows, NJ",40.3316667,-74.5641667
"Prospect, NJ",39.7936111,-75.3688889
"Prospect Heights, NJ",40.2480556,-74.7644444
"Prospect Park, NJ",40.9369444,-74.1747222
"Prospect Plains, NJ",40.3238889,-74.4713889
"Prospect Point, NJ",40.9630556,-74.6275000
"Prospertown, NJ",40.1286111,-74.4700000
"Prossers Mills, NJ",39.7541667,-75.0583333
"Pulis Mills, NJ",41.0302778,-74.1766667
"Pullentown, NJ",40.1722222,-74.5480556
"Pumptown, NJ",40.5630556,-74.3736111
"Quaker Gardens, NJ",40.2513889,-74.6838889
"Quakertown, NJ",40.5655556,-74.9419444
"Quarryville, NJ",41.2563889,-74.5800000
"Quinton, NJ",39.5458333,-75.4127778
"Radburn, NJ",40.9425000,-74.1169444
"Rahway, NJ",40.6080556,-74.2780556
"Raines Corner, NJ",39.7119444,-75.4500000
"Ralston, NJ",40.7711111,-74.6255556
"Ramblewood, NJ",39.9286111,-74.9441667
"Rammel Mill, NJ",39.4691667,-75.2425000
"Ramsey, NJ",41.0572222,-74.1413889
"Ramseysburg, NJ",40.8833333,-75.0597222
"Ramtown, NJ",40.1208333,-74.1441667
"Rancocas, NJ",40.0105556,-74.8672222
"Rancocas Heights, NJ",39.9822222,-74.8480556
"Rancocas Woods, NJ",39.9888889,-74.8605556
"Randolphville, NJ",40.5394444,-74.4522222
"Raritan, NJ",40.5694444,-74.6333333
"Raritan Gardens, NJ",40.4863889,-74.4191667
"Raritan Manor, NJ",40.5363889,-74.3369444
"Raven Rock, NJ",40.4108333,-75.0336111
"Readingsburg, NJ",40.6819444,-74.8772222
"Readington, NJ",40.5686111,-74.7380556
"Reaville, NJ",40.4783333,-74.8169444
"Red Bank, NJ",40.3469444,-74.0647222
"Red Hill, NJ",40.3841667,-74.1316667
"Red Lion, NJ",39.8894444,-74.7450000
"Red Mill, NJ",40.7191667,-74.9211111
"Red Oak Grove, NJ",39.8352778,-74.4097222
"Red Valley, NJ",40.1616667,-74.4708333
"Redshaw Corner, NJ",40.3566667,-74.3552778
"Reed Crossing, NJ",39.7980556,-74.9327778
"Reeds Beach, NJ",39.1169444,-74.8913889
"Reega, NJ",39.4325000,-74.6611111
"Reevytown, NJ",40.2405556,-74.1052778
"Remsen Mill, NJ",40.1980556,-74.0702778
"Remsterville, NJ",39.5597222,-75.3377778
"Repaupo, NJ",39.7997222,-75.2991667
"Retreat, NJ",39.9163889,-74.7130556
"Revere Run, NJ",39.7755556,-75.0386111
"Richfield, NJ",40.8688889,-74.1730556
"Richland, NJ",39.4916667,-74.8711111
"Richmantown, NJ",39.6272222,-75.2938889
"Richwood, NJ",39.7225000,-75.1658333
"Riddleton, NJ",39.5944444,-75.3530556
"Ridgedale Park, NJ",40.7666667,-74.4122222
"Ridgefield, NJ",40.8341667,-74.0091667
"Ridgefield Park, NJ",40.8569444,-74.0219444
"Ridgeway, NJ",40.0313889,-74.2844444
"Ridgewood, NJ",40.9791667,-74.1169444
"Ridgewood Junction, NJ",40.9694444,-74.1269444
"Riegel Ridge, NJ",40.6097222,-75.1202778
"Riegelsville, NJ",40.5944444,-75.1875000
"Rileyville, NJ",40.4250000,-74.7922222
"Ringoes, NJ",40.4288889,-74.8680556
"Ringwood, NJ",41.1133333,-74.2458333
"Rio Grande, NJ",39.0144444,-74.8819444
"River Bank, NJ",39.9336111,-74.1575000
"River Edge, NJ",40.9286111,-74.0402778
"River Vale, NJ",40.9952778,-74.0125000
"Rivercrest Manor, NJ",39.9833333,-74.2041667
"Riverdale, NJ",40.9938889,-74.3038889
"Riverside, NJ",40.0322222,-74.9577778
"Riverside Park, NJ",40.0383333,-74.9750000
"Riverton, NJ",40.0113889,-75.0152778
"Rivervale, NJ",41.0094444,-74.0116667
"Riverview Estates, NJ",39.9602778,-74.2233333
"Riverview Manor, NJ",40.5152778,-74.4750000
"Riviera Beach, NJ",40.0977778,-74.1005556
"Riviera on the Barnegat, NJ",39.8491667,-74.1750000
"Riviera on the Bay, NJ",40.0022222,-74.1291667
"Roadstown, NJ",39.4408333,-75.3186111
"Robanna, NJ",39.6852778,-75.0183333
"Robbinsville, NJ",40.2144444,-74.6197222
"Robertsville, NJ",40.3461111,-74.2883333
"Robinsville, NJ",40.2063889,-74.4783333
"Robinvale, NJ",40.5430556,-74.3522222
"Rochelle Park, NJ",40.9072222,-74.0755556
"Rock Mill, NJ",40.4375000,-74.7433333
"Rockaway, NJ",40.9011111,-74.5147222
"Rockaway Valley, NJ",40.9280556,-74.4447222
"Rockefellows Mills, NJ",40.5197222,-74.8211111
"Rockingham, NJ",40.3977778,-74.6194444
"Rockleigh, NJ",41.0002778,-73.9308333
"Rockport, NJ",41.3091667,-74.5986111
"Rocktown, NJ",40.4058333,-74.8616667
"Rockwood, NJ",39.6944444,-74.6916667
"Rocky Hill, NJ",40.3997222,-74.6347222
"Roebling, NJ",40.1158333,-74.7866667
"Roosevelt, NJ",40.2200000,-74.4736111
"Roosevelt City, NJ",39.9380556,-74.3894444
"Roosevelt Park, NJ",39.3780556,-75.0252778
"Rosedale, NJ",39.6500000,-74.8266667
"Rosedale Village, NJ",40.7680556,-74.3958333
"Roseland, NJ",40.8205556,-74.2941667
"Roselle, NJ",40.6641667,-74.2636111
"Roselle Park, NJ",40.6644444,-74.2647222
"Rosemont, NJ",40.4272222,-74.9902778
"Rosenhayn, NJ",39.4780556,-75.1316667
"Roseville, NJ",40.7550000,-74.1911111
"Ross Corner, NJ",41.1200000,-74.7130556
"Rossmoor, NJ",40.3363889,-74.4738889
"Round Top, NJ",40.6197222,-74.5452778
"Rowland Mills, NJ",40.5566667,-74.8541667
"Roxburg, NJ",40.7800000,-75.1000000
"Royce Valley, NJ",40.5352778,-74.6122222
"Roys, NJ",41.1705556,-74.6580556
"Rudeville, NJ",41.1494444,-74.5450000
"Rulon Road, NJ",39.7597222,-75.2969444
"Rumson, NJ",40.3719444,-73.9994444
"Runnemede, NJ",39.8522222,-75.0683333
"Runyon, NJ",40.4341667,-74.3325000
"Russia, NJ",41.0405556,-74.5330556
"Rutgers, NJ",40.4880556,-74.4111111
"Rutherford, NJ",40.8263889,-74.1072222
"Saddle Brook, NJ",40.8988889,-74.0930556
"Saddle River, NJ",41.0316667,-74.1025000
"Saint Cloud, NJ",40.7750000,-74.2741667
"Saint Josephs Village, NJ",41.0058333,-73.9352778
"Saint Vladimirs, NJ",40.1147222,-74.3911111
"Salem, NJ",39.5716667,-75.4675000
"Salem Hill, NJ",40.1583333,-74.2122222
"Salina, NJ",39.7730556,-75.1244444
"Sally Marshall Crossing, NJ",39.0013889,-74.8922222
"Samptown, NJ",40.5813889,-74.4305556
"Sand Brook, NJ",40.4691667,-74.9172222
"Sand Hills, NJ",40.4061111,-74.5472222
"Sands Point, NJ",40.3263889,-74.0036111
"Sandtown, NJ",39.9069444,-74.7886111
"Sandy Ridge, NJ",40.4230556,-74.9527778
"Sarepta, NJ",40.8566667,-75.0300000
"Saxton Falls, NJ",40.8897222,-74.7963889
"Sayerwood South, NJ",40.3972222,-74.3250000
"Sayre Woods, NJ",40.4611111,-74.2916667
"Sayreville, NJ",40.4591667,-74.3613889
"Sayreville Junction, NJ",40.4652778,-74.3308333
"Sayreville Station, NJ",40.4727778,-74.3541667
"Schalks, NJ",40.3425000,-74.5922222
"Schellenger Landing, NJ",38.9486111,-74.9055556
"Schepps Valley, NJ",39.4786111,-75.3588889
"Schooleys Mountain, NJ",40.7991667,-74.8141667
"Scobeyville, NJ",40.2969444,-74.1436111
"Scotch Bonnet, NJ",39.0683333,-74.7883333
"Scotch Plains, NJ",40.6552778,-74.3902778
"Scow Landing, NJ",39.5980556,-74.3400000
"Scrapetown, NJ",39.9477778,-74.6925000
"Scrappy Corner, NJ",40.7619444,-74.8486111
"Scratch Ridge, NJ",39.9691667,-74.7333333
"Scudders Falls, NJ",40.2591667,-74.8372222
"Scull Landing, NJ",39.3655556,-74.7141667
"Scullville, NJ",39.3350000,-74.6433333
"Sea Breeze, NJ",39.3211111,-75.3205556
"Sea Bright, NJ",40.3613889,-73.9744444
"Sea Girt, NJ",40.1319444,-74.0350000
"Sea Isle City, NJ",39.1533333,-74.6933333
"Seabrook, NJ",39.5016667,-75.2194444
"Seabrook Farms, NJ",39.5008333,-75.2183333
"Seaside Heights, NJ",39.9441667,-74.0733333
"Seaside Heights Harbor, NJ",39.9647222,-74.1283333
"Seaside Park, NJ",39.9266667,-74.0775000
"Seaview Park, NJ",39.4422222,-74.4777778
"Seaville, NJ",39.2083333,-74.7044444
"Secaucus, NJ",40.7894444,-74.0569444
"Seeley, NJ",39.4819444,-75.2580556
"Sergeantsville, NJ",40.4458333,-74.9438889
"Seven Stars, NJ",40.0572222,-74.2202778
"Sewaren, NJ",40.5519444,-74.2591667
"Sewell, NJ",39.7663889,-75.1447222
"Shacks Corner, NJ",40.2269444,-74.1950000
"Shady Lawn Manor, NJ",40.7719444,-74.4363889
"Shark River Hills, NJ",40.1938889,-74.0491667
"Sharon, NJ",40.2063889,-74.5363889
"Sharp, NJ",40.0922222,-74.7427778
"Sharps Corner, NJ",39.7997222,-74.9663889
"Sharptown, NJ",39.6555556,-75.3655556
"Shawcrest, NJ",38.9875000,-74.8383333
"Shaws Mill, NJ",39.3105556,-75.1566667
"Shaytown, NJ",41.2583333,-74.7916667
"Shell Pile, NJ",39.2402778,-75.0247222
"Shellbed Landing, NJ",39.0625000,-74.8194444
"Sheppards Mill, NJ",39.4102778,-75.3183333
"Sherbrook Estates, NJ",40.3144444,-74.6150000
"Shiloh, NJ",39.4588889,-75.2994444
"Shinntown, NJ",39.9000000,-74.8444444
"Ship Bottom, NJ",39.6427778,-74.1808333
"Shippenport, NJ",40.8983333,-74.6694444
"Shirley, NJ",39.5694444,-75.2386111
"Shongum, NJ",40.8441667,-74.5333333
"Shore Acres, NJ",40.0252778,-74.1019444
"Shore Hills, NJ",40.9108333,-74.6566667
"Shore Road Estates, NJ",40.3611111,-74.3930556
"Shore View, NJ",40.5902778,-74.3283333
"Short Hills, NJ",40.7477778,-74.3258333
"Shrewsbury, NJ",40.3294444,-74.0619444
"Sicklerville, NJ",39.7172222,-74.9697222
"Sidney, NJ",40.6041667,-74.9225000
"Siloam, NJ",40.1861111,-74.3483333
"Silver Bay, NJ",40.0033333,-74.1233333
"Silver Beach, NJ",39.9958333,-74.0625000
"Silver Ridge, NJ",39.9591667,-74.2188889
"Silver Ridge Park, NJ",39.9611111,-74.2388889
"Silver Springs, NJ",40.9155556,-74.6538889
"Silverton, NJ",40.0158333,-74.1452778
"Silverton Estates, NJ",40.0105556,-74.1491667
"Silverton Pine Terrace, NJ",40.0094444,-74.1300000
"Sim Place, NJ",39.7358333,-74.4211111
"Singac, NJ",40.8866667,-74.2413889
"Sinnickson Landing, NJ",39.5697222,-75.4961111
"Six Points, NJ",39.5313889,-75.1077778
"Sixmile Run, NJ",40.4575000,-74.5119444
"Skillman, NJ",40.4200000,-74.7150000
"Skin Corner, NJ",40.0127778,-74.9352778
"Sky View Manor, NJ",39.9777778,-74.1458333
"Skylands, NJ",41.1269444,-74.2372222
"Slabtown, NJ",39.6183333,-75.2666667
"Slackwoods, NJ",40.2530556,-74.7350000
"Slapes Corner, NJ",39.6397222,-75.4361111
"Smalleytown, NJ",40.6558333,-74.4786111
"Smithburg, NJ",40.2088889,-74.3533333
"Smiths Mills, NJ",41.0144444,-74.3733333
"Smithville, NJ",39.4938889,-74.4575000
"Smocks Corners, NJ",40.3563889,-74.2361111
"Smoke Rise, NJ",40.9952778,-74.4027778
"Snow Hill, NJ",39.8700000,-75.0330556
"Snug Harbor, NJ",39.9916667,-74.1444444
"Snydertown, NJ",40.3986111,-74.8341667
"Society Hill, NJ",40.5338889,-74.4583333
"Somerdale, NJ",39.8438889,-75.0230556
"Somers Point, NJ",39.3175000,-74.5950000
"Somerset, NJ",40.4975000,-74.4888889
"Somerset Park, NJ",40.0477778,-74.8916667
"Somersetin, NJ",40.7400000,-74.5766667
"Somerville, NJ",40.5741667,-74.6102778
"Sooy Place, NJ",39.8675000,-74.6525000
"South Amboy, NJ",40.4777778,-74.2911111
"South Amboy Junction, NJ",40.4916667,-74.2836111
"South Belmar, NJ",40.1708333,-74.0277778
"South Bound Brook, NJ",40.5533333,-74.5319444
"South Branch, NJ",40.5438889,-74.6972222
"South Brunswick Terrace, NJ",40.3791667,-74.5666667
"South Dennis, NJ",39.1783333,-74.8202778
"South Egg Harbor, NJ",39.5211111,-74.6519444
"South Hackensack, NJ",40.8625000,-74.0483333
"South Lakewood, NJ",40.0716667,-74.2458333
"South Mantoloking Beach, NJ",40.0227778,-74.0552778
"South Ogdensburg, NJ",41.0747222,-74.5966667
"South Old Bridge, NJ",40.4080556,-74.3547222
"South Orange, NJ",40.7488889,-74.2616667
"South Park, NJ",39.8261111,-74.6047222
"South Pemberton, NJ",39.9675000,-74.6852778
"South Penns Grove, NJ",39.7216667,-75.4597222
"South Plainfield, NJ",40.5791667,-74.4119444
"South River, NJ",40.4463889,-74.3863889
"South Seaside Park, NJ",39.9105556,-74.0802778
"South Seaville, NJ",39.1788889,-74.7602778
"South Toms River, NJ",39.9419444,-74.2047222
"South Vineland, NJ",39.4458333,-75.0291667
"South Westville, NJ",39.8605556,-75.1319444
"Southard, NJ",40.1383333,-74.2252778
"Southtown, NJ",40.9377778,-74.8950000
"Sparta, NJ",41.0333333,-74.6388889
"Sparta Junction, NJ",41.0641667,-74.6716667
"Speedwell, NJ",39.7630556,-74.5458333
"Sperry Springs, NJ",40.9555556,-74.6488889
"Spotswood, NJ",40.3916667,-74.3988889
"Spotswood Manor, NJ",40.3777778,-74.3833333
"Spraguetown, NJ",39.6500000,-74.3058333
"Spray Beach, NJ",39.5783333,-74.2300000
"Spring Lake, NJ",40.1533333,-74.0286111
"Spring Lake Heights, NJ",40.1502778,-74.0313889
"Spring Mill, NJ",40.1741667,-74.6030556
"Spring Mills, NJ",40.5941667,-75.1169444
"Spring Valley, NJ",40.3708333,-74.2780556
"Springdale, NJ",39.9025000,-74.9666667
"Springfield, NJ",40.7230556,-74.3111111
"Springside, NJ",40.0602778,-74.8508333
"Springtown, NJ",39.4141667,-75.3319444
"Springville, NJ",39.9372222,-74.8683333
"Spruce Gardens, NJ",40.0691667,-74.2094444
"Spruce Run, NJ",40.7086111,-74.9225000
"Squankum, NJ",40.1661111,-74.1541667
"Stafford Forge, NJ",39.6669444,-74.3197222
"Staffordville, NJ",39.6661111,-74.2811111
"Staffordville Public Landing, NJ",39.6558333,-74.2705556
"Stanhope, NJ",40.9027778,-74.7094444
"Stanton, NJ",40.5750000,-74.8380556
"Stanwick, NJ",39.9730556,-74.9369444
"Stanwick Glen, NJ",39.9791667,-74.9394444
"Star Cross, NJ",39.6463889,-75.0155556
"Staten Island Junction, NJ",40.6588889,-74.2875000
"Steelman Landing, NJ",39.3777778,-74.7322222
"Steelmantown, NJ",39.2666667,-74.8019444
"Steelmanville, NJ",39.3341667,-74.5947222
"Steels Corner, NJ",39.5813889,-75.1925000
"Stelton, NJ",40.5141667,-74.4038889
"Stephensburg, NJ",40.7930556,-74.8733333
"Sterling Woods, NJ",40.1055556,-74.0850000
"Stevens, NJ",40.0886111,-74.8252778
"Stewartsville, NJ",40.6936111,-75.1113889
"Still Valley, NJ",40.6738889,-75.1388889
"Stillwater, NJ",41.0358333,-74.8786111
"Stirling, NJ",40.6719444,-74.4952778
"Stockholm, NJ",41.0894444,-74.5175000
"Stockington, NJ",39.5650000,-75.3194444
"Stockton, NJ",40.4077778,-74.9786111
"Stone Church, NJ",40.3980556,-74.0202778
"Stone Harbor, NJ",39.0508333,-74.7583333
"Stone Harbor Manor, NJ",39.0597222,-74.7700000
"Stone Mill, NJ",40.6813889,-74.8800000
"Stone Tavern, NJ",40.1888889,-74.4716667
"Stonehurst East, NJ",40.2300000,-74.2875000
"Stonehurst West, NJ",40.2300000,-74.3041667
"Stonetown, NJ",41.0950000,-74.3038889
"Stony Hill, NJ",40.6702778,-74.4277778
"Stoutsburg, NJ",40.3986111,-74.7358333
"Stow Acres, NJ",39.9102778,-74.9144444
"Stow Creek Landing, NJ",39.4425000,-75.4088889
"Stoys Landing, NJ",39.9163889,-75.0347222
"Stratford, NJ",39.8266667,-75.0158333
"Strathmere, NJ",39.1955556,-74.6583333
"Strathmore, NJ",40.3958333,-74.2138889
"Sturwood Hamlet, NJ",40.2733333,-74.7425000
"Suburban Park, NJ",39.9661111,-74.2319444
"Succasunna, NJ",40.8683333,-74.6408333
"Summerfield, NJ",40.7875000,-75.0433333
"Summit, NJ",40.7413889,-74.3600000
"Summit East, NJ",39.9777778,-74.2444444
"Sunnyside, NJ",40.5816667,-74.8800000
"Sunset Beach, NJ",38.9458333,-74.9708333
"Sunset Hill Garden, NJ",40.4366667,-74.5875000
"Surf City, NJ",39.6619444,-74.1655556
"Surrey Place, NJ",39.9322222,-74.9961111
"Sussex, NJ",41.2097222,-74.6080556
"Sussex Mills, NJ",41.0513889,-74.6808333
"Sutton Park, NJ",40.8250000,-74.7055556
"Swain, NJ",39.1252778,-74.8005556
"Swainton, NJ",39.1313889,-74.7777778
"Swartswood, NJ",41.0869444,-74.8275000
"Swayzes Mills, NJ",40.8966667,-74.9975000
"Swedesboro, NJ",39.7475000,-75.3108333
"Sweetman, NJ",40.2194444,-74.3880556
"Sweetwater, NJ",39.6263889,-74.6497222
"Swinesburg, NJ",40.6386111,-75.0577778
"Sykesville, NJ",40.0636111,-74.6188889
"Sylvan Glen, NJ",40.1783333,-74.7050000
"Tabernacle, NJ",39.8438889,-74.7105556
"Tabor, NJ",40.8711111,-74.4802778
"Tanners Corners, NJ",40.4380556,-74.3930556
"Tansboro, NJ",39.7688889,-74.9200000
"Taunton Lake, NJ",39.8505556,-74.8491667
"Tavistock, NJ",39.8761111,-75.0300000
"Taylors Mills, NJ",40.2966667,-74.3405556
"Taylortown, NJ",40.9377778,-74.3950000
"Teaneck, NJ",40.8975000,-74.0163889
"Ten Mile Run, NJ",40.4138889,-74.5736111
"Tenafly, NJ",40.9252778,-73.9633333
"Tennent, NJ",40.2794444,-74.3347222
"Terrestria, NJ",39.7633333,-75.0333333
"Teterboro, NJ",40.8597222,-74.0597222
"Texas, NJ",39.9425000,-74.9344444
"Thachers Hill, NJ",40.5258333,-74.8783333
"The Maples, NJ",39.9075000,-74.9250000
"The Orchards, NJ",40.2388889,-74.6975000
"Thelma, NJ",39.4150000,-74.6563889
"Thompsontown, NJ",39.4163889,-74.7091667
"Thorofare, NJ",39.8422222,-75.1966667
"Three Bridges, NJ",40.5197222,-74.7997222
"Tierneys Corner, NJ",40.9588889,-74.5977778
"Tilghmans Corner, NJ",40.0605556,-74.6325000
"Timbuctoo, NJ",40.0030556,-74.8144444
"Tindells Landing, NJ",39.3763889,-75.2458333
"Tinton Falls, NJ",40.3041667,-74.1008333
"Titusville, NJ",40.3094444,-74.8808333
"Tomlin, NJ",39.7780556,-75.2727778
"Tomlinson Mill, NJ",39.8672222,-74.8950000
"Toms River, NJ",39.9536111,-74.1983333
"Totowa, NJ",40.9050000,-74.2102778
"Towaco, NJ",40.9219444,-74.3458333
"Town Bank, NJ",38.9875000,-74.9536111
"Town Brook, NJ",40.3922222,-74.1000000
"Town Estates, NJ",40.0586111,-74.8677778
"Townsbury, NJ",40.8508333,-74.9338889
"Townsends Inlet, NJ",39.1263889,-74.7116667
"Tracy, NJ",40.3027778,-74.3838889
"Tranquility, NJ",40.9561111,-74.8088889
"Tremley, NJ",40.6130556,-74.2302778
"Tremley Point, NJ",40.6016667,-74.2052778
"Tremont Park, NJ",40.7050000,-74.3538889
"Trenton, NJ",40.2169444,-74.7433333
"Trenton Gardens, NJ",40.1972222,-74.6997222
"Troy Hills, NJ",40.8527778,-74.3925000
"Tuckahoe, NJ",39.2900000,-74.7541667
"Tuckerton, NJ",39.6030556,-74.3405556
"Tumble Falls, NJ",40.4536111,-75.0625000
"Turkey Point Corner, NJ",39.2827778,-75.1327778
"Turnersville, NJ",39.7730556,-75.0516667
"Tuttles Corner, NJ",41.1980556,-74.8030556
"Twin Hill Park, NJ",40.0083333,-74.8777778
"Twin Rivers, NJ",40.2638889,-74.4916667
"Two Bridges, NJ",40.8955556,-74.2775000
"Twombly Landing, NJ",40.9625000,-73.9133333
"Tylertown, NJ",39.6547222,-74.6094444
"Tyndall Village, NJ",39.8922222,-75.0213889
"Ukrainian Village, NJ",40.5277778,-74.5133333
"Undercliff, NJ",40.8880556,-73.9411111
"Undercliff Junction, NJ",40.8286111,-74.0244444
"Union, NJ",40.6975000,-74.2636111
"Union Beach, NJ",40.4463889,-74.1786111
"Union City, NJ",40.7794444,-74.0241667
"Union Grove, NJ",39.6408333,-75.2825000
"Union Hill, NJ",40.8672222,-74.5225000
"Union Landing, NJ",40.0219444,-74.9966667
"Union Mills, NJ",39.9722222,-74.8563889
"Union Square, NJ",40.6586111,-74.2027778
"Union Valley, NJ",40.3036111,-74.4563889
"Union Village, NJ",40.6666667,-74.4558333
"Unionburg, NJ",40.7052778,-74.2816667
"Uniontown, NJ",40.7205556,-75.1408333
"Unionville, NJ",39.5269444,-74.5016667
"Upper Greenwood Lake, NJ",41.1816667,-74.3825000
"Upper Longwood, NJ",40.9772222,-74.5458333
"Upper Macopin, NJ",41.0850000,-74.3861111
"Upper Mill, NJ",39.9125000,-74.5738889
"Upper Mohawk, NJ",41.0311111,-74.6636111
"Upper Montclair, NJ",40.8461111,-74.2016667
"Upper Montvale, NJ",41.0605556,-74.0525000
"Upper Saddle River, NJ",41.0583333,-74.0988889
"Upton, NJ",39.9347222,-74.5244444
"Uttertown, NJ",41.1266667,-74.4166667
"Vail, NJ",40.9627778,-75.0205556
"Valentine, NJ",40.5308333,-74.3258333
"Valley, NJ",40.6672222,-75.0325000
"Van Dorans Mills, NJ",40.7313889,-74.5411111
"Van Hiseville, NJ",40.1116667,-74.3430556
"Van Marters Corner, NJ",40.4375000,-74.1805556
"Van Syckel, NJ",40.6497222,-74.9708333
"Van Syckles, NJ",41.2708333,-74.5783333
"Vanderburg, NJ",40.3141667,-74.1894444
"Vauxhall, NJ",40.7313889,-74.2833333
"Venice Park, NJ",39.3763889,-74.4455556
"Ventnor City, NJ",39.3402778,-74.4777778
"Ventnor Heights, NJ",39.3494444,-74.4850000
"Verga, NJ",39.8611111,-75.1591667
"Vernon, NJ",41.1983333,-74.4836111
"Vernon Valley, NJ",41.2366667,-74.4875000
"Vernoy, NJ",40.7352778,-74.8269444
"Verona, NJ",40.8297222,-74.2405556
"Victory Gardens, NJ",40.8758333,-74.5427778
"Victory Lakes, NJ",39.6330556,-74.9663889
"Vienna, NJ",40.8686111,-74.8894444
"Vienna Gardens, NJ",39.5111111,-74.6227778
"Villa Madonna, NJ",40.9144444,-74.8127778
"Villa Marie Claire, NJ",41.0136111,-74.1019444
"Villa Park, NJ",40.1436111,-74.0425000
"Village of Glen Oaks, NJ",39.8233333,-75.0380556
"Villas, NJ",39.0286111,-74.9388889
"Vincentown, NJ",39.9338889,-74.7488889
"Vineland, NJ",39.4861111,-75.0261111
"Vista Center, NJ",40.1591667,-74.3183333
"Vliettown, NJ",40.6822222,-74.7172222
"Voorhees, NJ",40.4811111,-74.4836111
"Voorhees Corner, NJ",40.5025000,-74.8091667
"Wading River, NJ",39.6152778,-74.5044444
"Waldwick, NJ",41.0105556,-74.1183333
"Walkers Forge, NJ",39.4405556,-74.7561111
"Wallace Mill, NJ",40.1072222,-74.6311111
"Wallington, NJ",40.8530556,-74.1141667
"Wallpack Center, NJ",41.1588889,-74.8805556
"Walnford, NJ",40.1344444,-74.5602778
"Walnut Valley, NJ",40.9758333,-75.0230556
"Wanamassa, NJ",40.2316667,-74.0258333
"Wanaque, NJ",41.0380556,-74.2944444
"Wanaque-Midvale, NJ",41.0513889,-74.2891667
"Wantage, NJ",41.2441667,-74.5511111
"Warbasse, NJ",41.0836111,-74.7000000
"Waretown, NJ",39.7913889,-74.1955556
"Waretown Junction, NJ",39.7788889,-74.2050000
"Warner Village, NJ",40.2336111,-74.7261111
"Warners Mill, NJ",39.3138889,-74.8066667
"Warren Glen, NJ",40.6327778,-75.1352778
"Warren Grove, NJ",39.7463889,-74.3708333
"Warren Point, NJ",40.9269444,-74.1083333
"Warrenville, NJ",40.6150000,-74.4963889
"Warrington, NJ",40.9313889,-75.0844444
"Washington, NJ",40.7583333,-74.9797222
"Washington Corner, NJ",40.7680556,-74.5633333
"Washington Crossing, NJ",40.2966667,-74.8672222
"Washington Heights, NJ",40.4550000,-74.4100000
"Washington Park, NJ",40.5138889,-74.3986111
"Washington Valley, NJ",40.8055556,-74.5275000
"Washingtonville, NJ",41.0977778,-74.7513889
"Watchung, NJ",40.6377778,-74.4513889
"Waterford Works, NJ",39.7230556,-74.8494444
"Waterloo, NJ",40.3561111,-73.9875000
"Waterwitch, NJ",40.4063889,-73.9977778
"Watson Corner, NJ",39.5686111,-75.2900000
"Watsons Corner, NJ",39.2944444,-75.1650000
"Wawayanda, NJ",41.0113889,-74.7386111
"Wayne, NJ",40.9252778,-74.2769444
"Wayside, NJ",40.2566667,-74.0750000
"Webbs Mill, NJ",39.8897222,-74.3802778
"Weber Park, NJ",40.2450000,-74.7736111
"Weehawken, NJ",40.7694444,-74.0208333
"Weeks Landing, NJ",38.9897222,-74.8833333
"Weekstown, NJ",39.5919444,-74.6033333
"Weirtown, NJ",40.9047222,-74.8225000
"Welchville, NJ",39.6008333,-75.4225000
"Weldon, NJ",40.9919444,-74.5883333
"Wellington Park, NJ",39.9952778,-74.9808333
"Wells Mills, NJ",39.7941667,-74.2761111
"Wellwood, NJ",39.9527778,-75.0494444
"Wenonah, NJ",39.7944444,-75.1491667
"Wertheins Corner, NJ",40.2516667,-74.0402778
"Wertsville, NJ",40.4497222,-74.7980556
"Wescoatville, NJ",39.6397222,-74.7202778
"West Allenhurst, NJ",40.2383333,-74.0122222
"West Atco, NJ",39.7458333,-74.8913889
"West Atlantic City, NJ",39.3777778,-74.4897222
"West Belmar, NJ",40.1691667,-74.0358333
"West Bergen, NJ",40.7125000,-74.0836111
"West Berlin, NJ",39.8086111,-74.9416667
"West Caldwell, NJ",40.8408333,-74.3022222
"West Cape May, NJ",38.9386111,-74.9422222
"West Carteret, NJ",40.5944444,-74.2466667
"West Collingswood, NJ",39.9061111,-75.0933333
"West Collingswood Heights, NJ",39.8941667,-75.0969444
"West Creek, NJ",39.6344444,-74.3075000
"West Deal, NJ",40.2416667,-74.0291667
"West Egg Harbor, NJ",39.5161111,-74.6669444
"West End, NJ",40.2861111,-73.9988889
"West Englewood, NJ",40.9019444,-74.0036111
"West Farms, NJ",40.1919444,-74.2016667
"West Freehold, NJ",40.2419444,-74.3016667
"West Grove, NJ",40.2111111,-74.0363889
"West Haddonfield, NJ",39.9016667,-75.0411111
"West Long Branch, NJ",40.2902778,-74.0180556
"West Mahwah, NJ",41.1027778,-74.1519444
"West Mantoloking, NJ",40.0441667,-74.0736111
"West Milford, NJ",41.1311111,-74.3677778
"West Moorestown, NJ",39.9602778,-74.9558333
"West New York, NJ",40.7877778,-74.0147222
"West Orange, NJ",40.7986111,-74.2394444
"West Paterson, NJ",40.8897222,-74.1952778
"West Portal, NJ",40.6622222,-75.0336111
"West Shrewsbury, NJ",40.3158333,-74.0855556
"West Trenton, NJ",40.2638889,-74.8188889
"West Tuckerton, NJ",39.6013889,-74.3538889
"West Tuckerton Landing, NJ",39.5958333,-74.3425000
"West View, NJ",40.8650000,-74.0280556
"West Village, NJ",39.5019444,-75.2269444
"West Wildwood, NJ",39.0022222,-74.8247222
"Westcotville, NJ",39.8261111,-75.1158333
"Westfield, NJ",40.6588889,-74.3477778
"Westmont, NJ",39.9097222,-75.0483333
"Weston, NJ",40.5350000,-74.5911111
"Westons Mills, NJ",40.4852778,-74.4127778
"Westville, NJ",39.8677778,-75.1319444
"Westville Grove, NJ",39.8563889,-75.1180556
"Westwood, NJ",40.9911111,-74.0330556
"Wexford East, NJ",39.8972222,-74.9627778
"Weymouth, NJ",39.5150000,-74.7791667
"Wharton, NJ",40.8930556,-74.5822222
"Wheat Road, NJ",39.5116667,-74.9741667
"Wheatland, NJ",39.8950000,-74.4341667
"Whig Lane, NJ",39.6394444,-75.2291667
"Whippany, NJ",40.8244444,-74.4175000
"White Horse, NJ",40.1905556,-74.7027778
"White House Station, NJ",40.6161111,-74.7725000
"White Meadow Lake, NJ",40.9236111,-74.5111111
"White Oak Bottom, NJ",40.0205556,-74.1994444
"White Oak Ridge, NJ",40.7458333,-74.3347222
"Whitehall, NJ",40.9644444,-74.7397222
"Whitehouse, NJ",40.6183333,-74.7447222
"Whitehouse Station, NJ",40.6152778,-74.7708333
"Whitesbog, NJ",39.9591667,-74.5097222
"Whitesboro, NJ",39.0388889,-74.8572222
"Whitesville, NJ",40.2208333,-74.0358333
"Whiting, NJ",39.9544444,-74.3788889
"Whitman Park, NJ",39.9319444,-75.1158333
"Whitman Square, NJ",39.7458333,-75.0347222
"Whittier Oaks, NJ",40.3236111,-74.3216667
"Wickatunk, NJ",40.3500000,-74.2483333
"Wilburtha, NJ",40.2519444,-74.8327778
"Wildwood, NJ",38.9916667,-74.8152778
"Wildwood Crest, NJ",38.9747222,-74.8338889
"Wildwood Gables, NJ",38.9655556,-74.8463889
"Wildwood Gardens, NJ",39.0266667,-74.8663889
"Wildwood Highlands Beach, NJ",39.0130556,-74.9466667
"Wildwood Junction, NJ",39.0297222,-74.8658333
"Wileys Corners, NJ",40.2569444,-74.0927778
"Williams, NJ",40.0966667,-74.1327778
"Williamstown, NJ",39.6861111,-74.9955556
"Williamstown Junction, NJ",39.7466667,-74.9288889
"Willingboro, NJ",40.0277778,-74.8694444
"Willis Corner, NJ",39.4347222,-75.3761111
"Willow Brook, NJ",41.2105556,-74.3841667
"Willow Grove, NJ",39.5541667,-75.0791667
"Willow Ridge, NJ",39.8700000,-74.9083333
"Willowdale, NJ",39.8805556,-74.9822222
"Wilsons Landing, NJ",39.4283333,-74.7130556
"Winding River Village, NJ",40.1052778,-74.1008333
"Windor Park, NJ",39.9575000,-74.1180556
"Windsor, NJ",40.2422222,-74.5816667
"Windsor Park, NJ",39.9283333,-75.0091667
"Winfield, NJ",40.6425000,-74.2858333
"Winslow, NJ",39.6572222,-74.8627778
"Winslow Junction, NJ",39.6650000,-74.8477778
"Winston Park, NJ",40.1575000,-74.2397222
"Wintringham Park, NJ",39.9716667,-74.2077778
"Wolfert, NJ",39.7838889,-75.2613889
"Wood-Lynne, NJ",39.9172222,-75.0966667
"Wood-Ridge, NJ",40.8455556,-74.0883333
"Woodair Estates, NJ",40.0883333,-74.4000000
"Woodbine, NJ",39.2416667,-74.8155556
"Woodbine Junction, NJ",39.2347222,-74.7930556
"Woodbourne, NJ",41.2044444,-74.6433333
"Woodbridge, NJ",40.5575000,-74.2850000
"Woodbridge Oaks, NJ",40.5825000,-74.3338889
"Woodbury, NJ",39.8380556,-75.1530556
"Woodbury Gardens, NJ",39.8416667,-75.1375000
"Woodbury Heights, NJ",39.8169444,-75.1555556
"Woodcliff Lake, NJ",41.0233333,-74.0669444
"Woodcrest, NJ",39.8722222,-74.9988889
"Woodcrest Acres, NJ",39.8591667,-74.9819444
"Woodfern, NJ",40.5086111,-74.7580556
"Woodglen, NJ",40.7191667,-74.8880556
"Woodland Park, NJ",40.7027778,-74.3791667
"Woodlane, NJ",40.0116667,-74.8019444
"Woodlawn Estates, NJ",39.9736111,-74.2050000
"Woodmansie, NJ",39.8677778,-74.4669444
"Woodmere, NJ",40.0880556,-74.3211111
"Woodport, NJ",40.9852778,-74.6108333
"Woodruff, NJ",39.4686111,-75.1861111
"Woodruffs Gap, NJ",41.0713889,-74.6555556
"Woods Mills, NJ",39.6213889,-75.2588889
"Woods Tavern, NJ",40.5022222,-74.6450000
"Woods Upper Mill, NJ",39.5000000,-75.3783333
"Woodstock, NJ",40.9952778,-74.5263889
"Woodstown, NJ",39.6513889,-75.3286111
"Woodstream, NJ",39.9019444,-74.9477778
"Woodsville, NJ",40.3802778,-74.8291667
"Woodville, NJ",39.9883333,-74.1477778
"Wortendyke, NJ",40.9975000,-74.1505556
"Wrangell Brook Park, NJ",39.9600000,-74.2841667
"Wrights Mill, NJ",39.6847222,-75.1763889
"Wrightstown, NJ",40.0361111,-74.6183333
"Wrightsville, NJ",39.9850000,-74.9988889
"Wyckoff, NJ",41.0094444,-74.1733333
"Wyckoff Mills, NJ",40.2033333,-74.2561111
"Wyckoffs Mills, NJ",40.2797222,-74.4861111
"Wykertown, NJ",41.1738889,-74.7005556
"Wyoming, NJ",40.7291667,-74.2916667
"Yardley Village, NJ",40.7697222,-74.4133333
"Yardville, NJ",40.1811111,-74.6647222
"Yardville Heights, NJ",40.1833333,-74.6861111
"Yorketown, NJ",40.3077778,-74.3380556
"Yorktown, NJ",39.6125000,-75.3052778
"Zarephath, NJ",40.5363889,-74.5750000
"Zion, NJ",40.4405556,-74.7388889
