name,lat,lon
"Achille, OK",33.8333333,-96.3869444
"Acme, OK",34.7988889,-98.0188889
"Ada, OK",34.7744444,-96.6780556
"Adair, OK",36.4366667,-95.2711111
"Adams, OK",36.7563889,-101.0766667
"Adamson, OK",34.9238889,-95.5469444
"Addielee, OK",35.9588889,-94.6366667
"Addington, OK",34.2444444,-97.9666667
"Adel, OK",34.5791667,-95.5941667
"Afton, OK",36.6936111,-94.9627778
"Agawam, OK",34.8733333,-97.9458333
"Agra, OK",35.8947222,-96.8719444
"Ahloso, OK",34.7350000,-96.6372222
"Akins, OK",35.5069444,-94.6905556
"Albany, OK",33.8813889,-96.1625000
"Albert, OK",35.2327778,-98.4111111
"Albion, OK",34.6627778,-95.0997222
"Alcorn, OK",36.6130556,-97.3927778
"Alden, OK",34.9752778,-98.5850000
"Alderson, OK",34.9000000,-95.6916667
"Aledo, OK",35.8272222,-99.1238889
"Alex, OK",34.9147222,-97.7783333
"Alfalfa, OK",35.2188889,-98.6069444
"Alikchi, OK",34.1627778,-95.0688889
"Aline, OK",36.5097222,-98.4486111
"Allen, OK",34.8788889,-96.4122222
"Allison, OK",33.8958333,-96.3713889
"Alluwe, OK",36.6102778,-95.4869444
"Alma, OK",34.4194444,-97.6119444
"Alpers, OK",34.4925000,-97.3869444
"Alpha, OK",35.8702778,-98.1000000
"Alston, OK",36.4361111,-99.2900000
"Alsuma, OK",36.0950000,-95.8633333
"Altona, OK",35.7830556,-98.1708333
"Altus, OK",34.6380556,-99.3336111
"Alva, OK",36.8050000,-98.6661111
"Amabel, OK",36.0108333,-96.8377778
"Amber, OK",35.1602778,-97.8788889
"America, OK",33.8152778,-94.5483333
"Ames, OK",36.2458333,-98.1850000
"Amorita, OK",36.9244444,-98.2913889
"Anadarko, OK",35.0725000,-98.2433333
"Anchor, OK",35.8355556,-95.4027778
"Anderson, OK",35.8263889,-96.9900000
"Anthon, OK",35.7402778,-99.0127778
"Antioch, OK",34.7250000,-97.4052778
"Antlers, OK",34.2311111,-95.6200000
"Apache, OK",34.8936111,-98.3655556
"Apache Wye, OK",35.0436111,-98.3563889
"Apperson, OK",36.7511111,-96.7658333
"Apple, OK",34.1275000,-95.4172222
"Aqua Park, OK",35.6202778,-95.0758333
"Arapaho, OK",35.5777778,-98.9641667
"Arcadia, OK",35.6666667,-97.3263889
"Arch, OK",34.7744444,-95.6608333
"Ardmore, OK",34.1741667,-97.1433333
"Arkoma, OK",35.3544444,-94.4338889
"Arlington, OK",35.5788889,-96.6794444
"Armstrong, OK",34.0513889,-96.3450000
"Arnett, OK",36.1350000,-99.7744444
"Aron, OK",35.6825000,-96.5119444
"Arpelar, OK",34.9419444,-95.9652778
"Artillery Village, OK",34.6388889,-98.4136111
"Asher, OK",34.9894444,-96.9233333
"Ashland, OK",34.7677778,-96.0694444
"Ashley, OK",36.8044444,-98.5244444
"Asphaltum, OK",34.2600000,-97.6747222
"Atlee, OK",34.0933333,-97.6322222
"Atoka, OK",34.3858333,-96.1280556
"Atwood, OK",34.9561111,-96.3383333
"Autwine, OK",36.7219444,-97.2297222
"Avant, OK",36.4894444,-96.0619444
"Avard, OK",36.6988889,-98.7886111
"Avery, OK",35.8841667,-96.7519444
"Avoca, OK",35.0138889,-96.9302778
"Aydelotte, OK",35.4441667,-96.9113889
"Aylesworth, OK",34.0280556,-96.6263889
"Babbs, OK",34.9483333,-99.0591667
"Bache, OK",34.8941667,-95.6483333
"Bacone, OK",35.7669444,-95.3400000
"Bado, OK",36.2169444,-98.7425000
"Bailey, OK",34.7161111,-97.7977778
"Baker, OK",36.8694444,-101.0175000
"Bald Hill, OK",35.7402778,-95.8369444
"Baldridge, OK",35.3619444,-94.6197222
"Balko, OK",36.6300000,-100.6844444
"Ballard, OK",36.0944444,-94.5891667
"Ballou, OK",36.1458333,-95.1900000
"Banner, OK",35.5127778,-97.8486111
"Banty, OK",34.0697222,-96.0947222
"Banzet, OK",36.9427778,-95.2513889
"Barber, OK",35.7572222,-94.8675000
"Barnsdall, OK",36.5619444,-96.1613889
"Baron, OK",35.9236111,-94.6161111
"Barr, OK",36.2325000,-98.0333333
"Bartlesville, OK",36.7472222,-95.9805556
"Battiest, OK",34.3933333,-94.9247222
"Baugh, OK",36.2188889,-96.3172222
"Baum, OK",34.2680556,-96.9805556
"Beachton, OK",34.4905556,-94.5663889
"Bearden, OK",35.3480556,-96.3883333
"Beaver, OK",36.8161111,-100.5194444
"Bebee, OK",34.8450000,-96.7913889
"Beckwith, OK",36.1969444,-94.7097222
"Bedwell, OK",35.1597222,-94.7166667
"Bee, OK",34.1219444,-96.5719444
"Beggs, OK",35.7425000,-96.0700000
"Beland, OK",35.6916667,-95.5355556
"Belfonte, OK",35.5441667,-94.5547222
"Bell, OK",35.7180556,-94.5758333
"Bellemont, OK",35.4630556,-96.7708333
"Belleville, OK",33.9255556,-97.5433333
"Bellvue, OK",35.9008333,-96.3869444
"Belva, OK",36.4988889,-98.9747222
"Belzoni, OK",34.1855556,-95.4652778
"Bender, OK",36.9330556,-97.1372222
"Bengal, OK",34.8327778,-95.0616667
"Bennington, OK",34.0044444,-96.0375000
"Bentley, OK",34.2147222,-96.0786111
"Berch Hole, OK",35.8272222,-95.1008333
"Berlin, OK",35.4505556,-99.6250000
"Bernice, OK",36.6158333,-94.9175000
"Bessie, OK",35.3858333,-98.9877778
"Bethany, OK",35.5186111,-97.6319444
"Bethel, OK",34.3597222,-94.8372222
"Bethel Acres, OK",35.3086111,-97.0252778
"Big Cabin, OK",36.5377778,-95.2211111
"Big Cedar, OK",34.6458333,-94.6486111
"Big Rocks, OK",34.2294444,-95.5727778
"Bigheart, OK",36.8516667,-96.2255556
"Billings, OK",36.5288889,-97.4436111
"Bills Corner, OK",36.2900000,-97.0672222
"Binger, OK",35.3088889,-98.3416667
"Bison, OK",36.1963889,-97.8897222
"Bixby, OK",35.9419444,-95.8830556
"Black Bear, OK",36.3405556,-97.2194444
"Blackburn, OK",36.3730556,-96.5958333
"Blackgum, OK",35.6097222,-94.9894444
"Blackjack, OK",35.4305556,-94.6375000
"Blackland, OK",36.8291667,-96.4919444
"Blackwell, OK",36.8044444,-97.2825000
"Blair, OK",34.7794444,-99.3350000
"Blanch, OK",35.7830556,-94.6658333
"Blanchard, OK",35.1377778,-97.6577778
"Blanco, OK",34.7511111,-95.7741667
"Blanton, OK",36.4277778,-97.9266667
"Blocker, OK",35.0613889,-95.5680556
"Bloomington, OK",35.0016667,-99.6305556
"Blue, OK",33.9963889,-96.2297222
"Bluejacket, OK",36.7997222,-95.0708333
"Bluff, OK",33.9397222,-95.6927778
"Boatman, OK",36.2583333,-95.1841667
"Boehler, OK",34.1708333,-95.8833333
"Boise City, OK",36.7294444,-102.5127778
"Bokchito, OK",34.0172222,-96.1425000
"Bokhoma, OK",33.8227778,-94.5827778
"Bokoshe, OK",35.1863889,-94.7855556
"Boley, OK",35.4933333,-96.4833333
"Bond, OK",34.8141667,-95.6541667
"Bookertee, OK",35.3672222,-96.0830556
"Boone, OK",34.8986111,-98.4616667
"Bordeaux, OK",35.1141667,-94.8733333
"Boswell, OK",34.0272222,-95.8688889
"Boudinot, OK",34.8133333,-97.1080556
"Boulanger Landing, OK",36.9700000,-96.2000000
"Boulangerville, OK",36.9563889,-96.2180556
"Bouse Junction, OK",36.4216667,-98.8886111
"Bowden, OK",36.0627778,-96.0869444
"Bowers, OK",34.9122222,-95.4188889
"Bowlegs, OK",35.1461111,-96.6697222
"Bowlin Spring, OK",36.6188889,-95.3775000
"Bowring, OK",36.8780556,-96.1197222
"Box, OK",34.9713889,-97.1497222
"Boyd, OK",36.7033333,-100.8277778
"Boynton, OK",35.6486111,-95.6558333
"Braden, OK",35.2841667,-94.5011111
"Bradley, OK",34.8780556,-97.7080556
"Brady, OK",34.6227778,-97.2822222
"Braggs, OK",35.6633333,-95.1977778
"Braidwood, OK",34.9483333,-94.7955556
"Braithwaite, OK",35.3736111,-99.0580556
"Braman, OK",36.9236111,-97.3333333
"Bray, OK",34.6377778,-97.8172222
"Breckinridge, OK",36.4369444,-97.7313889
"Brent, OK",35.3677778,-94.7933333
"Brewer, OK",34.8130556,-95.8605556
"Briartown, OK",35.2972222,-95.2394444
"Bridge Creek, OK",35.2350000,-97.7363889
"Bridgeport, OK",35.5463889,-98.3841667
"Briggs, OK",35.9269444,-94.8744444
"Brink, OK",36.8411111,-98.6119444
"Brinkman, OK",35.0100000,-99.5163889
"Bristow, OK",35.8305556,-96.3908333
"Bristow Point, OK",35.1216667,-95.6122222
"Britton, OK",35.5655556,-97.5308333
"Brock, OK",34.1158333,-97.2391667
"Broken Arrow, OK",36.0525000,-95.7905556
"Broken Bow, OK",34.0291667,-94.7388889
"Bromide, OK",34.4183333,-96.4966667
"Bromide Junction, OK",34.4041667,-96.4325000
"Brooksville, OK",35.1980556,-96.9680556
"Brown, OK",34.0888889,-96.4800000
"Broxton, OK",34.9858333,-98.4088889
"Brundidge, OK",35.5916667,-95.9622222
"Bruno, OK",34.3441667,-96.0750000
"Brush Creek, OK",36.4166667,-94.7858333
"Brush Hill, OK",35.4200000,-95.6280556
"Brushy, OK",35.5569444,-94.7252778
"Bryans Corner, OK",36.6163889,-100.8280556
"Bryant, OK",35.3905556,-96.0644444
"Bucher, OK",35.9141667,-98.3572222
"Buck Creek Landing, OK",34.0263889,-94.5113889
"Buffalo, OK",36.8355556,-99.6300000
"Bug Tussle, OK",35.0308333,-95.6897222
"Bull Hollow, OK",36.3136111,-94.9069444
"Bunch, OK",35.6825000,-94.7608333
"Burbank, OK",36.6950000,-96.7316667
"Burg, OK",34.5805556,-95.9958333
"Burlington, OK",36.9000000,-98.4225000
"Burmah, OK",35.8269444,-99.0744444
"Burnett, OK",35.1558333,-97.0805556
"Burneyville, OK",33.9077778,-97.2886111
"Burns Flat, OK",35.3488889,-99.1700000
"Burt, OK",34.4502778,-99.0805556
"Burton, OK",36.7983333,-102.1608333
"Burwell, OK",34.1858333,-95.1511111
"Bushyhead, OK",36.4613889,-95.4938889
"Butler, OK",35.6366667,-99.1855556
"Butner, OK",35.2608333,-96.4586111
"Byars, OK",34.8741667,-97.0497222
"Byng, OK",34.8611111,-96.6652778
"Byron, OK",36.9019444,-98.2936111
"Cabaniss, OK",34.9416667,-96.0244444
"Cache, OK",34.6294444,-98.6283333
"Cache Wye, OK",34.7094444,-98.6280556
"Caddo, OK",34.1266667,-96.2630556
"Cade, OK",34.0986111,-95.9897222
"Cairo, OK",34.5905556,-96.1316667
"Caldwell Hill, OK",34.1872222,-97.0161111
"Calera, OK",33.9344444,-96.4283333
"Calhoun, OK",35.1036111,-94.7458333
"Calida, OK",36.1930556,-96.2977778
"Callahan, OK",36.2958333,-97.5686111
"Calumet, OK",35.6011111,-98.1183333
"Calvin, OK",34.9677778,-96.2483333
"Camargo, OK",36.0172222,-99.2888889
"Cambridge, OK",35.0727778,-99.2050000
"Cameron, OK",35.1338889,-94.5344444
"Canadian, OK",35.1772222,-95.6550000
"Canadian Fork, OK",35.2430556,-95.5275000
"Canadian Shores, OK",35.1747222,-95.7400000
"Caney, OK",34.2322222,-96.2138889
"Caney Ridge, OK",35.7641667,-94.8805556
"Canton, OK",36.0536111,-98.5880556
"Canute, OK",35.4219444,-99.2791667
"Capron, OK",36.8966667,-98.5772222
"Carbon, OK",34.9261111,-95.6388889
"Carbondale, OK",36.0952778,-96.0200000
"Cardin, OK",36.9725000,-94.8486111
"Carl, OK",34.9580556,-99.9400000
"Carleton, OK",36.0150000,-98.5200000
"Carlisle, OK",35.5005556,-95.0261111
"Carlton, OK",36.0144444,-98.5150000
"Carmen, OK",36.5788889,-98.4619444
"Carnegie, OK",35.1036111,-98.6033333
"Carney, OK",35.8083333,-97.0125000
"Carpenter, OK",35.5302778,-99.3713889
"Carrier, OK",36.4769444,-98.0219444
"Carson, OK",35.1658333,-96.0883333
"Carter, OK",35.2188889,-99.5052778
"Carter Nine, OK",36.7447222,-96.6611111
"Carters Corner, OK",35.2894444,-95.6627778
"Carters Landing, OK",35.7972222,-94.9036111
"Cartersville, OK",35.2313889,-94.8447222
"Cartoco, OK",36.0872222,-96.7138889
"Cartwright, OK",33.8527778,-96.5616667
"Carver, OK",34.5233333,-97.4841667
"Carwile, OK",36.4633333,-98.3008333
"Casey, OK",36.2825000,-96.6738889
"Cashion, OK",35.7980556,-97.6783333
"Castaneda, OK",36.8811111,-102.5208333
"Castle, OK",35.4744444,-96.3819444
"Caston, OK",34.9572222,-94.8327778
"Catale, OK",36.5608333,-95.3716667
"Catesby, OK",36.4930556,-99.9625000
"Cato, OK",36.1458333,-98.0322222
"Catoosa, OK",36.1888889,-95.7455556
"Cavanal, OK",34.9802778,-94.6980556
"Cayuga, OK",36.6341667,-94.6797222
"Cedar, OK",35.0183333,-94.9891667
"Cedar Crest, OK",36.1133333,-95.2288889
"Cedar Knobb, OK",35.2469444,-94.4475000
"Cedar Ridge, OK",36.2077778,-96.2697222
"Cedar Springs, OK",36.2175000,-98.5830556
"Cedar Valley, OK",35.8641667,-97.5616667
"Cedar Village, OK",34.4422222,-97.1338889
"Cedardale, OK",36.3188889,-98.9961111
"Cedars, OK",35.2741667,-94.4425000
"Cement, OK",34.9319444,-98.1400000
"Center, OK",34.7991667,-96.8152778
"Center Point, OK",34.9463889,-95.3133333
"Centerview, OK",35.4336111,-96.6650000
"Centerville, OK",34.7252778,-99.1055556
"Centrahoma, OK",34.6097222,-96.3452778
"Central High, OK",34.6230556,-98.0894444
"Centralia, OK",36.7966667,-95.3530556
"Ceres, OK",36.4772222,-97.2822222
"Cestos, OK",36.1441667,-99.0933333
"Chambers, OK",34.8697222,-95.8244444
"Chance, OK",36.0602778,-94.6550000
"Chandler, OK",35.7016667,-96.8805556
"Chaney, OK",36.4791667,-99.8483333
"Chattanooga, OK",34.4227778,-98.6561111
"Chatto Crossing, OK",34.6855556,-98.3872222
"Checotah, OK",35.4700000,-95.5227778
"Cheek, OK",34.0783333,-97.2822222
"Chelsea, OK",36.5355556,-95.4322222
"Cherokee, OK",36.7544444,-98.3563889
"Cherry Tree, OK",35.7413889,-94.6430556
"Chester, OK",36.2163889,-98.9205556
"Chewey, OK",36.1036111,-94.7672222
"Cheyenne, OK",35.6138889,-99.6711111
"Cheyenne Valley, OK",36.3691667,-98.6575000
"Chickasha, OK",35.0525000,-97.9361111
"Chigley, OK",34.5933333,-97.0780556
"Childers, OK",36.7716667,-95.5394444
"Chilesville, OK",35.5519444,-96.4763889
"Chilli, OK",34.9419444,-95.4363889
"Chilocco, OK",36.9888889,-97.0694444
"Chism, OK",34.9127778,-96.9366667
"Chisney, OK",35.1463889,-96.9261111
"Chloeta, OK",36.4230556,-94.9705556
"Chockie, OK",34.5819444,-95.9980556
"Choctaw, OK",35.4975000,-97.2686111
"Chouteau, OK",36.1858333,-95.3427778
"Christie, OK",35.9580556,-94.6900000
"Cimarron City, OK",35.8894444,-97.6013889
"Citra, OK",34.7963889,-96.3761111
"City View, OK",34.8413889,-99.3516667
"Civit, OK",34.7891667,-97.1252778
"Claremore, OK",36.3125000,-95.6158333
"Clarita, OK",34.4827778,-96.4330556
"Clarks Heights, OK",35.3763889,-97.0005556
"Clarksville, OK",35.8255556,-95.5138889
"Clayton, OK",34.5894444,-95.3525000
"Clear Lake, OK",36.6888889,-100.2716667
"Clearview, OK",35.3969444,-96.1861111
"Clebit, OK",34.3902778,-95.0200000
"Clemscott, OK",34.3472222,-97.4563889
"Cleo Springs, OK",36.4052778,-98.4402778
"Cleora, OK",36.5788889,-94.9708333
"Cleveland, OK",36.3100000,-96.4638889
"Clifton, OK",35.5158333,-96.9116667
"Clinton, OK",35.5155556,-98.9669444
"Clothier, OK",35.3197222,-97.4144444
"Cloud Chief, OK",35.2525000,-98.8427778
"Cloud Creek, OK",36.2666667,-94.7694444
"Cloudy, OK",34.3019444,-95.2808333
"Clyde, OK",36.8463889,-97.8208333
"Coal Creek, OK",35.1888889,-94.6605556
"Coalgate, OK",34.5380556,-96.2183333
"Coalton, OK",35.4975000,-95.9388889
"Cobalt Junction, OK",34.1625000,-97.5116667
"Cobb, OK",34.0847222,-96.4075000
"Cocklebur Flat, OK",36.8300000,-95.1975000
"Cody, OK",35.8052778,-98.6902778
"Cogar, OK",35.3338889,-98.1302778
"Coil, OK",34.6580556,-96.5294444
"Colbert, OK",33.8530556,-96.5022222
"Colcord, OK",36.2641667,-94.6927778
"Cold Springs, OK",34.7958333,-99.0047222
"Cole, OK",35.1022222,-97.5725000
"Coleman, OK",34.2713889,-96.4188889
"Collinsville, OK",36.3644444,-95.8386111
"Colony, OK",35.3486111,-98.6763889
"Comanche, OK",34.3688889,-97.9636111
"Commerce, OK",36.9333333,-94.8727778
"Compton, OK",34.8044444,-95.0211111
"Concho, OK",35.6155556,-97.9941667
"Connerville, OK",34.4475000,-96.6358333
"Conrad, OK",36.6152778,-102.3730556
"Conser, OK",34.8402778,-94.6847222
"Coodys Bluff, OK",36.6983333,-95.5638889
"Cook, OK",34.2711111,-96.1969444
"Cookietown, OK",34.2750000,-98.4530556
"Cookson, OK",35.7108333,-94.9197222
"Cooper, OK",36.8111111,-96.7516667
"Cooperton, OK",34.8675000,-98.8663889
"Copan, OK",36.8975000,-95.9258333
"Copeland, OK",36.6558333,-94.8280556
"Copic Slab, OK",35.6097222,-94.5588889
"Cora, OK",36.7977778,-98.9166667
"Corbett, OK",34.9733333,-97.2291667
"Cordell, OK",35.2905556,-98.9880556
"Corinne, OK",34.1858333,-95.2911111
"Corn, OK",35.3780556,-98.7816667
"Cornatzar, OK",36.6388889,-95.1075000
"Cornish, OK",34.1588889,-97.5966667
"Corral Crossing, OK",34.6655556,-98.3791667
"Corum, OK",34.3622222,-98.1038889
"Cottingham, OK",35.9622222,-96.9519444
"Cotton Valley, OK",36.9708333,-95.8586111
"Cottonwood, OK",34.5558333,-96.2036111
"Council Hill, OK",35.5555556,-95.6511111
"Counts, OK",34.6733333,-95.5786111
"Countyline, OK",34.4486111,-97.5625000
"Courtney, OK",33.9402778,-97.5080556
"Cove Acres, OK",34.8313889,-98.3366667
"Covington, OK",36.3075000,-97.5861111
"Cowden, OK",35.2477778,-98.7116667
"Cowden Junction, OK",35.2908333,-98.7111111
"Coweta, OK",35.9516667,-95.6505556
"Cowlington, OK",35.2752778,-94.7283333
"Cox City, OK",34.7252778,-97.7313889
"Coxs Corner, OK",34.6375000,-98.2119444
"Coyle, OK",35.9566667,-97.2341667
"Craig, OK",34.8402778,-95.6272222
"Crawford, OK",35.8269444,-99.7991667
"Creata, OK",34.5191667,-99.5466667
"Crekola, OK",35.7055556,-95.4872222
"Crescent, OK",35.9525000,-97.5944444
"Crescent Springs, OK",35.8963889,-97.6022222
"Creta, OK",34.5166667,-99.5494444
"Criner, OK",34.9713889,-97.5641667
"Cromwell, OK",35.3400000,-96.4569444
"Cropper, OK",36.4411111,-97.6897222
"Cross Roads, OK",35.0063889,-96.2475000
"Crossroads, OK",33.9825000,-94.7908333
"Crowder, OK",35.1238889,-95.6697222
"Crusher, OK",34.3505556,-97.0291667
"Crystal, OK",34.2266667,-95.9300000
"Crystal Lakes, OK",36.2125000,-98.2236111
"Cumberland, OK",34.0644444,-96.5994444
"Curchece, OK",36.2188889,-96.2925000
"Curtis, OK",36.4391667,-99.1422222
"Cushing, OK",35.9850000,-96.7666667
"Custer City, OK",35.6650000,-98.8827778
"Cyril, OK",34.8963889,-98.2002778
"Dacoma, OK",36.6594444,-98.5627778
"Daisy, OK",34.5358333,-95.7394444
"Dale, OK",35.3900000,-97.0447222
"Damon, OK",34.8550000,-95.3075000
"Dane, OK",36.2169444,-98.6191667
"Darrow, OK",36.0980556,-98.3880556
"Darwin, OK",34.2477778,-95.7791667
"Davenport, OK",35.7047222,-96.7650000
"Davidson, OK",34.2408333,-99.0752778
"Davis, OK",34.5044444,-97.1191667
"Dawes, OK",36.8813889,-94.9911111
"Dawson, OK",36.1797222,-95.9083333
"Dead Women Crossing, OK",35.5677778,-98.6505556
"Deer Creek, OK",36.8058333,-97.5191667
"Degnan, OK",34.9472222,-95.3530556
"Degroat, OK",36.3363889,-95.6036111
"Del City, OK",35.4419444,-97.4405556
"Dela, OK",34.2002778,-95.5219444
"Delaware, OK",36.7786111,-95.6391667
"Delhi, OK",35.1747222,-99.6761111
"Dempsey, OK",35.5175000,-99.8225000
"Denman, OK",34.9377778,-95.0250000
"Dennis, OK",36.5391667,-94.8838889
"Denny, OK",34.5700000,-96.8463889
"Denton, OK",34.6663889,-98.1241667
"Dentonville, OK",35.7411111,-96.1394444
"Denver, OK",35.2325000,-97.2819444
"Depew, OK",35.8027778,-96.5058333
"Devol, OK",34.1958333,-98.5897222
"Dewar, OK",35.4580556,-95.9411111
"Dewey, OK",36.7958333,-95.9352778
"Dibble, OK",35.0333333,-97.6294444
"Dickson, OK",34.1872222,-96.9841667
"Dighton, OK",35.4675000,-95.8927778
"Dill City, OK",35.2766667,-99.1347222
"Dillard, OK",34.1872222,-97.4044444
"Dilworth, OK",36.9413889,-97.2277778
"Disney, OK",36.4811111,-95.0147222
"Divide, OK",34.4758333,-95.3091667
"Dixie Park, OK",34.4872222,-97.9491667
"Dixon, OK",35.1594444,-96.5213889
"Dodge, OK",36.5736111,-94.6558333
"Dog Creek, OK",35.1008333,-94.8511111
"Doga, OK",36.5666667,-96.7952778
"Dolberg, OK",34.6266667,-96.9186111
"Doolin, OK",36.7988889,-101.9925000
"Dotyville, OK",36.8588889,-94.9086111
"Dougherty, OK",34.3994444,-97.0552778
"Douglas, OK",36.2605556,-97.6688889
"Douthat, OK",36.9591667,-94.8358333
"Dover, OK",35.9813889,-97.9108333
"Dow, OK",34.8766667,-95.6000000
"Doxey, OK",35.3241667,-99.5827778
"Drace, OK",36.3402778,-97.2058333
"Drake, OK",34.3977778,-96.9505556
"Drakes Corner, OK",35.9858333,-96.8733333
"Driftwood, OK",36.8791667,-98.3591667
"Dripping Springs, OK",34.1869444,-97.0380556
"Drumb, OK",34.9297222,-95.4808333
"Drummond, OK",36.3002778,-98.0355556
"Drumright, OK",35.9883333,-96.6008333
"Dry Creek, OK",35.7369444,-94.8730556
"Duchess Landing, OK",35.3916667,-95.4158333
"Dudley, OK",35.8113889,-97.0661111
"Duhringe Pass, OK",34.7294444,-98.4897222
"Duke, OK",34.6613889,-99.5697222
"Duland, OK",33.9672222,-95.7047222
"Dunbar, OK",33.9408333,-97.2819444
"Duncan, OK",34.5022222,-97.9575000
"Dundee, OK",34.2311111,-97.5447222
"Dunjee Park, OK",35.5133333,-97.3002778
"Dunlap, OK",36.6066667,-99.6750000
"Durant, OK",33.9938889,-96.3705556
"Durham, OK",35.8419444,-99.9244444
"Durwood, OK",34.1766667,-96.9644444
"Dustin, OK",35.2705556,-96.0305556
"Dutton, OK",35.2038889,-98.0941667
"Dwight Mission, OK",35.5475000,-94.8516667
"Eagle City, OK",35.9330556,-98.5913889
"Eagletown, OK",34.0341667,-94.5747222
"Eakly, OK",35.3052778,-98.5575000
"Earl, OK",34.2016667,-96.8975000
"Earlsboro, OK",35.2675000,-96.8030556
"Eason, OK",35.0147222,-97.1300000
"East Jesse, OK",34.5811111,-96.5119444
"East Junction, OK",35.5263889,-98.9641667
"East Tulsa, OK",36.1725000,-95.9405556
"Eastman, OK",33.9883333,-97.2644444
"Eastport, OK",33.7888889,-94.4816667
"Eastside, OK",36.8713889,-94.7163889
"Econtuchka, OK",35.4055556,-96.7886111
"Eddy, OK",36.7316667,-97.4583333
"Edgewater Acres, OK",36.4422222,-95.6286111
"Edgewater Park, OK",34.8258333,-98.3777778
"Edith, OK",36.8027778,-99.2108333
"Edmond, OK",35.6527778,-97.4777778
"Edna, OK",35.7038889,-96.2102778
"El Reno, OK",35.5322222,-97.9547222
"Elba, OK",36.4027778,-95.6791667
"Eldon, OK",35.9280556,-94.8400000
"Eldorado, OK",34.4719444,-99.6477778
"Elgin, OK",34.7802778,-98.2919444
"Eli, OK",35.9875000,-95.1891667
"Elk City, OK",35.4119444,-99.4038889
"Ellaville, OK",35.1013889,-96.8091667
"Ellerville, OK",36.0311111,-94.9019444
"Elliott, OK",36.9422222,-95.6291667
"Elmer, OK",34.4811111,-99.3505556
"Elmore City, OK",34.6227778,-97.3961111
"Elmwood, OK",36.6163889,-100.5222222
"Emet, OK",34.2025000,-96.5419444
"Empire City, OK",34.4202778,-98.0266667
"Empy, OK",36.2222222,-96.3197222
"Emsey, OK",35.7675000,-97.0241667
"England, OK",35.8844444,-94.6677778
"Enid, OK",36.3955556,-97.8780556
"Enterprise, OK",35.2297222,-95.3797222
"Enville, OK",33.9836111,-96.9861111
"Eola, OK",34.5502778,-97.4400000
"Eram, OK",35.6169444,-95.7547222
"Erick, OK",35.2152778,-99.8661111
"Erin Springs, OK",34.8108333,-97.6063889
"Esau Junction, OK",36.3536111,-96.7044444
"Estella, OK",36.6847222,-95.2869444
"Ethel, OK",34.2294444,-95.5438889
"Etna, OK",36.3705556,-97.7463889
"Etowah, OK",35.1269444,-97.1686111
"Eubanks, OK",34.4219444,-95.5847222
"Eucha, OK",36.3919444,-94.8827778
"Eufaula, OK",35.2872222,-95.5822222
"Eva, OK",36.7983333,-101.9063889
"Evening Shade, OK",35.6244444,-94.9283333
"Eville, OK",34.0050000,-96.9869444
"Fair Oaks, OK",36.1650000,-95.6936111
"Fairfax, OK",36.5736111,-96.7038889
"Fairfield, OK",35.8472222,-94.6122222
"Fairland, OK",36.7511111,-94.8472222
"Fairmont, OK",36.3555556,-97.7052778
"Fairvalley, OK",36.7355556,-99.0241667
"Fairview, OK",36.2688889,-98.4794444
"Fallis, OK",35.7483333,-97.1202778
"Fallon, OK",33.9977778,-95.4166667
"Falls Creek Assembly, OK",34.4263889,-97.1108333
"Fame, OK",35.3622222,-95.6455556
"Fanshawe, OK",34.9508333,-94.9080556
"Fargo, OK",36.3761111,-99.6233333
"Farmers Hill, OK",33.9244444,-95.0172222
"Farris, OK",34.2625000,-95.8663889
"Farwell, OK",34.8858333,-98.0052778
"Faxon, OK",34.4569444,-98.5786111
"Fay, OK",35.8133333,-98.6575000
"Featherston, OK",35.0786111,-95.4897222
"Felker, OK",34.0405556,-95.0519444
"Felt, OK",36.5675000,-102.7930556
"Fewell, OK",34.5180556,-95.0536111
"Fillmore, OK",34.2741667,-96.4958333
"Finley, OK",34.3283333,-95.4947222
"Fisher, OK",36.1291667,-96.1419444
"Fite, OK",36.7233333,-96.0791667
"Fittstown, OK",34.6147222,-96.6341667
"Fitzhugh, OK",34.6658333,-96.7747222
"Five Mile, OK",36.9833333,-94.6927778
"Fivemile Corner, OK",34.3622222,-98.2261111
"Fleetwood, OK",33.8966667,-97.8508333
"Fletcher, OK",34.8230556,-98.2438889
"Flint, OK",36.1872222,-94.7077778
"Flint Creek, OK",36.1772222,-94.7405556
"Flora, OK",34.5258333,-96.0316667
"Floris, OK",36.8697222,-100.7108333
"Fluor, OK",36.9663889,-101.0505556
"Flusche, OK",35.6677778,-95.5352778
"Flute Springs, OK",35.6194444,-94.8055556
"Flynn, OK",35.4016667,-97.4872222
"Fobb, OK",33.9111111,-96.8458333
"Fogel, OK",34.7069444,-94.4552778
"Foley, OK",35.6838889,-98.8491667
"Folsom, OK",34.1933333,-96.4202778
"Fonda, OK",36.1475000,-98.7586111
"Foraker, OK",36.8722222,-96.5652778
"Foreman, OK",35.3347222,-94.6366667
"Forest Hill, OK",34.9275000,-94.6194444
"Forest Park, OK",35.5041667,-97.4458333
"Forgan, OK",36.9069444,-100.5388889
"Forney, OK",34.0297222,-95.6194444
"Forrester, OK",34.8722222,-94.5263889
"Fort Cobb, OK",35.0977778,-98.4352778
"Fort Coffee, OK",35.2891667,-94.5841667
"Fort Gibson, OK",35.7975000,-95.2502778
"Fort Supply, OK",36.5736111,-99.5719444
"Fort Towson, OK",34.0186111,-95.2661111
"Fort Washita, OK",34.1027778,-96.5461111
"Foss, OK",35.4544444,-99.1694444
"Foster, OK",34.6163889,-97.4888889
"Four Mile Crossing, OK",34.6861111,-98.4450000
"Fowler, OK",35.5072222,-97.0527778
"Fox, OK",34.3636111,-97.4919444
"Foyil, OK",36.4347222,-95.5191667
"Francis, OK",34.8736111,-96.5952778
"Frankfort, OK",36.9758333,-96.6794444
"Franklin, OK",35.2763889,-97.3352778
"Franks, OK",34.6063889,-96.6425000
"Frederick, OK",34.3919444,-99.0180556
"Freedom, OK",36.7688889,-99.1125000
"Frey, OK",36.0197222,-96.6100000
"Friendship, OK",34.6958333,-99.2286111
"Frink, OK",34.8841667,-95.7891667
"Frisco, OK",34.6477778,-96.5786111
"Frogville, OK",33.8975000,-95.3125000
"Frost, OK",35.8841667,-97.2466667
"Fugate, OK",34.4572222,-95.9216667
"Gaar Corner, OK",34.7966667,-96.8616667
"Gabriel, OK",35.9283333,-95.0647222
"Gaddy, OK",35.3330556,-97.0005556
"Gage, OK",36.3155556,-99.7572222
"Gano, OK",36.0147222,-96.7547222
"Gans, OK",35.3888889,-94.6919444
"Gansel, OK",36.2800000,-97.3719444
"Garber, OK",36.4369444,-97.5852778
"Garden City, OK",36.1105556,-96.0027778
"Garden Grove, OK",35.4194444,-96.7708333
"Garland, OK",35.3188889,-95.0513889
"Garnett, OK",36.1869444,-95.8263889
"Garvin, OK",33.9538889,-94.9422222
"Gas City, OK",34.4497222,-98.0866667
"Gate, OK",36.8533333,-100.0550000
"Gay, OK",33.9533333,-95.6211111
"Geary, OK",35.6311111,-98.3169444
"Gene Autry, OK",34.2836111,-97.0377778
"Gerlach, OK",36.4358333,-99.4522222
"Geronimo, OK",34.4811111,-98.3827778
"Gerty, OK",34.8366667,-96.2894444
"Gibbon, OK",36.9427778,-97.9819444
"Gibson, OK",35.8708333,-95.3516667
"Gideon, OK",36.0094444,-95.0330556
"Gilbert, OK",36.7897222,-97.9472222
"Gilland, OK",36.5330556,-96.1538889
"Gilmore, OK",35.0527778,-94.5227778
"Glencoe, OK",36.2286111,-96.9252778
"Glendale, OK",34.9230556,-94.7091667
"Glenn, OK",34.3177778,-97.1952778
"Glenoak, OK",36.7280556,-95.8086111
"Glenpool, OK",35.9552778,-96.0086111
"Glover, OK",34.0702778,-94.8977778
"Going Snake, OK",35.9916667,-94.6500000
"Golden, OK",34.0344444,-94.8961111
"Goldsby, OK",35.1411111,-97.4766667
"Goltry, OK",36.5325000,-98.1513889
"Goodlake, OK",33.7069444,-94.6422222
"Goodland, OK",33.9816667,-95.5550000
"Goodnight, OK",35.9513889,-97.1402778
"Goodwater, OK",33.9100000,-94.5730556
"Goodwell, OK",36.5952778,-101.6361111
"Goodwin, OK",36.1966667,-99.9347222
"Gore, OK",35.5291667,-95.1169444
"Gore Landing, OK",35.5230556,-95.0955556
"Goss, OK",34.5508333,-95.6911111
"Gotebo, OK",35.0702778,-98.8719444
"Gould, OK",34.6708333,-99.7708333
"Gowen, OK",34.8813889,-95.4766667
"Gracemont, OK",35.1883333,-98.2602778
"Grady, OK",34.0202778,-97.6652778
"Graham, OK",34.3405556,-97.4341667
"Grainola, OK",36.9372222,-96.6502778
"Grainville, OK",36.8400000,-97.2280556
"Grand Lake Towne, OK",36.5041667,-95.0222222
"Grandfield, OK",34.2283333,-98.6841667
"Grandview Heights, OK",35.7141667,-95.3661111
"Granite, OK",34.9622222,-99.3802778
"Grant, OK",33.9430556,-95.5133333
"Gray, OK",36.5583333,-100.8233333
"Gray Horse, OK",36.5497222,-96.6475000
"Grayson, OK",35.5030556,-95.8725000
"Greasy, OK",35.6672222,-94.7005556
"Green, OK",35.9769444,-94.6263889
"Green Country Estates, OK",35.8702778,-94.9880556
"Green Meadow Acres, OK",34.7983333,-98.3841667
"Green Pastures, OK",35.5222222,-97.3355556
"Greenfield, OK",35.7286111,-98.3775000
"Greenville, OK",34.0072222,-97.1255556
"Greenwood, OK",34.1922222,-95.5875000
"Gregory, OK",36.1705556,-95.5722222
"Grenade Crossing, OK",34.6697222,-98.3805556
"Griggs, OK",36.6027778,-102.1219444
"Grimes, OK",35.4661111,-99.7605556
"Grove, OK",36.5936111,-94.7688889
"Gulftown, OK",35.4563889,-95.9108333
"Guthrie, OK",35.8788889,-97.4250000
"Guymon, OK",36.6827778,-101.4811111
"Gypsy, OK",35.7116667,-96.4591667
"Haileyville, OK",34.8544444,-95.5819444
"Half Bank Crossing, OK",34.3530556,-96.0052778
"Hall Park, OK",35.2369444,-97.4061111
"Hallett, OK",36.2338889,-96.5672222
"Halley, OK",34.8519444,-95.8363889
"Hamden, OK",34.1422222,-95.5663889
"Hammon, OK",35.6327778,-99.3813889
"Hammon Junction, OK",35.6561111,-99.3750000
"Hanna, OK",35.2050000,-95.8900000
"Hanson, OK",35.4344444,-94.6986111
"Happyland, OK",34.7966667,-96.5491667
"Harden City, OK",34.6072222,-96.5994444
"Hardesty, OK",36.6163889,-101.1902778
"Hardy, OK",36.9708333,-96.7980556
"Harjo, OK",35.2133333,-96.8275000
"Harmon, OK",36.1447222,-99.5600000
"Harmony Star, OK",36.3075000,-95.4708333
"Harrah, OK",35.4894444,-97.1633333
"Harris, OK",33.7502778,-94.7288889
"Harrisburg, OK",34.4347222,-97.7894444
"Harrison, OK",35.4200000,-94.8672222
"Hart, OK",34.7141667,-96.9169444
"Hartshorne, OK",34.8450000,-95.5572222
"Haskell, OK",35.8202778,-95.6738889
"Hastings, OK",34.2266667,-98.1097222
"Hatchetville, OK",34.9419444,-98.4436111
"Haw Creek, OK",34.7725000,-94.5091667
"Hawley, OK",36.7530556,-98.0188889
"Haworth, OK",33.8463889,-94.6525000
"Haydenville, OK",35.5952778,-96.2633333
"Hayward, OK",36.2777778,-97.5122222
"Haywood, OK",34.8872222,-95.9480556
"Hazel Dell, OK",35.4488889,-97.0000000
"Headrick, OK",34.6275000,-99.1377778
"Healdton, OK",34.2330556,-97.4875000
"Heavener, OK",34.8891667,-94.6005556
"Hectorville, OK",35.8419444,-95.9250000
"Helena, OK",36.5461111,-98.2697222
"Heman, OK",36.5350000,-98.9436111
"Hendrix, OK",33.7736111,-96.4055556
"Hennepin, OK",34.5088889,-97.3466667
"Hennessey, OK",36.1091667,-97.8983333
"Henryetta, OK",35.4397222,-95.9816667
"Herd, OK",36.8644444,-96.2005556
"Herring, OK",35.6100000,-99.5175000
"Hess, OK",34.4647222,-99.2719444
"Hester, OK",34.8011111,-99.4330556
"Hewitt, OK",34.1688889,-97.4044444
"Hext, OK",35.2475000,-99.7525000
"Heyburn, OK",35.9122222,-96.2836111
"Hiawatha, OK",34.8925000,-94.4669444
"Hibsaw, OK",35.7036111,-97.1405556
"Hickory, OK",34.5566667,-96.8600000
"Hickory Hill, OK",36.9458333,-96.1100000
"Higgins, OK",34.8113889,-95.4333333
"High Hill, OK",34.1350000,-95.2966667
"Hightower, OK",34.6305556,-99.2533333
"Highway 9 Landing, OK",35.2400000,-95.4922222
"Hill, OK",35.0944444,-94.4691667
"Hill Chapel, OK",33.9861111,-94.7480556
"Hillsdale, OK",36.5630556,-97.9911111
"Hilton, OK",36.0097222,-96.0472222
"Hinton, OK",35.4713889,-98.3552778
"Hird, OK",34.8105556,-96.6516667
"Hisle, OK",36.4766667,-95.4761111
"Hitchcock, OK",35.9688889,-98.3480556
"Hitchita, OK",35.5197222,-95.7511111
"Hobart, OK",35.0294444,-99.0927778
"Hochatown, OK",34.1938889,-94.6755556
"Hocker, OK",35.2900000,-99.4736111
"Hockerville, OK",36.9938889,-94.7808333
"Hodgen, OK",34.8416667,-94.6311111
"Hodgens Station, OK",34.8408333,-94.6283333
"Hoffman, OK",35.4891667,-95.8425000
"Hogshooter, OK",36.6986111,-95.8541667
"Holdenville, OK",35.0802778,-96.3988889
"Hollis, OK",34.6883333,-99.9116667
"Hollister, OK",34.3422222,-98.8705556
"Hollow, OK",36.8875000,-95.2697222
"Holly Creek, OK",33.9780556,-94.8163889
"Homer, OK",34.7813889,-96.6166667
"Homestead, OK",36.1497222,-98.3936111
"Hominy, OK",36.4141667,-96.3950000
"Honobia, OK",34.5388889,-94.9372222
"Hontubby, OK",34.8502778,-94.5658333
"Hooker, OK",36.8600000,-101.2130556
"Hooper, OK",34.1591667,-98.1736111
"Hoot Owl, OK",36.3597222,-95.1211111
"Hoover, OK",34.5211111,-97.2469444
"Hope, OK",34.5688889,-97.8363889
"Hopeton, OK",36.6880556,-98.6655556
"Hopewell, OK",34.2333333,-96.3727778
"Hopkins, OK",36.7994444,-102.0816667
"Horntown, OK",35.0869444,-96.2475000
"Hough, OK",36.8708333,-101.5766667
"Hovey, OK",36.8627778,-101.6786111
"Howard, OK",36.4952778,-95.4586111
"Howe, OK",34.9511111,-94.6369444
"Hoxbar, OK",34.0708333,-97.0388889
"Hoyt, OK",35.2716667,-95.3019444
"Hucmac, OK",36.0575000,-98.7958333
"Hughart, OK",35.2025000,-95.2961111
"Hughes, OK",34.9491667,-94.9716667
"Hugo, OK",34.0105556,-95.5094444
"Hulah, OK",36.9286111,-96.0350000
"Hulbert, OK",35.9325000,-95.1411111
"Hulen, OK",34.5038889,-98.2211111
"Humphreys, OK",34.5558333,-99.2369444
"Hunter, OK",36.5636111,-97.6608333
"Huskey, OK",33.9458333,-95.2780556
"Hy 10 Landing, OK",35.6152778,-95.1766667
"Hyde Park, OK",35.7894444,-95.3038889
"Hydro, OK",35.5494444,-98.5777778
"IXL, OK",35.5225000,-96.3880556
"Iconium, OK",35.8691667,-97.1875000
"Idabel, OK",33.8955556,-94.8261111
"Imo, OK",36.3538889,-97.9775000
"Independence, OK",35.7250000,-98.9333333
"Indiahoma, OK",34.6197222,-98.7511111
"Indiahoma Wye, OK",34.6955556,-98.7050000
"Indian City, OK",35.0372222,-98.2255556
"Indian Meadows, OK",35.8730556,-94.9655556
"Indian Springs, OK",35.8963889,-97.5716667
"Indian Village, OK",36.4105556,-96.3847222
"Indianapolis, OK",35.5513889,-98.8622222
"Indianola, OK",35.1627778,-95.7744444
"Indogco, OK",35.1766667,-96.5658333
"Ingalls, OK",36.1016667,-96.8811111
"Ingersoll, OK",36.7963889,-98.3944444
"Ingram, OK",35.7063889,-97.0847222
"Inola, OK",36.1511111,-95.5091667
"Iona, OK",34.6169444,-97.0294444
"Iron Post, OK",35.7263889,-96.4052778
"Iron Stob Corner, OK",33.8955556,-94.9472222
"Ironbridge, OK",35.2380556,-94.9550000
"Irving, OK",34.0422222,-98.0527778
"Isabella, OK",36.2355556,-98.3397222
"Ituna, OK",36.4830556,-97.9691667
"Jacks, OK",36.0444444,-97.9091667
"Jacktown, OK",35.5069444,-97.0002778
"Jamestown, OK",36.5694444,-95.6297222
"Jamesville, OK",35.7550000,-95.6402778
"Jasper, OK",34.0275000,-95.7472222
"Jay, OK",36.4211111,-94.7966667
"Jaydee, OK",34.7527778,-96.4388889
"Jefferson, OK",36.7205556,-97.7902778
"Jenks, OK",36.0227778,-95.9680556
"Jennings, OK",36.1811111,-96.5694444
"Jesse, OK",34.5819444,-96.5294444
"Jester, OK",35.0091667,-99.6947222
"Jet, OK",36.6661111,-98.1808333
"Jimtown, OK",33.8619444,-97.3691667
"Jobes, OK",36.4388889,-96.7205556
"Johnson, OK",35.4055556,-96.8413889
"Johnsonville, OK",34.8955556,-97.0533333
"Jollyville, OK",34.4605556,-97.1300000
"Jonah, OK",36.4444444,-97.9486111
"Jones, OK",35.5658333,-97.2866667
"Joy, OK",34.5936111,-97.1419444
"Jubys, OK",36.2036111,-96.2841667
"Jumbo, OK",34.4452778,-95.7352778
"Justice, OK",36.2927778,-95.5663889
"Kansas, OK",36.2050000,-94.7975000
"Karma, OK",33.7738889,-96.2055556
"Karns, OK",35.6238889,-98.2244444
"Katie, OK",34.5794444,-97.3519444
"Kaw City, OK",36.7602778,-96.8330556
"Keefton, OK",35.5897222,-95.3391667
"Keenan, OK",36.2758333,-99.5691667
"Keetonville, OK",36.3063889,-95.7080556
"Keith, OK",36.0916667,-95.4644444
"Kellond, OK",34.2636111,-95.6400000
"Kellyville, OK",35.9436111,-96.2133333
"Kelso, OK",36.7055556,-95.1097222
"Kemp, OK",33.7694444,-96.3538889
"Kendrick, OK",35.7847222,-96.7777778
"Kenefic, OK",34.1480556,-96.3619444
"Kengle, OK",36.1363889,-96.0511111
"Kennady, OK",35.0144444,-94.7608333
"Kent, OK",34.1130556,-95.6227778
"Kenton, OK",36.9030556,-102.9627778
"Kenwood, OK",36.3144444,-94.9855556
"Keokuk Falls, OK",35.4050000,-96.6361111
"Keota, OK",35.2555556,-94.9213889
"Ketchum, OK",36.5244444,-95.0236111
"Keyes, OK",36.8097222,-102.2550000
"Keys, OK",35.7980556,-94.9675000
"Kiamichi, OK",34.6352778,-95.1786111
"Kiefer, OK",35.9447222,-96.0650000
"Kiersey, OK",34.0055556,-96.4652778
"Kiheki, OK",36.6730556,-96.2155556
"Kildare, OK",36.8097222,-97.0488889
"Kingfisher, OK",35.8613889,-97.9313889
"Kingston, OK",33.9986111,-96.7194444
"Kinta, OK",35.1191667,-95.2375000
"Kiowa, OK",34.7205556,-95.8988889
"Knowles, OK",36.8733333,-100.1930556
"Komalty, OK",35.0475000,-98.9900000
"Konawa, OK",34.9594444,-96.7525000
"Kosoma, OK",34.3483333,-95.6127778
"Krebs, OK",34.9277778,-95.7155556
"Kremlin, OK",36.5472222,-97.8311111
"Kullituklo, OK",33.8519444,-94.7219444
"Kusa, OK",35.4491667,-95.9238889
"Lacey, OK",36.1161111,-98.0858333
"Laden, OK",35.7175000,-96.0472222
"Lafayette, OK",35.1738889,-95.1033333
"Lahoma, OK",36.3875000,-98.0894444
"Lake, OK",36.1400000,-96.0816667
"Lake Aluma, OK",35.5369444,-97.4408333
"Lake Creek, OK",35.0294444,-99.4130556
"Lake Ellsworth Addition, OK",34.8369444,-98.3213889
"Lake Hiwassee, OK",35.6516667,-97.3058333
"Lake Valley, OK",35.1680556,-98.8627778
"Lake West, OK",33.8958333,-95.8852778
"Lakeside, OK",33.9550000,-96.5516667
"Lakeside Village, OK",34.7983333,-98.3847222
"Lakeview, OK",35.7977778,-97.4250000
"Lamar, OK",35.0994444,-96.1272222
"Lamberson, OK",34.7947222,-95.0133333
"Lambert, OK",36.6830556,-98.4227778
"Lamont, OK",36.6905556,-97.5561111
"Lane, OK",34.2986111,-95.9877778
"Langley, OK",36.4638889,-95.0475000
"Langston, OK",35.9450000,-97.2550000
"Last Chance, OK",35.5366667,-96.2641667
"Latham, OK",35.1233333,-94.8052778
"Latta, OK",34.7469444,-96.7055556
"Laverne, OK",36.7097222,-99.8930556
"Laverty, OK",34.9905556,-98.0750000
"Lawrence, OK",34.6863889,-96.7327778
"Lawrence Creek, OK",36.0850000,-96.4250000
"Lawrie, OK",35.9566667,-97.4230556
"Lawton, OK",34.6086111,-98.3900000
"Lawtonka Acres, OK",34.7783333,-98.5313889
"Leach, OK",36.2047222,-94.9222222
"Leader, OK",34.7288889,-96.4769444
"Leander, OK",36.2230556,-96.3058333
"Lebanon, OK",33.9822222,-96.9075000
"Lee Heights, OK",33.9958333,-96.3486111
"Leedey, OK",35.8700000,-99.3463889
"Leflore, OK",34.8986111,-94.9800000
"Lehigh, OK",34.4691667,-96.2161111
"Lela, OK",36.3188889,-96.9241667
"Leliaetta, OK",36.0172222,-95.3677778
"Lenapah, OK",36.8505556,-95.6358333
"Lenna, OK",35.3763889,-95.7691667
"Lenora, OK",36.0411111,-99.0616667
"Lenox, OK",34.6955556,-94.8244444
"Leon, OK",33.8791667,-97.4288889
"Leonard, OK",35.9202778,-95.7991667
"Leonel, OK",35.9911111,-98.6527778
"Lep, OK",36.7905556,-96.7247222
"Lequire, OK",35.1044444,-95.1072222
"Leroy, OK",36.2102778,-96.2566667
"Letitia, OK",34.5794444,-98.2113889
"Lewisville, OK",35.1200000,-95.2766667
"Lexington, OK",35.0147222,-97.3352778
"Libbey, OK",36.9372222,-101.9744444
"Liberty, OK",33.7361111,-96.3425000
"Lige, OK",34.6583333,-99.0183333
"Lillard Park, OK",35.4286111,-97.5938889
"Lima, OK",35.1738889,-96.5994444
"Limestone, OK",36.3158333,-95.7488889
"Limestone Gap, OK",34.6005556,-95.9711111
"Lincoln, OK",34.4938889,-99.7600000
"Lincolnville, OK",36.9436111,-94.7569444
"Lindley, OK",36.2061111,-98.2325000
"Lindsay, OK",34.8347222,-97.6022222
"Linn, OK",34.1180556,-96.6247222
"Little, OK",35.3480556,-96.6716667
"Little Axe, OK",35.2325000,-97.2122222
"Little Chief, OK",36.6658333,-96.6400000
"Little City, OK",34.0861111,-96.6158333
"Little Ponderosa, OK",36.9569444,-100.8758333
"Loco, OK",34.3291667,-97.6808333
"Locust Grove, OK",36.2000000,-95.1675000
"Lodi, OK",35.0091667,-95.0419444
"Logan, OK",36.5727778,-100.2169444
"Lone Grove, OK",34.1752778,-97.2625000
"Lone Oak, OK",35.3905556,-94.5486111
"Lone Pine, OK",34.1888889,-95.8141667
"Lone Wolf, OK",34.9894444,-99.2491667
"Long, OK",35.4975000,-94.5844444
"Longdale, OK",36.1333333,-98.5502778
"Longtown, OK",35.2452778,-95.5125000
"Lookeba, OK",35.3627778,-98.3666667
"Lost City, OK",35.9877778,-95.1361111
"Lotsee, OK",36.1333333,-96.2091667
"Louis, OK",34.5652778,-99.8011111
"Loveland, OK",34.3052778,-98.7713889
"Lovell, OK",36.0569444,-97.6350000
"Loving, OK",34.8669444,-94.4797222
"Lowrey, OK",36.0980556,-94.9219444
"Loyal, OK",35.9711111,-98.1205556
"Lucien, OK",36.2747222,-97.4544444
"Ludlow, OK",34.5361111,-94.8505556
"Lugert, OK",34.8958333,-99.2750000
"Lula, OK",34.7005556,-96.4319444
"Lusta, OK",36.2425000,-95.3369444
"Luther, OK",35.6616667,-97.1952778
"Lutie, OK",34.9233333,-95.2616667
"Lyman, OK",36.8402778,-96.7430556
"Lynn Lane, OK",36.1477778,-95.7794444
"Lyons, OK",35.7511111,-94.7108333
"Mackie, OK",35.6861111,-99.7941667
"Macomb, OK",35.1466667,-97.0086111
"Macomb-Y, OK",35.1463889,-96.9263889
"Madge, OK",34.9002778,-99.9580556
"Madill, OK",34.0902778,-96.7713889
"Maguire, OK",35.1311111,-97.2997222
"Mallard Bay, OK",35.8597222,-95.2788889
"Manchester, OK",36.9938889,-98.0372222
"Mangum, OK",34.8719444,-99.5038889
"Manitou, OK",34.5075000,-98.9830556
"Mannford, OK",36.1333333,-96.3541667
"Mannsville, OK",34.1858333,-96.8802778
"Maple, OK",35.4713889,-94.6263889
"Maramec, OK",36.2419444,-96.6800000
"Marble City, OK",35.5802778,-94.8208333
"Marena, OK",36.0722222,-97.2116667
"Marietta, OK",33.9369444,-97.1163889
"Markham, OK",36.0611111,-96.6072222
"Marland, OK",36.5608333,-97.1508333
"Marlow, OK",34.6480556,-97.9577778
"Marsden, OK",34.0555556,-97.1952778
"Marshall, OK",36.1538889,-97.6252778
"Martha, OK",34.7252778,-99.3866667
"Martin, OK",35.5663889,-95.3105556
"Marty, OK",34.5294444,-99.5075000
"Masham, OK",36.4491667,-96.8533333
"Mason, OK",35.5661111,-96.3519444
"Massey Point, OK",35.0641667,-95.6447222
"Matoaka, OK",36.6786111,-95.9780556
"Matoy, OK",34.1350000,-96.0597222
"Maud, OK",35.1302778,-96.7755556
"Maxwell, OK",34.9033333,-96.8438889
"May, OK",36.6169444,-99.7469444
"Mayfield, OK",35.3388889,-99.8763889
"Mayhew, OK",34.0608333,-95.8858333
"Maysville, OK",34.8172222,-97.4055556
"Mazie, OK",36.1075000,-95.3630556
"McAlester, OK",34.9333333,-95.7694444
"McBride, OK",33.9352778,-96.6330556
"McCarty, OK",34.6702778,-97.3175000
"McClure, OK",35.6513889,-99.3052778
"McCord, OK",36.6786111,-97.0369444
"McCurtain, OK",35.1497222,-94.9705556
"McFadden Cove, OK",36.7047222,-96.9338889
"McFarlin, OK",36.2058333,-95.5330556
"McGee, OK",34.8255556,-96.9569444
"McKey, OK",35.4825000,-94.8847222
"McKiddyville, OK",35.0875000,-97.2116667
"McKnight, OK",34.7661111,-99.9119444
"McLain, OK",35.5663889,-95.2686111
"McLoud, OK",35.4358333,-97.0911111
"McMahon, OK",36.3158333,-97.2452778
"McMillan, OK",34.0897222,-96.9369444
"McQueen, OK",34.6666667,-99.7013889
"McWillie, OK",36.5358333,-98.3541667
"Mead, OK",33.9994444,-96.5088889
"Medford, OK",36.8069444,-97.7333333
"Medicine Park, OK",34.7291667,-98.5022222
"Meeker, OK",35.5033333,-96.9025000
"Meers, OK",34.7827778,-98.5786111
"Mehan, OK",36.0450000,-96.9422222
"Mekko, OK",35.0000000,-95.7536111
"Mellette, OK",35.2172222,-95.7155556
"Meno, OK",36.3861111,-98.1775000
"Meridian, OK",35.8419444,-97.2466667
"Merrick, OK",35.8563889,-97.1408333
"Merritt, OK",35.3697222,-99.5050000
"Messer, OK",34.0872222,-95.4691667
"Metory, OK",35.8402778,-95.0380556
"Mexhoma, OK",36.7194444,-102.9841667
"Miami, OK",36.8744444,-94.8772222
"Micawber, OK",35.6244444,-96.5119444
"Middleberg, OK",35.1061111,-97.7347222
"Middleton, OK",36.9558333,-97.1138889
"Midlothian, OK",35.6372222,-96.9222222
"Midway, OK",35.4925000,-97.0883333
"Midway Village, OK",35.4594444,-97.4452778
"Midwest City, OK",35.4494444,-97.3963889
"Milburn, OK",34.2408333,-96.5488889
"Milfay, OK",35.7550000,-96.5655556
"Mill Creek, OK",34.4041667,-96.8261111
"Miller, OK",34.3163889,-95.7447222
"Millerton, OK",33.9858333,-95.0133333
"Mills, OK",36.9663889,-94.7588889
"Milo, OK",34.3325000,-97.3391667
"Milton, OK",35.1616667,-94.8633333
"Minco, OK",35.3127778,-97.9441667
"Mingo, OK",36.2205556,-95.8686111
"Mocane, OK",36.8936111,-100.3722222
"Moffett, OK",35.3902778,-94.4466667
"Mohawk, OK",36.2058333,-95.9272222
"Monroe, OK",34.9925000,-94.5166667
"Moodys, OK",36.0311111,-94.9575000
"Moon, OK",33.8241667,-94.5713889
"Moore, OK",35.3394444,-97.4863889
"Mooreland, OK",36.4391667,-99.2044444
"Moorewood, OK",35.7402778,-99.3486111
"Moravia, OK",35.1191667,-99.5097222
"Moreville, OK",36.7861111,-94.7916667
"Morgans Corner, OK",36.3680556,-96.2138889
"Morris, OK",35.6075000,-95.8600000
"Morrison, OK",36.2972222,-97.0077778
"Morse, OK",35.5366667,-96.2819444
"Morvin, OK",35.2033333,-97.0155556
"Mound Grove, OK",34.0819444,-95.0869444
"Mounds, OK",35.8763889,-96.0608333
"Mount Herman, OK",34.3058333,-94.8141667
"Mount View, OK",34.7969444,-98.1763889
"Mount Zion, OK",33.9391667,-95.0344444
"Mountain Park, OK",34.6972222,-98.9491667
"Mountain View, OK",35.0975000,-98.7461111
"Mouser, OK",36.8705556,-101.4147222
"Moyers, OK",34.3261111,-95.6533333
"Muldrow, OK",35.4061111,-94.5986111
"Mule Barn, OK",36.2169444,-96.3116667
"Mulhall, OK",36.0647222,-97.4066667
"Muncy, OK",36.8200000,-101.7622222
"Murphy, OK",36.1469444,-95.2444444
"Murry Spur, OK",35.2597222,-94.5483333
"Muse, OK",34.6719444,-94.7625000
"Muskogee, OK",35.7477778,-95.3694444
"Mustang, OK",35.3841667,-97.7241667
"Mutual, OK",36.2313889,-99.1677778
"Myers, OK",36.7533333,-96.4005556
"Nani-chito, OK",34.4222222,-94.6466667
"Nanos, OK",36.7963889,-96.2691667
"Narcissa, OK",36.8011111,-94.9266667
"Nardin, OK",36.8055556,-97.4455556
"Nash, OK",36.6661111,-98.0500000
"Nashoba, OK",34.4819444,-95.2150000
"Nashoba Y, OK",34.4827778,-95.2811111
"Natura, OK",35.7400000,-95.9352778
"Navina, OK",35.7988889,-97.5600000
"Neal, OK",35.3330556,-96.7894444
"Nebo, OK",34.3613889,-96.9525000
"Needmore, OK",35.1311111,-97.2119444
"Neff, OK",35.0727778,-94.5916667
"Negro Bend, OK",34.3258333,-95.9352778
"Neill, OK",34.8216667,-97.5122222
"Nelagoney, OK",36.6263889,-96.2419444
"Nellie, OK",34.5794444,-98.1241667
"Nelson, OK",34.1272222,-95.6850000
"Neodesha, OK",36.0461111,-95.4341667
"New Liberty, OK",35.3636111,-99.7172222
"New Lima, OK",35.1716667,-96.5922222
"New Mannford, OK",36.1227778,-96.3572222
"New Oberlin, OK",33.8947222,-95.8511111
"New Prue, OK",36.2530556,-96.2705556
"New Tulsa, OK",36.0750000,-95.6725000
"Newalla, OK",35.4050000,-97.1625000
"Newby, OK",35.7113889,-96.3516667
"Newcastle, OK",35.2472222,-97.5994444
"Newkirk, OK",36.8822222,-97.0530556
"Newport, OK",34.2527778,-97.2744444
"Nichols, OK",36.5200000,-96.1377778
"Nichols Hills, OK",35.5508333,-97.5486111
"Nicoma Park, OK",35.4911111,-97.3227778
"Nicut, OK",35.5838889,-94.5591667
"Nida, OK",34.1430556,-96.4986111
"Niles, OK",35.4344444,-98.2544444
"Ninnekah, OK",34.9477778,-97.9236111
"Noble, OK",35.1391667,-97.3944444
"Nobletown, OK",35.2030556,-96.5294444
"Nobscot, OK",35.8486111,-98.7352778
"Noel, OK",36.7811111,-98.7188889
"Nolia, OK",34.4763889,-95.1513889
"Non, OK",34.7777778,-96.2405556
"Norge, OK",34.9883333,-97.9966667
"Norman, OK",35.2225000,-97.4391667
"Norris, OK",34.9988889,-94.9702778
"North Enid, OK",36.4355556,-97.8686111
"North McAlester, OK",34.9558333,-95.7605556
"North Miami, OK",36.9172222,-94.8794444
"North Pole, OK",34.0916667,-94.8891667
"North Sobol, OK",34.1858333,-95.2383333
"North Village, OK",35.9855556,-96.6516667
"Notichtown, OK",35.5766667,-95.0913889
"Nowata, OK",36.7005556,-95.6377778
"Nowhere, OK",35.1591667,-98.4419444
"Noxie, OK",36.9713889,-95.7322222
"Numa, OK",36.8033333,-97.6058333
"Nuyaka, OK",35.6530556,-96.1394444
"Oak Grove, OK",34.6147222,-96.9666667
"Oak Hill, OK",34.0408333,-94.8355556
"Oak Ridge, OK",36.8969444,-96.1127778
"Oakhurst, OK",36.0752778,-96.0641667
"Oakland, OK",34.1000000,-96.7936111
"Oakman, OK",34.8322222,-96.6166667
"Oakridge, OK",36.0750000,-96.0355556
"Oaks, OK",36.1661111,-94.8544444
"Oakwood, OK",35.9316667,-98.7047222
"Oberlin, OK",33.8736111,-95.8513889
"Ochelata, OK",36.6000000,-95.9794444
"Octavia, OK",34.5266667,-94.7027778
"Odetta, OK",34.6638889,-98.8433333
"Ogeechee, OK",36.7625000,-94.8141667
"Oglesby, OK",36.6263889,-95.8563889
"Oil Center, OK",34.8686111,-96.8238889
"Oil City, OK",34.2744444,-97.4180556
"Oilton, OK",36.0844444,-96.5833333
"Okarche, OK",35.7258333,-97.9761111
"Okay, OK",35.8505556,-95.3180556
"Okeene, OK",36.1161111,-98.3166667
"Okemah, OK",35.4325000,-96.3047222
"Okesa, OK",36.7127778,-96.1344444
"Okfuskee, OK",35.5952778,-96.2280556
"Oklahoma City, OK",35.4675000,-97.5161111
"Oklahoma Hills, OK",34.4819444,-97.9280556
"Okmulgee, OK",35.6233333,-95.9602778
"Okoee, OK",36.5186111,-95.0944444
"Oktaha, OK",35.5763889,-95.4747222
"Old Allison, OK",33.8813889,-96.3369444
"Old Bennington, OK",34.0475000,-96.0250000
"Old Bliss, OK",36.5475000,-97.1441667
"Old Eucha, OK",36.3447222,-94.9450000
"Old Farris, OK",34.2438889,-95.8750000
"Old Retrop, OK",35.1452778,-99.3422222
"Old Scott, OK",34.3608333,-97.4394444
"Oleta, OK",34.1994444,-95.3436111
"Olive, OK",33.9077778,-96.4477778
"Olney, OK",34.4725000,-96.3608333
"Olustee, OK",34.5486111,-99.4219444
"Omega, OK",35.8702778,-98.1975000
"Onapa, OK",35.4058333,-95.5530556
"Oneida, OK",35.9708333,-98.0669444
"Oneta, OK",36.0188889,-95.7077778
"Ontario, OK",36.9875000,-94.7627778
"Oologah, OK",36.4469444,-95.7080556
"Oowala, OK",36.4233333,-95.6144444
"Opah, OK",36.7511111,-96.2930556
"Optima, OK",36.7583333,-101.3558333
"Ord, OK",33.9100000,-95.4991667
"Orienta, OK",36.3600000,-98.4736111
"Oriental, OK",35.5363889,-96.2286111
"Orion, OK",36.2166667,-98.7783333
"Orlando, OK",36.1488889,-97.3777778
"Orr, OK",34.0319444,-97.5352778
"Osage, OK",36.2927778,-96.4155556
"Osage Junction, OK",36.5352778,-96.7180556
"Oscar, OK",33.9838889,-97.7525000
"Oseuma, OK",36.7297222,-94.8905556
"Oswalt, OK",34.0275000,-97.3344444
"Otoe, OK",36.3838889,-97.1830556
"Ottawa, OK",36.8566667,-94.7875000
"Overbrook, OK",34.0672222,-97.1408333
"Owasso, OK",36.2694444,-95.8544444
"Owen, OK",36.9991667,-95.9313889
"Ozark, OK",34.6380556,-99.2113889
"Paden, OK",35.5077778,-96.5672222
"Page, OK",34.7105556,-94.5494444
"Panama, OK",35.1672222,-94.6722222
"Panola, OK",34.9286111,-95.2130556
"Panoma, OK",36.8338889,-101.2591667
"Panther, OK",35.1347222,-94.9983333
"Paoli, OK",34.8266667,-97.2588889
"Paradise Hill, OK",35.6261111,-95.0672222
"Paradise View, OK",36.1441667,-95.3019444
"Parallel, OK",35.8986111,-98.8311111
"Park Hill, OK",35.8611111,-94.9586111
"Park Wheeler Corner, OK",35.6244444,-96.1572222
"Parker, OK",34.7377778,-96.1800000
"Parkersburg, OK",35.4925000,-99.0233333
"Parkland, OK",35.8400000,-96.8419444
"Parvin, OK",36.0719444,-98.1738889
"Patterson, OK",34.9547222,-95.4013889
"Patton, OK",36.4766667,-95.2555556
"Pauls Valley, OK",34.7400000,-97.2219444
"Paw Paw, OK",35.3322222,-94.5133333
"Pawhuska, OK",36.6677778,-96.3369444
"Pawnee, OK",36.3377778,-96.8036111
"Payne, OK",34.9061111,-97.5297222
"Payson, OK",35.5502778,-96.8550000
"Payton Crossing, OK",34.2916667,-95.8913889
"Peachtree Crossing, OK",34.6869444,-98.3813889
"Pearson, OK",35.0727778,-96.9175000
"Pearsonia, OK",36.8016667,-96.4505556
"Peavine, OK",35.8897222,-94.6138889
"Peckham, OK",36.8869444,-97.1755556
"Peggs, OK",36.0808333,-95.0991667
"Pemeta, OK",36.0244444,-96.6152778
"Peno Corner, OK",35.3330556,-94.4669444
"Pensacola, OK",36.4550000,-95.1302778
"Peoria, OK",36.9152778,-94.6697222
"Perkins, OK",35.9738889,-97.0333333
"Pernell, OK",34.5613889,-97.5097222
"Perry, OK",36.2894444,-97.2877778
"Pershing, OK",36.5933333,-96.2750000
"Peterman Ridge, OK",36.1961111,-96.2888889
"Petersburg, OK",33.9550000,-97.5694444
"Petes Corner, OK",36.2902778,-97.1033333
"Petros, OK",34.8694444,-94.6086111
"Pettit, OK",35.7647222,-94.9652778
"Pettit Bay, OK",35.7525000,-94.9430556
"Pharoah, OK",35.4202778,-96.1227778
"Phillips, OK",34.5058333,-96.2194444
"Phroso, OK",36.2808333,-98.8175000
"Picher, OK",36.9869444,-94.8305556
"Pickens, OK",34.3963889,-95.0116667
"Pickett, OK",34.7819444,-96.7744444
"Pickwick, OK",33.8675000,-96.5263889
"Piedmont, OK",35.6419444,-97.7461111
"Pierce, OK",35.4347222,-95.7161111
"Pike, OK",33.9644444,-97.3250000
"Pin Oaks Acres, OK",36.1288889,-95.2702778
"Pine Knot Crossing, OK",34.2486111,-95.1419444
"Pine Ridge, OK",35.0150000,-98.4441667
"Pine Top, OK",34.6772222,-95.7416667
"Piney, OK",35.8844444,-94.5416667
"Pinhook Corner, OK",35.5361111,-94.8847222
"Pink, OK",35.2605556,-97.1194444
"Piper, OK",36.1741667,-98.2672222
"Pirtle, OK",33.9888889,-96.2675000
"Pittsburg, OK",34.7130556,-95.8497222
"Plainview, OK",35.0733333,-99.7219444
"Platter, OK",33.9069444,-96.5347222
"Player, OK",36.0961111,-96.6027778
"Pleasant Grove, OK",35.2247222,-96.7372222
"Pleasant Hill, OK",33.7688889,-94.6641667
"Pleasant Valley, OK",35.9894444,-97.3002778
"Plunketville, OK",34.4141667,-94.4883333
"Pocasset, OK",35.1936111,-97.9522222
"Pocola, OK",35.2311111,-94.4777778
"Polk, OK",36.6083333,-97.4538889
"Ponca City, OK",36.7069444,-97.0852778
"Pond Creek, OK",36.6691667,-97.8008333
"Pontotoc, OK",34.4886111,-96.6255556
"Poole, OK",35.6088889,-97.2263889
"Pooleville, OK",34.4194444,-97.3994444
"Port, OK",35.2044444,-99.3069444
"Porter, OK",35.8708333,-95.5222222
"Porter Hill, OK",34.7825000,-98.3863889
"Porum, OK",35.3561111,-95.2652778
"Post Oak, OK",34.0711111,-97.4213889
"Poteau, OK",35.0536111,-94.6233333
"Potter, OK",36.9566667,-94.8644444
"Powell, OK",33.9550000,-96.8622222
"Powers, OK",35.4497222,-97.9519444
"Prague, OK",35.4866667,-96.6847222
"Prairie Hill, OK",34.5938889,-99.5438889
"Prattville, OK",36.1044444,-96.1183333
"Prentiss, OK",35.3638889,-99.8052778
"Preston, OK",35.7113889,-95.9913889
"Price, OK",36.1355556,-96.0680556
"Pritchard, OK",34.0841667,-96.1469444
"Proctor, OK",35.9661111,-94.7772222
"Provence, OK",34.1511111,-97.0205556
"Prue, OK",36.2380556,-96.3163889
"Pruitt City, OK",34.4200000,-97.5100000
"Pryor, OK",36.3083333,-95.3166667
"Pulaski, OK",35.8136111,-96.4394444
"Pumpkin Center, OK",35.7127778,-95.1269444
"Purcell, OK",35.0136111,-97.3608333
"Purdy, OK",34.7158333,-97.5872222
"Putnam, OK",35.8555556,-98.9680556
"Pyramid Corners, OK",36.8016667,-95.1430556
"Qualls, OK",35.7202778,-95.0327778
"Quapaw, OK",36.9544444,-94.7877778
"Quay, OK",36.1594444,-96.7105556
"Quinlan, OK",36.4544444,-99.0450000
"Quinton, OK",35.1227778,-95.3708333
"Rabornville, OK",36.2052778,-96.3272222
"Raiford, OK",35.2677778,-95.7866667
"Ralph, OK",35.5088889,-99.0116667
"Ralston, OK",36.5038889,-96.7319444
"Rambo, OK",36.2688889,-96.8891667
"Ramona, OK",36.5302778,-95.9233333
"Randlett, OK",34.1772222,-98.4633333
"Range, OK",36.5438889,-101.0827778
"Rankin, OK",35.6244444,-99.9241667
"Ratliff City, OK",34.4488889,-97.5091667
"Rattan, OK",34.2002778,-95.4127778
"Ravia, OK",34.2416667,-96.7511111
"Rayford, OK",34.4344444,-97.0944444
"Reagan, OK",34.3488889,-96.7213889
"Reams, OK",35.0655556,-95.6997222
"Red Bird, OK",35.8855556,-95.5886111
"Red Fork, OK",36.1058333,-96.0247222
"Red Hill, OK",35.3472222,-94.9402778
"Red Oak, OK",34.9508333,-95.0800000
"Red Rock, OK",36.4591667,-97.1786111
"Redbird Smith, OK",35.5661111,-95.0202778
"Redden, OK",34.5063889,-95.8444444
"Redland, OK",33.9100000,-94.6736111
"Reed, OK",34.9005556,-99.6952778
"Reeder Ford, OK",35.5788889,-94.5194444
"Reeding, OK",35.7908333,-97.7697222
"Regnier, OK",36.9938889,-102.8566667
"Reichert, OK",34.8691667,-94.7538889
"Remington, OK",36.6444444,-96.7208333
"Remy, OK",35.4563889,-94.5338889
"Renfrow, OK",36.9255556,-97.6555556
"Rentiesville, OK",35.5213889,-95.4947222
"Retrop, OK",35.1597222,-99.3594444
"Rexroat, OK",34.2163889,-97.4044444
"Reydon, OK",35.6536111,-99.9186111
"Reynolds, OK",34.6652778,-95.9308333
"Rhea, OK",35.8416667,-99.2344444
"Richardsville, OK",35.4783333,-95.6805556
"Richland, OK",35.5800000,-97.8044444
"Richmond, OK",36.1908333,-99.0519444
"Richville, OK",34.9377778,-95.6741667
"Ridley, OK",34.7036111,-98.3777778
"Rigsby, OK",36.2061111,-96.3619444
"Ringling, OK",34.1783333,-97.5922222
"Ringold, OK",34.2150000,-95.1250000
"Ringwood, OK",36.3794444,-98.2450000
"Ripley, OK",36.0177778,-96.9052778
"Ritts Junction, OK",35.7411111,-96.5119444
"Roberta, OK",33.9263889,-96.3022222
"Robinson Corner, OK",34.0852778,-96.6011111
"Rock Creek, OK",34.8400000,-96.1269444
"Rock Island, OK",35.1822222,-94.4736111
"Rocky, OK",35.1569444,-99.0600000
"Rocky Ford, OK",36.1758333,-94.9108333
"Rocky Mountain, OK",35.8052778,-94.7672222
"Rocky Point, OK",36.0283333,-95.3277778
"Roff, OK",34.6275000,-96.8405556
"Rogers, OK",36.9169444,-95.1975000
"Roland, OK",35.4211111,-94.5144444
"Roll, OK",35.7791667,-99.7111111
"Romia, OK",33.8380556,-96.1697222
"Romulus, OK",35.1163889,-96.9230556
"Ron, OK",34.7922222,-99.8594444
"Roosevelt, OK",34.8486111,-99.0213889
"Rose, OK",36.2194444,-95.0294444
"Rosedale, OK",34.9183333,-97.1836111
"Rosehill, OK",35.5086111,-99.7169444
"Rosston, OK",36.8133333,-99.9336111
"Rossville, OK",35.5938889,-96.9986111
"Row, OK",36.2786111,-94.6902778
"Roxana, OK",36.1013889,-97.6569444
"Rubottom, OK",33.9402778,-97.4566667
"Rufe, OK",34.1236111,-95.1438889
"Rush Springs, OK",34.7825000,-97.9566667
"Russell, OK",34.7680556,-99.6669444
"Russellville, OK",35.1516667,-95.4350000
"Russett, OK",34.1900000,-96.8047222
"Ruthdale, OK",36.8150000,-95.7372222
"Ryan, OK",34.0200000,-97.9572222
"Sacred Heart, OK",35.0011111,-96.8091667
"Sadie, OK",35.3877778,-94.8538889
"Sageeyah, OK",36.3711111,-95.6527778
"Saint Louis, OK",35.0741667,-96.8527778
"Salem, OK",35.3838889,-95.9283333
"Salina, OK",36.2927778,-95.1530556
"Sallisaw, OK",35.4602778,-94.7872222
"Salt Fork, OK",36.6350000,-97.5886111
"Sams Point, OK",35.1938889,-95.6933333
"Sand Bluff, OK",34.1275000,-95.7991667
"Sand Creek, OK",36.8402778,-98.0194444
"Sand Point, OK",33.9644444,-96.5622222
"Sand Springs, OK",36.1397222,-96.1086111
"Sanders, OK",35.9205556,-94.7066667
"Sandy, OK",34.8125000,-99.9644444
"Sans Bois, OK",35.1305556,-95.1558333
"Santa Fe, OK",34.4197222,-97.6922222
"Sapulpa, OK",35.9986111,-96.1138889
"Sardis, OK",34.6658333,-95.4094444
"Sasakwa, OK",34.9486111,-96.5250000
"Satterwhite, OK",34.5647222,-97.4047222
"Savanna, OK",34.8288889,-95.8436111
"Sawyer, OK",34.0136111,-95.3713889
"Sayre, OK",35.2911111,-99.6397222
"Schlegel, OK",36.0075000,-96.6783333
"Schoolton, OK",35.3916667,-96.4583333
"Schulter, OK",35.5144444,-95.9563889
"Scipio, OK",35.0547222,-95.9563889
"Scott, OK",35.3766667,-98.2361111
"Scraper, OK",36.0894444,-94.8502778
"Scullin, OK",34.5186111,-96.8622222
"Sealy, OK",34.9563889,-96.5030556
"Sedan, OK",34.9716667,-98.7605556
"Seiling, OK",36.1480556,-98.9238889
"Selman, OK",36.8019444,-99.4905556
"Seminole, OK",35.2244444,-96.6702778
"Sentinel, OK",35.1577778,-99.1750000
"Sequoyah, OK",36.3733333,-95.5605556
"Seven Oaks, OK",35.4813889,-94.7319444
"Sevenmile Corner, OK",34.1133333,-96.1469444
"Seward, OK",35.7980556,-97.4880556
"Sha-To-She, OK",36.2130556,-96.2769444
"Shady Grove, OK",35.9441667,-95.0947222
"Shady Point, OK",35.1300000,-94.6583333
"Shamrock, OK",35.9100000,-96.5836111
"Sharon, OK",36.2758333,-99.3352778
"Shattuck, OK",36.2758333,-99.8808333
"Shawnee, OK",35.3272222,-96.9250000
"Shay, OK",33.9327778,-96.7747222
"Shea, OK",36.3841667,-97.7805556
"Sherwood, OK",34.3311111,-94.7780556
"Shidler, OK",36.7819444,-96.6608333
"Shiloh, OK",35.8055556,-97.1591667
"Shinewell, OK",33.8811111,-94.5130556
"Shirk, OK",36.1219444,-96.1272222
"Shoals, OK",33.8977778,-95.3975000
"Shopton, OK",35.7263889,-95.3569444
"Short, OK",35.5713889,-94.4911111
"Shrewder, OK",34.7686111,-99.7552778
"Shults, OK",33.8955556,-94.7391667
"Sickles, OK",35.3627778,-98.4475000
"Silo, OK",34.0413889,-96.4738889
"Silver City, OK",36.0902778,-96.4941667
"Simpson, OK",34.1527778,-96.8891667
"Skedee, OK",36.3794444,-96.7047222
"Skiatook, OK",36.3683333,-96.0011111
"Skullyville, OK",35.2483333,-94.5933333
"Slapout, OK",36.6158333,-100.1083333
"Slaughterville, OK",35.0872222,-97.3347222
"Slick, OK",35.7769444,-96.2658333
"Slim, OK",34.0841667,-95.1041667
"Smacker, OK",35.0133333,-94.6644444
"Smith Village, OK",35.4508333,-97.4569444
"Smith-Lee, OK",33.8869444,-96.0244444
"Smithville, OK",34.4666667,-94.6436111
"Snake Creek, OK",36.1761111,-95.0980556
"Sneed Acres, OK",34.6363889,-98.3897222
"Snow, OK",34.3958333,-95.4125000
"Snyder, OK",34.6588889,-98.9513889
"Sobol, OK",34.1611111,-95.2383333
"Soldani, OK",36.7591667,-96.7972222
"Sooner, OK",35.2325000,-97.8533333
"Soonerville, OK",35.9275000,-96.8372222
"Soper, OK",34.0327778,-95.6969444
"Sophia, OK",36.5288889,-100.3963889
"Sorrels, OK",35.0291667,-94.6466667
"South Coffeyville, OK",36.9944444,-95.6200000
"South Village, OK",35.9130556,-96.6419444
"Southard, OK",36.0558333,-98.4750000
"Spade Mountain, OK",35.8775000,-94.7461111
"Sparks, OK",35.6080556,-96.8208333
"Spaulding, OK",35.0138889,-96.4397222
"Spavinaw, OK",36.3911111,-95.0463889
"Speer, OK",34.1133333,-95.5555556
"Spelter City, OK",35.4583333,-95.9630556
"Spencer, OK",35.5227778,-97.3769444
"Spencerville, OK",34.1422222,-95.3580556
"Sperry, OK",36.2972222,-95.9911111
"Spiro, OK",35.2411111,-94.6197222
"Sportsman Acres, OK",36.2483333,-95.2661111
"Sportsmen Acres, OK",36.2455556,-95.2513889
"Spring Creek, OK",35.2616667,-98.1830556
"Spring Hill, OK",35.0147222,-97.2650000
"Springer, OK",34.3144444,-97.1425000
"Springhill, OK",35.8130556,-95.5705556
"Squaretop, OK",35.0752778,-98.3013889
"Stafford, OK",35.5366667,-99.1216667
"Staley, OK",33.8266667,-96.5297222
"Stanley, OK",34.5400000,-95.4694444
"Stapp, OK",34.7550000,-94.6236111
"Star, OK",35.3111111,-94.8647222
"Stealy, OK",34.9280556,-97.4061111
"Stecker, OK",34.9575000,-98.3155556
"Steedman, OK",34.8155556,-96.4797222
"Steel Junction, OK",34.0405556,-94.7752778
"Stella, OK",35.3191667,-97.2125000
"Stephens Gap, OK",34.1572222,-94.7000000
"Sterling, OK",34.7502778,-98.1713889
"Stidham, OK",35.3686111,-95.6994444
"Stigler, OK",35.2536111,-95.1227778
"Stillwater, OK",36.1155556,-97.0580556
"Stilwell, OK",35.8144444,-94.6283333
"Stonebluff, OK",35.8858333,-95.7366667
"Stones Corner, OK",35.8711111,-95.6063889
"Stonewall, OK",34.6525000,-96.5258333
"Stoney Point, OK",35.5958333,-94.6627778
"Stony Point, OK",35.8477778,-94.6944444
"Story, OK",34.8552778,-97.4583333
"Straight, OK",36.8766667,-101.4483333
"Strang, OK",36.4105556,-95.1305556
"Stratford, OK",34.7966667,-96.9591667
"Strawberry Spring, OK",35.9897222,-94.6494444
"Stringtown, OK",34.4666667,-96.0530556
"Strohm, OK",36.6430556,-96.5552778
"Strong City, OK",35.6702778,-99.5991667
"Stroud, OK",35.7486111,-96.6577778
"Stuart, OK",34.9013889,-96.0986111
"Sturgis, OK",36.8938889,-102.0697222
"Success, OK",36.6127778,-95.0347222
"Sugar Creek, OK",34.8897222,-94.4786111
"Sugden, OK",34.0819444,-97.9780556
"Sulphur, OK",34.5077778,-96.9680556
"Summerfield, OK",34.8986111,-94.8658333
"Summit, OK",35.6658333,-95.4225000
"Sumner, OK",36.3188889,-97.1211111
"Sumpter, OK",36.8836111,-97.2941667
"Sunkist, OK",34.1419444,-95.8858333
"Sunray, OK",34.4125000,-97.9647222
"Sunrise, OK",35.5205556,-96.1227778
"Sunset, OK",35.7544444,-98.9683333
"Sunset Corner, OK",35.2383333,-94.6719444
"Sunsweet, OK",36.5825000,-95.3238889
"Svoboda, OK",34.7102778,-98.9555556
"Swan Lake, OK",35.2347222,-98.5158333
"Sweetwater, OK",35.4222222,-99.9111111
"Swink, OK",34.0177778,-95.2019444
"Sycamore, OK",36.4050000,-94.7130556
"Sylvian, OK",35.3477778,-96.5652778
"Tabler, OK",35.0441667,-97.8194444
"Tabor, OK",35.8016667,-96.2633333
"Taft, OK",35.7616667,-95.5461111
"Tagg Flats, OK",36.3391667,-94.9252778
"Tahlequah, OK",35.9152778,-94.9697222
"Tahona, OK",35.1613889,-94.6030556
"Tailholt, OK",35.8366667,-94.8419444
"Talala, OK",36.5297222,-95.7011111
"Talihina, OK",34.7513889,-95.0477778
"Tallant, OK",36.5975000,-96.1902778
"Taloah, OK",34.2588889,-96.2022222
"Taloga, OK",36.0386111,-98.9633333
"Tamaha, OK",35.3961111,-94.9833333
"Tangier, OK",36.4208333,-99.5330556
"Tatums, OK",34.4827778,-97.4613889
"Taupa, OK",34.6038889,-98.5100000
"Taylor, OK",35.2480556,-99.3819444
"Taylor Corner Gin, OK",34.2180556,-98.9233333
"Taylor Ferry, OK",35.9441667,-95.2788889
"Tecumseh, OK",35.2577778,-96.9363889
"Tegarden, OK",36.7977778,-98.9697222
"Temple, OK",34.2719444,-98.2355556
"Tenkiller, OK",35.8005556,-94.8636111
"Teresita, OK",36.1094444,-94.9925000
"Terlton, OK",36.1880556,-96.4900000
"Terral, OK",33.8966667,-97.9361111
"Texanna, OK",35.3472222,-95.4366667
"Texhoma, OK",36.5050000,-101.7825000
"Texola, OK",35.2191667,-99.9908333
"Thackerville, OK",33.7933333,-97.1427778
"The Holy City, OK",34.7425000,-98.5900000
"The Village, OK",35.5608333,-97.5511111
"Thomas, OK",35.7441667,-98.7472222
"Thompson Corner, OK",35.9152778,-95.0825000
"Three-Way Corner, OK",35.2908333,-98.4116667
"Ti, OK",34.7091667,-95.6611111
"Tia Juana, OK",36.4788889,-95.0030556
"Tiawah, OK",36.2611111,-95.5605556
"Tiger, OK",36.1886111,-95.8044444
"Timberlane, OK",36.2125000,-96.2616667
"Tiner, OK",34.0411111,-94.6333333
"Tip, OK",36.3508333,-95.1838889
"Tipton, OK",34.5027778,-99.1405556
"Tishomingo, OK",34.2361111,-96.6783333
"Titanic, OK",35.9008333,-94.7719444
"Todd, OK",36.6666667,-95.0530556
"Togo, OK",36.4197222,-98.7644444
"Tom, OK",33.7358333,-94.5727778
"Tonkawa, OK",36.6783333,-97.3097222
"Tonnece, OK",36.2786111,-94.6116667
"Toppers, OK",35.9705556,-95.3094444
"Torpedo, OK",36.7269444,-96.0427778
"Touzalin, OK",36.3333333,-99.9744444
"Trail, OK",35.9686111,-99.2963889
"Trestle Ford, OK",34.9922222,-94.4800000
"Tribbey, OK",35.1152778,-97.0530556
"Trousdale, OK",35.0411111,-97.0425000
"Troy, OK",34.3272222,-96.7813889
"Tryon, OK",35.8697222,-96.9636111
"Tsa La Gi Indian Village, OK",35.8663889,-94.9583333
"Tucker, OK",35.3036111,-94.7300000
"Tullahassee, OK",35.8347222,-95.4375000
"Tulsa, OK",36.1538889,-95.9925000
"Tupelo, OK",34.6047222,-96.4238889
"Turkey Ford, OK",36.6675000,-94.7152778
"Turley, OK",36.2419444,-95.9755556
"Turner, OK",33.9400000,-97.3163889
"Turpin, OK",36.8675000,-100.8769444
"Tushka, OK",34.3202778,-96.1669444
"Tuskahoma, OK",34.6177778,-95.2763889
"Tuskegee, OK",35.6530556,-96.2808333
"Tussy, OK",34.5066667,-97.5427778
"Tuttle, OK",35.2908333,-97.8119444
"Twin Lakes, OK",35.8694444,-97.6644444
"Twin Oaks, OK",36.2052778,-94.8511111
"Tyler, OK",34.1036111,-96.9094444
"Tyner, OK",36.7388889,-97.2919444
"Tyrola, OK",34.9069444,-96.6952778
"Tyrone, OK",36.9541667,-101.0650000
"Ulan, OK",35.1161111,-95.8861111
"Ultima Thule, OK",34.0591667,-94.4786111
"Uncas, OK",36.7955556,-96.9294444
"Unger, OK",34.0261111,-95.7816667
"Union, OK",36.0288889,-97.8008333
"Union City, OK",35.3916667,-97.9411111
"Union Hill, OK",34.8227778,-96.7655556
"Union Valley, OK",34.6941667,-96.5825000
"Unity, OK",36.7619444,-101.7083333
"Ury, OK",34.0516667,-96.3727778
"Utica, OK",33.9013889,-96.2211111
"Valley Brook, OK",35.4019444,-97.4811111
"Valley Park, OK",36.2927778,-95.7372222
"Valliant, OK",34.0022222,-95.0936111
"Vamoosa, OK",34.9855556,-96.6697222
"Vanoss, OK",34.7638889,-96.8716667
"Velma, OK",34.4600000,-97.6736111
"Vera, OK",36.4491667,-95.8805556
"Verden, OK",35.0833333,-98.0875000
"Verdigris, OK",36.2347222,-95.6908333
"Vernon, OK",35.2155556,-95.9255556
"Veterans Colony, OK",34.8061111,-95.3047222
"Vian, OK",35.4983333,-94.9694444
"Vici, OK",36.1497222,-99.2977778
"Victor, OK",34.9663889,-94.7866667
"Victory, OK",34.6522222,-99.4386111
"Vinco, OK",35.9536111,-97.0372222
"Vining, OK",36.7675000,-98.1638889
"Vinita, OK",36.6386111,-95.1538889
"Vinson, OK",34.9005556,-99.8594444
"Virgil, OK",34.0697222,-95.3822222
"Vivian, OK",35.2897222,-95.7161111
"Wade, OK",33.8888889,-96.0758333
"Wadena, OK",34.4025000,-95.5966667
"Wagoner, OK",35.9594444,-95.3691667
"Wainwright, OK",35.6125000,-95.5641667
"Wakita, OK",36.8833333,-97.9216667
"Waldron, OK",36.9977778,-98.1830556
"Walls, OK",35.0369444,-94.9088889
"Wallville, OK",34.7680556,-97.5036111
"Walters, OK",34.3597222,-98.3075000
"Wandel, OK",35.8850000,-97.7452778
"Wanette, OK",34.9619444,-97.0322222
"Wann, OK",36.9152778,-95.8041667
"Wapanucka, OK",34.3738889,-96.4241667
"Ward, OK",35.2372222,-94.7252778
"Ward Springs, OK",34.8111111,-96.0219444
"Wardville, OK",34.6536111,-96.0300000
"Warner, OK",35.4941667,-95.3052778
"Warr Acres, OK",35.5225000,-97.6186111
"Warren, OK",34.7830556,-99.2080556
"Warwick, OK",35.6858333,-97.0038889
"Washington, OK",35.0588889,-97.4841667
"Washita, OK",35.1027778,-98.3405556
"Washunga, OK",36.7836111,-96.8377778
"Wasseta, OK",34.0797222,-96.3100000
"Watchorn, OK",36.4200000,-96.9963889
"Waterloo, OK",35.7252778,-97.4777778
"Watkins, OK",35.9808333,-96.0113889
"Watonga, OK",35.8447222,-98.4127778
"Watova, OK",36.6172222,-95.6555556
"Watson, OK",34.4372222,-94.5572222
"Watts, OK",36.1091667,-94.5700000
"Wauhillau, OK",35.8569444,-94.7730556
"Waukomis, OK",36.2802778,-97.8977778
"Waurika, OK",34.1669444,-97.9972222
"Wayne, OK",34.9180556,-97.3141667
"Waynoka, OK",36.5822222,-98.8794444
"Weatherford, OK",35.5261111,-98.7072222
"Weathers, OK",34.6594444,-95.5833333
"Webb, OK",35.9277778,-99.1322222
"Webb City, OK",36.8069444,-96.7083333
"Webbers Falls, OK",35.5108333,-95.1297222
"Weeks, OK",33.8683333,-95.8338889
"Wekiwa, OK",36.1530556,-96.1727778
"Welch, OK",36.8736111,-95.0955556
"Weleetka, OK",35.3355556,-96.1361111
"Welling, OK",35.8777778,-94.9008333
"Wellston, OK",35.6941667,-97.0630556
"Welon, OK",34.6519444,-99.3461111
"Welty, OK",35.6244444,-96.4050000
"Wes, OK",36.2119444,-96.2688889
"Wesley, OK",34.5877778,-95.8975000
"West Cleo, OK",36.4055556,-98.4650000
"West Fort Smith, OK",35.3969444,-94.4397222
"West Fort Towson, OK",34.0227778,-95.2736111
"West Muskogee, OK",35.7369444,-95.4116667
"West Point, OK",36.1883333,-96.8538889
"West Seneca, OK",36.8366667,-94.6197222
"West Siloam Springs, OK",36.1761111,-94.5747222
"West Tulsa, OK",36.1350000,-96.0022222
"Westport, OK",36.2188889,-96.3244444
"Westville, OK",35.9925000,-94.5677778
"Wetumka, OK",35.2375000,-96.2413889
"Wewoka, OK",35.1586111,-96.4930556
"Wheatland, OK",35.3977778,-97.6519444
"Wheeless, OK",36.7191667,-102.8938889
"Whippoorwill, OK",36.9122222,-96.1297222
"White Bead, OK",34.7633333,-97.3016667
"White Eagle, OK",36.6083333,-97.0758333
"White Oak, OK",36.6202778,-95.2638889
"Whitebead, OK",34.7608333,-97.3002778
"Whitefield, OK",35.2525000,-95.2372222
"Whitesboro, OK",34.6925000,-94.8850000
"Whitmire, OK",35.9441667,-94.6636111
"Wilburton, OK",34.9186111,-95.3088889
"Wildcat Point, OK",35.7647222,-94.9172222
"Wildhorse, OK",35.9127778,-96.8036111
"Willard, OK",36.9725000,-99.7250000
"Williams, OK",35.1647222,-94.5483333
"Willis, OK",33.8855556,-96.8288889
"Willow, OK",35.0513889,-99.5091667
"Willow View, OK",35.0583333,-97.2647222
"Wilson, OK",34.1619444,-97.4255556
"Wilzetta, OK",35.5502778,-96.7352778
"Winchester, OK",35.7861111,-95.9919444
"Winganon, OK",36.5538889,-95.5608333
"Winrock Farms, OK",34.5155556,-96.8394444
"Wirt, OK",34.2308333,-97.5313889
"Wister, OK",34.9672222,-94.7244444
"Witcher, OK",35.5938889,-97.4225000
"Witteville, OK",35.0863889,-94.6505556
"Wolco, OK",36.5383333,-96.0711111
"Wolf, OK",35.0875000,-96.6583333
"Woodall, OK",35.8347222,-95.0680556
"Woodard Corner, OK",35.5219444,-96.1586111
"Woodford, OK",34.3386111,-97.2841667
"Woodlawn Park, OK",35.5113889,-97.6497222
"Woods, OK",35.4352778,-97.2644444
"Woodville, OK",33.9697222,-96.6533333
"Woodward, OK",36.4336111,-99.3900000
"Woolaroc, OK",36.6608333,-96.1141667
"Wright City, OK",34.0600000,-95.0030556
"Wyandotte, OK",36.7933333,-94.7250000
"Wybark, OK",35.8113889,-95.3313889
"Wynnewood, OK",34.6433333,-97.1641667
"Wynona, OK",36.5461111,-96.3269444
"Yahola, OK",35.7625000,-95.6066667
"Yale, OK",36.1141667,-96.6988889
"Yanush, OK",34.7097222,-95.3136111
"Yarnaby, OK",33.7908333,-96.2566667
"Yeager, OK",35.1575000,-96.3391667
"Yerby, OK",35.0005556,-94.6777778
"Yewed, OK",36.6822222,-98.4097222
"Yonkers, OK",36.0527778,-95.2605556
"Yost, OK",36.2008333,-97.0111111
"Yuba, OK",33.8094444,-96.2041667
"Yukon, OK",35.5066667,-97.7622222
"Zafra, OK",34.5083333,-94.4883333
"Zaneis, OK",34.1725000,-97.4988889
"Zeb, OK",35.8216667,-95.0544444
"Zena, OK",36.4961111,-94.8533333
"Zincville, OK",36.9913889,-94.8086111
"Zion, OK",35.7825000,-94.6347222
"Zoe, OK",34.7677778,-94.6280556
