name,lat,lon
"Acme, OR",43.9800000,-124.0597222
"Adair Village, OR",44.6708333,-123.2166667
"Adams, OR",45.7675000,-118.5613889
"Adel, OR",42.1775000,-119.8975000
"Adrian, OR",43.7408333,-117.0708333
"Agate Beach, OR",44.6775000,-124.0605556
"Agness, OR",42.5566667,-124.0677778
"Aims, OR",45.4508333,-122.2066667
"Airlie, OR",44.7505556,-123.3302778
"Alameda, OR",45.5552778,-122.6294444
"Albany, OR",44.6366667,-123.1047222
"Albina, OR",45.5438889,-122.6738889
"Alder, OR",44.5825000,-123.5077778
"Alder Creek, OR",45.3780556,-122.1005556
"Aldervale, OR",45.7686111,-123.8430556
"Alfalfa, OR",44.0775000,-121.0158333
"Algoma, OR",42.3472222,-121.8144444
"Alicel, OR",45.4044444,-117.9788889
"Allegany, OR",43.4261111,-124.0311111
"Alma, OR",43.8911111,-123.4736111
"Aloha, OR",45.4944444,-122.8658333
"Alpha, OR",44.1644444,-123.6994444
"Alpine, OR",44.3302778,-123.3591667
"Alsea, OR",44.3816667,-123.5952778
"Alsea Rivera, OR",44.4055556,-123.8972222
"Alston, OR",46.0994444,-123.0458333
"Altamont, OR",42.2069444,-121.7361111
"Alvadore, OR",44.1269444,-123.2633333
"Amity, OR",45.1158333,-123.2061111
"Andrews, OR",42.4641667,-118.6122222
"Anlauf, OR",43.7111111,-123.2225000
"Annex, OR",44.2402778,-116.9833333
"Antelope, OR",44.9108333,-120.7216667
"Apiary, OR",46.0141667,-123.0288889
"Applegate, OR",42.2572222,-123.1672222
"Arago, OR",43.1022222,-124.1911111
"Arcadia, OR",43.9244444,-116.9844444
"Arch Cape, OR",45.8291667,-123.9608333
"Ardenwald, OR",45.4555556,-122.6286111
"Arleta, OR",45.4888889,-122.5922222
"Arlington, OR",45.7169444,-120.1997222
"Arock, OR",42.9141667,-117.5241667
"Ash, OR",43.5525000,-123.8205556
"Ashland, OR",42.1947222,-122.7083333
"Ashwood, OR",44.7338889,-120.7533333
"Astoria, OR",46.1880556,-123.8300000
"Athena, OR",45.8119444,-118.4894444
"Aumsville, OR",44.8411111,-122.8697222
"Aurora, OR",45.2311111,-122.7547222
"Austin, OR",44.6027778,-118.4955556
"Azalea, OR",42.7955556,-123.2591667
"Bacona, OR",45.7775000,-123.1208333
"Badger Corner, OR",44.9502778,-122.9822222
"Bagnell Ferry, OR",42.4666667,-124.3666667
"Bakeoven, OR",45.0866667,-120.8386111
"Baker City, OR",44.7750000,-117.8333333
"Ballston, OR",45.0669444,-123.3197222
"Balm Grove, OR",45.5969444,-123.2172222
"Bancroft, OR",42.9397222,-124.0058333
"Bandon, OR",43.1191667,-124.4072222
"Banks, OR",45.6188889,-123.1130556
"Barlow, OR",45.2519444,-122.7194444
"Barnes Heights, OR",45.5325000,-122.7527778
"Barnesdale, OR",45.6394444,-123.8533333
"Bartlett, OR",45.9847222,-117.4572222
"Barton, OR",45.3891667,-122.4058333
"Barview, OR",43.3544444,-124.3119444
"Basque, OR",42.4108333,-117.8675000
"Bates, OR",44.5930556,-118.5075000
"Batterson, OR",45.7013889,-123.7572222
"Battin, OR",45.4588889,-122.5769444
"Bay City, OR",45.5227778,-123.8880556
"Bay Park, OR",43.3491667,-124.2005556
"Bayshore, OR",44.4388889,-124.0736111
"Bayside Gardens, OR",45.7138889,-123.9138889
"Bayview, OR",44.4425000,-124.0338889
"Beagle, OR",42.5347222,-122.9241667
"Beatty, OR",42.4419444,-121.2697222
"Beaver, OR",45.2769444,-123.8252778
"Beaver Creek, OR",45.2880556,-122.5344444
"Beaver Homes, OR",46.0058333,-122.9258333
"Beaver Springs, OR",46.0461111,-122.9469444
"Beaverton, OR",45.4872222,-122.8025000
"Beech Creek, OR",44.6194444,-119.1477778
"Belknap Springs, OR",44.1905556,-122.0480556
"Bellevue, OR",45.1155556,-123.3150000
"Bellfountain, OR",44.3638889,-123.3541667
"Bend, OR",44.0583333,-121.3141667
"Berlin, OR",44.4980556,-122.7466667
"Bethany, OR",45.0125000,-122.8166667
"Bethel, OR",44.0652778,-123.1313889
"Bethel Gospel Park, OR",45.0541667,-122.9508333
"Bethel Heights, OR",45.0447222,-123.1494444
"Beulah, OR",43.9066667,-118.1516667
"Beverly Beach, OR",44.7205556,-124.0563889
"Biggs Junction, OR",45.6700000,-120.8316667
"Bingham Springs, OR",45.7422222,-118.2308333
"Birkenfeld, OR",45.9908333,-123.3363889
"Bissell, OR",45.2941667,-122.1780556
"Bitter Lick, OR",42.7930556,-122.6375000
"Blachly, OR",44.1950000,-123.5338889
"Black Butte, OR",43.5694444,-123.0763889
"Black Butte Ranch, OR",44.3775000,-121.6525000
"Black Rock, OR",44.8711111,-123.4950000
"Blaine, OR",45.2775000,-123.7033333
"Blaisdell, OR",42.3783333,-120.8427778
"Blodgett, OR",44.5972222,-123.5183333
"Blooming, OR",45.4875000,-123.0500000
"Blue River, OR",44.1547222,-122.3400000
"Bly, OR",42.3977778,-121.0405556
"Boardman, OR",45.8400000,-119.6994444
"Bolton, OR",45.3719444,-122.6238889
"Bonanza, OR",42.1988889,-121.4050000
"Bonita, OR",44.2525000,-117.8327778
"Bonneville, OR",45.6361111,-121.9508333
"Bonny Slope, OR",45.5458333,-122.7819444
"Boring, OR",45.4300000,-122.3736111
"Bourne, OR",44.8244444,-118.1963889
"Boyd, OR",45.4894444,-121.0811111
"Boyer, OR",45.0702778,-123.7255556
"Bradley Corner, OR",45.4533333,-122.7730556
"Bradwood, OR",46.1969444,-123.4377778
"Breitenbush, OR",44.7819444,-121.9708333
"Breitenbush Hot Springs, OR",44.7830556,-121.9777778
"Briarwood, OR",45.4302778,-122.6594444
"Brickerville, OR",44.0658333,-123.8797222
"Bridal Veil, OR",45.5591667,-122.1741667
"Bridge, OR",43.0241667,-124.0058333
"Bridgeport, OR",44.4858333,-117.7441667
"Bridgeview, OR",42.1261111,-123.6047222
"Bridlemile, OR",45.4933333,-122.7091667
"Brighton, OR",45.6725000,-123.9216667
"Brightwood, OR",45.3763889,-122.0155556
"Broadbent, OR",43.0091667,-124.1452778
"Broadmead, OR",45.0730556,-123.2683333
"Brockway, OR",43.1091667,-123.4541667
"Brogan, OR",44.2463889,-117.5161111
"Brookings, OR",42.0527778,-124.2827778
"Brooklyn, OR",45.4905556,-122.6361111
"Brooks, OR",45.0483333,-122.9572222
"Brothers, OR",43.8138889,-120.6022222
"Brownlee, OR",44.8116667,-116.9333333
"Brownsboro, OR",42.4683333,-122.7088889
"Brownsmead, OR",46.2177778,-123.5394444
"Brownsville, OR",44.3936111,-122.9836111
"Browntown, OR",42.0841667,-123.5161111
"Brush College, OR",44.9722222,-123.0763889
"Bryant, OR",45.4041667,-122.7213889
"Buchanan, OR",43.6425000,-118.6275000
"Buckheaven, OR",45.3766667,-122.9983333
"Buckhorn Springs, OR",42.1055556,-122.5305556
"Bucks Corners, OR",45.7855556,-119.3266667
"Buell, OR",45.0163889,-123.4172222
"Buena Vista, OR",44.7697222,-123.1494444
"Bull Run, OR",45.4305556,-122.2305556
"Bullards, OR",43.1500000,-124.3944444
"Buncom, OR",42.1741667,-122.9969444
"Bunker Hill, OR",43.3561111,-124.2036111
"Burlingame, OR",45.4686111,-122.6838889
"Burlington, OR",45.6463889,-122.8413889
"Burns, OR",43.5863889,-119.0530556
"Burnt Woods, OR",44.6038889,-123.6216667
"Butte Falls, OR",42.5433333,-122.5644444
"Butteville, OR",45.2625000,-122.8391667
"Buxton, OR",45.6888889,-123.1897222
"Bybee Corner, OR",42.3172222,-122.9508333
"Cabell City, OR",44.8952778,-118.3672222
"Cairo, OR",43.9961111,-117.0080556
"Calapooia, OR",44.3275000,-122.7394444
"California Bar, OR",42.1197222,-123.4736111
"Calkins, OR",43.2216667,-123.4075000
"Callahan, OR",43.2661111,-123.6086111
"Camas Valley, OR",43.0344444,-123.6727778
"Camp Elkanah, OR",45.2350000,-118.4488889
"Camp Sherman, OR",44.4605556,-121.6400000
"Canaan, OR",45.9322222,-122.9166667
"Canary, OR",43.9280556,-124.0341667
"Canby, OR",45.2630556,-122.6913889
"Canemah, OR",45.3458333,-122.6200000
"Cannon Beach, OR",45.8919444,-123.9602778
"Canyon City, OR",44.3897222,-118.9491667
"Canyonville, OR",42.9275000,-123.2800000
"Cape Meares, OR",45.4900000,-123.9575000
"Capitol Hill, OR",45.4655556,-122.6963889
"Carlton, OR",45.2944444,-123.1752778
"Carnahan, OR",46.1005556,-123.9158333
"Carnation, OR",45.5077778,-123.1013889
"Carpenterville, OR",42.2202778,-124.3383333
"Carson, OR",44.9358333,-117.1744444
"Carson Heights, OR",45.4580556,-122.6800000
"Carus, OR",45.2713889,-122.5694444
"Carver, OR",45.3947222,-122.4961111
"Cascade Gorge, OR",42.7158333,-122.5675000
"Cascade Locks, OR",45.6700000,-121.8894444
"Cascadia, OR",44.3975000,-122.4805556
"Cave Junction, OR",42.1630556,-123.6469444
"Cecil, OR",45.6180556,-119.9577778
"Cedar Flat, OR",44.0527778,-122.8402778
"Cedar Hills, OR",45.5050000,-122.7972222
"Cedar Mill, OR",45.5250000,-122.8097222
"Cedar Point, OR",43.1797222,-124.2122222
"Cedardale, OR",45.1591667,-122.4936111
"Cedarhurst Park, OR",45.3311111,-122.4250000
"Celilo Village, OR",45.6458333,-120.9647222
"Central Point, OR",42.3761111,-122.9152778
"Champoeg, OR",45.2488889,-122.8969444
"Chapman, OR",45.8252778,-122.9841667
"Chapman Corner, OR",44.9605556,-123.0777778
"Chapman Landing, OR",45.7461111,-122.8394444
"Charbonneau, OR",45.2875000,-122.7569444
"Charleston, OR",43.3402778,-124.3288889
"Charlestown, OR",45.8888889,-119.2963889
"Chehalem, OR",45.3280556,-122.8875000
"Chemawa, OR",45.0016667,-122.9913889
"Chemult, OR",43.2166667,-121.7816667
"Chenoweth, OR",45.6277778,-121.2422222
"Cherry Grove, OR",45.4477778,-123.2422222
"Cherry Heights, OR",45.6030556,-121.2397222
"Cherryville, OR",45.3672222,-122.1538889
"Cheshire, OR",44.1897222,-123.2844444
"Chiloquin, OR",42.5777778,-121.8650000
"China Town, OR",44.4930556,-117.6983333
"Chitwood, OR",44.6550000,-123.8213889
"Christmas Valley, OR",43.2363889,-120.6358333
"Clackamas, OR",45.4077778,-122.5691667
"Clackamas Heights, OR",45.3713889,-122.5780556
"Clarke, OR",45.8380556,-119.5997222
"Clarkes, OR",45.2155556,-122.4700000
"Clarksville, OR",44.4913889,-117.6788889
"Clarno, OR",44.9136111,-120.4722222
"Clatskanie, OR",46.1013889,-123.2055556
"Clatskanie Heights, OR",46.0561111,-123.2158333
"Clear Creek, OR",45.8061111,-123.2783333
"Clear Lake, OR",45.0355556,-123.0197222
"Clearwater, OR",43.2630556,-122.4208333
"Clem, OR",45.4213889,-120.2022222
"Cleveland, OR",43.2963889,-123.4752778
"Clifton, OR",46.2111111,-123.4611111
"Climax, OR",42.2952778,-122.6186111
"Cloverdale, OR",45.2061111,-123.8908333
"Coaledo, OR",43.2325000,-124.2319444
"Cobb, OR",45.9552778,-118.3963889
"Coburg, OR",44.1372222,-123.0652778
"Cold Springs, OR",45.8786111,-119.1644444
"Cold Springs Junction, OR",45.9138889,-119.1369444
"Coles Valley, OR",43.3652778,-123.5013889
"Colestin, OR",42.0533333,-122.6500000
"College Hill, OR",44.0311111,-123.0969444
"Colton, OR",45.1722222,-122.4366667
"Columbia City, OR",45.8902778,-122.8058333
"Columbia Heights, OR",45.8638889,-122.8375000
"Comstock, OR",43.7394444,-123.1852778
"Concord, OR",45.4044444,-122.6363889
"Condon, OR",45.2344444,-120.1838889
"Cook, OR",45.4022222,-122.7319444
"Coos Bay, OR",43.3666667,-124.2166667
"Coos River, OR",43.3777778,-124.1000000
"Cooston, OR",43.3950000,-124.1841667
"Copper, OR",42.0266667,-123.1455556
"Coquille, OR",43.1772222,-124.1863889
"Corbett, OR",45.5319444,-122.2900000
"Corey Hill, OR",45.8619444,-123.2047222
"Cornelius, OR",45.5200000,-123.0586111
"Cornucopia, OR",45.0083333,-117.1916667
"Coronado Shores, OR",44.8652778,-124.0383333
"Corvallis, OR",44.5647222,-123.2608333
"Cottage Grove, OR",43.7977778,-123.0583333
"Cottrell, OR",45.4577778,-122.3044444
"Courtrock, OR",44.6408333,-119.3669444
"Cove, OR",45.2966667,-117.8069444
"Cove Orchard, OR",45.3752778,-123.1536111
"Cow Creek, OR",42.8566667,-123.5963889
"Crabtree, OR",44.6352778,-122.8969444
"Cranberry Corners, OR",43.1258333,-124.3869444
"Crane, OR",43.4152778,-118.5772222
"Crawfordsville, OR",44.3572222,-122.8566667
"Crescent, OR",43.4625000,-121.6944444
"Creston, OR",43.5013889,-118.0088889
"Creswell, OR",43.9180556,-123.0233333
"Crockett, OR",45.9736111,-118.3963889
"Crooked River Ranch, OR",44.4247222,-121.2372222
"Crow, OR",43.9930556,-123.3383333
"Crowfoot, OR",44.5083333,-122.8888889
"Crowley, OR",43.2916667,-117.8933333
"Crown Point, OR",43.3302778,-124.3069444
"Culp Creek, OR",43.7036111,-122.8463889
"Culver, OR",44.5258333,-121.2119444
"Currinsville, OR",45.3152778,-122.3413889
"Curtin, OR",43.7225000,-123.2108333
"Cushman, OR",43.9858333,-124.0430556
"Dads Creek, OR",42.8902778,-123.5594444
"Dairy, OR",42.2352778,-121.5200000
"Dale, OR",44.9886111,-118.9463889
"Dallas, OR",44.9194444,-123.3158333
"Damascus, OR",45.4177778,-122.4577778
"Damascus Heights, OR",45.4208333,-122.4480556
"Danebo, OR",44.0597222,-123.1775000
"Danner, OR",42.9444444,-117.3391667
"Dant, OR",45.0383333,-121.1122222
"Dardanelles, OR",42.4291667,-123.0569444
"Days Creek, OR",42.9725000,-123.1711111
"Dayton, OR",45.2208333,-123.0750000
"Dayville, OR",44.4683333,-119.5347222
"De Moss Springs, OR",45.5113889,-120.6819444
"Deadwood, OR",44.0958333,-123.7622222
"Dee, OR",45.5883333,-121.6255556
"Deer Island, OR",45.9313889,-122.8425000
"Deerhorn, OR",44.0819444,-122.7472222
"Delena, OR",46.0986111,-123.0727778
"Dellwood, OR",43.3691667,-124.0127778
"Delmar, OR",43.2605556,-124.2261111
"Denmark, OR",42.8908333,-124.4613889
"Dennis, OR",44.0908333,-117.3227778
"Depoe Bay, OR",44.8086111,-124.0619444
"Deschutes, OR",44.1566667,-121.2544444
"Deschutes River Woods, OR",43.9916667,-121.3572222
"Detroit, OR",44.7341667,-122.1486111
"Dew Valley, OR",43.0400000,-124.4130556
"Dexter, OR",43.9161111,-122.8216667
"Diamond, OR",43.0122222,-118.6650000
"Diamond Lake, OR",43.1788889,-122.1377778
"Dillard, OR",43.1030556,-123.4266667
"Dilley, OR",45.4908333,-123.1222222
"Disston, OR",43.6983333,-122.7688889
"Dixonville, OR",43.2077778,-123.2400000
"Dodge, OR",45.2150000,-122.3011111
"Dodson, OR",45.6055556,-122.0344444
"Donald, OR",45.2225000,-122.8380556
"Dora, OR",43.1561111,-123.9550000
"Dorena, OR",43.7200000,-122.8608333
"Dover, OR",45.3313889,-122.2277778
"Downs, OR",45.0425000,-122.7927778
"Drain, OR",43.6588889,-123.3175000
"Drake Crossing, OR",44.9261111,-122.6547222
"Draperville, OR",44.6461111,-123.0358333
"Drew, OR",42.8819444,-122.8983333
"Drewsey, OR",43.8066667,-118.3763889
"Drift Creek, OR",44.4130556,-123.9944444
"Dry Creek, OR",44.5052778,-123.2744444
"Dryden, OR",42.2697222,-123.5361111
"Dufur, OR",45.4533333,-121.1294444
"Duncan, OR",45.5613889,-118.3152778
"Dundee, OR",45.2783333,-123.0097222
"Dunes City, OR",43.8833333,-124.1138889
"Dunnean, OR",43.4322222,-118.2608333
"Dunthorpe, OR",45.4358333,-122.6538889
"Durham, OR",45.4022222,-122.7516667
"Durkee, OR",44.5822222,-117.4636111
"Eagle Creek, OR",45.3575000,-122.3577778
"Eagle Point, OR",42.4727778,-122.8016667
"East Gardiner, OR",43.7200000,-124.0811111
"East Maupin, OR",45.1722222,-121.0738889
"East Portland, OR",45.5155556,-122.6591667
"Eastmoreland, OR",45.4733333,-122.6230556
"Eastside, OR",43.3638889,-124.1916667
"Echo, OR",45.7425000,-119.1944444
"Echo Dell, OR",45.3325000,-122.5263889
"Eddyville, OR",44.6347222,-123.7752778
"Eden, OR",45.9069444,-117.5555556
"Edenbower, OR",43.2347222,-123.3811111
"Eightmile, OR",45.2555556,-119.8150000
"Eldorado, OR",44.4263889,-117.7447222
"Elgarose, OR",43.2583333,-123.4847222
"Elgin, OR",45.5650000,-117.9163889
"Elk City, OR",44.6197222,-123.8783333
"Elk Lake, OR",43.9816667,-121.8047222
"Elkhead, OR",43.5408333,-123.1838889
"Elkhorn, OR",44.8358333,-122.3608333
"Elkhorn Woods, OR",44.8133333,-122.4000000
"Elkton, OR",43.6377778,-123.5669444
"Ella, OR",45.6313889,-119.8077778
"Ellendale, OR",44.9300000,-123.3550000
"Elliott Prairie, OR",45.1361111,-122.7555556
"Elmira, OR",44.0658333,-123.3541667
"Elmonica, OR",45.5127778,-122.8536111
"Elsie, OR",45.8658333,-123.5936111
"Elwood, OR",45.2083333,-122.3688889
"Emerson, OR",45.5458333,-120.9791667
"Encina, OR",44.6916667,-117.6902778
"Endersby, OR",45.4925000,-121.1508333
"Englewood, OR",43.3502778,-124.2227778
"Enright, OR",45.7238889,-123.5686111
"Enterprise, OR",45.4263889,-117.2777778
"Eola, OR",44.9325000,-123.1186111
"Eola Crest, OR",45.0988889,-123.1394444
"Eola Village, OR",45.1597222,-123.1483333
"Errol Heights, OR",45.4686111,-122.6083333
"Erskine, OR",45.4383333,-120.7775000
"Estabrook, OR",43.0441667,-124.1336111
"Estacada, OR",45.2897222,-122.3325000
"Eugene, OR",44.0522222,-123.0855556
"Evans, OR",45.5016667,-117.4216667
"Fair Oaks, OR",45.4200000,-122.6494444
"Fairbanks, OR",45.6241667,-121.0008333
"Fairfield, OR",45.1347222,-123.0050000
"Fairhaven, OR",42.1833333,-121.8219444
"Fairview, OR",45.5386111,-122.4327778
"Falcon Heights, OR",42.1375000,-121.7555556
"Fall Creek, OR",43.9597222,-122.8191667
"Falls City, OR",44.8663889,-123.4347222
"Faloma, OR",45.6019444,-122.6680556
"Farmington, OR",45.4491667,-122.9466667
"Faubion, OR",45.3433333,-121.9338889
"Fern Hill, OR",46.1647222,-123.7358333
"Fern Ridge Shores, OR",44.0819444,-123.3069444
"Ferndale, OR",45.9813889,-118.3963889
"Fernvale, OR",42.7786111,-123.3702778
"Fernwood, OR",45.1247222,-122.4700000
"Fields, OR",42.2644444,-118.6741667
"Finn Rock, OR",44.1291667,-122.3816667
"Fir Grove, OR",44.1191667,-123.1369444
"Fir Villa, OR",44.9283333,-123.2730556
"Firwood, OR",45.3775000,-122.2236111
"Fisher, OR",44.2919444,-123.8388889
"Fishers Corner, OR",45.2905556,-122.5633333
"Five Corners, OR",42.1863889,-120.4330556
"Flora, OR",45.9002778,-117.3088889
"Florence, OR",43.9827778,-124.0986111
"Flynn, OR",44.5411111,-123.3855556
"Foley Springs, OR",44.1541667,-122.0975000
"Folkenberg, OR",45.6291667,-122.8650000
"Foots Creek, OR",42.4050000,-123.1377778
"Fords Mill, OR",44.5641667,-122.7208333
"Forest Crossing, OR",44.3488889,-121.0797222
"Forest Grove, OR",45.5200000,-123.1094444
"Forfar, OR",44.5527778,-124.0666667
"Fort Klamath, OR",42.7047222,-121.9947222
"Fort Rock, OR",43.3566667,-121.0527778
"Fort Stevens, OR",46.2022222,-123.9611111
"Fortune Branch, OR",42.7750000,-123.3163889
"Foss, OR",45.6963889,-123.7963889
"Fossil, OR",44.9983333,-120.2150000
"Foster, OR",44.4105556,-122.6711111
"Four Cabin Corner, OR",44.9647222,-123.7663889
"Four Corners, OR",42.3897222,-122.8841667
"Fourmile, OR",43.0083333,-124.4138889
"Fox, OR",44.6488889,-119.1430556
"Fox Valley, OR",44.7597222,-122.5505556
"Franklin, OR",44.1611111,-123.3033333
"Frenchglen, OR",42.8269444,-118.9144444
"Friend, OR",45.3469444,-121.2661111
"Frost Mill, OR",44.0308333,-118.6366667
"Fruita, OR",45.2361111,-116.8444444
"Fruitdale, OR",42.4222222,-123.3069444
"Fruitland, OR",44.9411111,-122.9294444
"Fruitvale, OR",44.6544444,-123.9791667
"Fulton, OR",45.7305556,-118.7480556
"Galena, OR",44.7105556,-118.8152778
"Gales Creek, OR",45.5866667,-123.2136111
"Galesville, OR",42.7783333,-123.2947222
"Galice, OR",42.5697222,-123.5961111
"Garden Home, OR",45.4661111,-122.7522222
"Gardiner, OR",43.7302778,-124.1091667
"Garibaldi, OR",45.5600000,-123.9097222
"Gaston, OR",45.4363889,-123.1383333
"Gates, OR",44.7563889,-122.4155556
"Gateway, OR",44.7755556,-121.0816667
"Gaylord, OR",42.9555556,-124.1055556
"Gazley, OR",42.9536111,-123.2416667
"Gearhart, OR",46.0244444,-123.9100000
"Geneva, OR",44.4736111,-121.3905556
"George, OR",45.2950000,-122.2286111
"Gervais, OR",45.1083333,-122.8963889
"Gibbon, OR",45.6997222,-118.3638889
"Gilbert, OR",45.4769444,-122.5305556
"Gilchrist, OR",43.4772222,-121.6841667
"Gladstone, OR",45.3808333,-122.5936111
"Glasgow, OR",43.4347222,-124.2100000
"Glen Avon, OR",45.0841667,-122.4875000
"Glen Echo, OR",45.3866667,-122.6041667
"Glenada, OR",43.9605556,-124.1027778
"Glenbrook, OR",44.3138889,-123.4052778
"Glencoe, OR",45.6002778,-122.9908333
"Glencullen, OR",45.4872222,-122.7191667
"Glendale, OR",42.7363889,-123.4222222
"Gleneden Beach, OR",44.8813889,-124.0330556
"Glenwood, OR",45.6494444,-123.2697222
"Glide, OR",43.3016667,-123.1000000
"Goble, OR",46.0161111,-122.8741667
"Gold Beach, OR",42.4075000,-124.4205556
"Gold Hill, OR",42.4319444,-123.0494444
"Golden, OR",42.6825000,-123.3302778
"Goldson, OR",44.1633333,-123.3413889
"Gooseberry, OR",45.2925000,-119.8908333
"Goshen, OR",43.9955556,-123.0102778
"Government Camp, OR",45.3041667,-121.7536111
"Grabenhorst Corner, OR",44.8830556,-123.0352778
"Grand Rapids, OR",45.9013889,-123.5027778
"Grand Ronde, OR",45.0602778,-123.6080556
"Grand Ronde Agency, OR",45.0800000,-123.6105556
"Grandview, OR",44.5386111,-121.3405556
"Granite, OR",44.8094444,-118.4166667
"Grants Pass, OR",42.4391667,-123.3272222
"Grass Valley, OR",45.3602778,-120.7844444
"Gravelford, OR",43.1052778,-124.0769444
"Green, OR",43.1605556,-123.3666667
"Green Acres, OR",43.2577778,-124.2036111
"Green Hills, OR",45.5055556,-122.7277778
"Green Meadows, OR",45.6166667,-118.7986111
"Greenhorn, OR",44.7080556,-118.4902778
"Greenleaf, OR",44.1138889,-123.6658333
"Greenville, OR",44.3869444,-122.7783333
"Gresham, OR",45.4983333,-122.4302778
"Grizzly, OR",44.4980556,-120.9186111
"Grouse, OR",45.9916667,-117.4277778
"Gunter, OR",43.7983333,-123.5088889
"Gurdane, OR",45.2691667,-119.1033333
"Hadleyville, OR",43.9702778,-123.3180556
"Hager, OR",42.1913889,-121.6991667
"Haines, OR",44.9116667,-117.9377778
"Halfway, OR",44.8808333,-117.1136111
"Halsey, OR",44.3841667,-123.1086111
"Hamilton, OR",44.7405556,-119.3080556
"Hamlet, OR",45.8463889,-123.6994444
"Hammond, OR",46.2002778,-123.9502778
"Hampton, OR",43.6727778,-120.2327778
"Hamricks Corner, OR",45.1513889,-122.6805556
"Happy Hollow, OR",45.1425000,-123.8025000
"Happy Valley, OR",45.4469444,-122.5291667
"Harbor, OR",42.0533333,-124.2663889
"Harlan, OR",44.5400000,-123.6919444
"Harmony, OR",45.4361111,-122.5772222
"Harmony Point, OR",45.4472222,-122.5769444
"Harney, OR",43.6433333,-118.8216667
"Harper, OR",43.8633333,-117.6088889
"Harris, OR",44.5783333,-123.4588889
"Harrisburg, OR",44.2741667,-123.1694444
"Hathaway Mead, OR",45.4569444,-123.8175000
"Hauser, OR",43.4930556,-124.2175000
"Hawthorne, OR",43.4563889,-123.0797222
"Hayesville, OR",44.9861111,-122.9816667
"Haynesville, OR",42.1366667,-121.2313889
"Hayward, OR",45.6444444,-123.2155556
"Hazel Green, OR",45.0105556,-122.9252778
"Hazeldale, OR",45.4666667,-122.8919444
"Hazelwood, OR",45.5166667,-122.5227778
"Hebo, OR",45.2305556,-123.8622222
"Heceta Beach, OR",44.0336111,-124.1300000
"Helix, OR",45.8497222,-118.6558333
"Helvetia, OR",45.5958333,-122.9161111
"Hemlock, OR",45.3158333,-123.8355556
"Henley, OR",42.1522222,-121.6977778
"Henrici, OR",45.3097222,-122.5458333
"Heppner, OR",45.3533333,-119.5566667
"Hereford, OR",44.4986111,-118.0361111
"Hermiston, OR",45.8405556,-119.2883333
"Hidaway Springs, OR",45.1311111,-118.7366667
"Highland, OR",45.2483333,-122.4080556
"Hildebrand, OR",42.2977778,-121.4783333
"Hilgard, OR",45.3522222,-118.2269444
"Hillsboro, OR",45.5230556,-122.9886111
"Hillsdale, OR",45.4816667,-122.6936111
"Hillside, OR",45.5922222,-123.1913889
"Hillsview, OR",45.4555556,-122.4127778
"Hines, OR",43.5641667,-119.0800000
"Hinkle, OR",45.7966667,-119.3111111
"Hobsonville, OR",45.5491667,-123.9008333
"Holbrook, OR",45.6600000,-122.8622222
"Holcomb, OR",45.3708333,-122.5166667
"Holdman, OR",45.8722222,-118.9313889
"Holiday Beach, OR",44.5677778,-124.0669444
"Holland, OR",42.1277778,-123.5377778
"Holley, OR",44.3544444,-122.7822222
"Hollywood, OR",45.5355556,-122.6211111
"Homestead, OR",45.0238889,-116.8497222
"Hood River, OR",45.7055556,-121.5202778
"Hoodview, OR",45.3247222,-122.8044444
"Hopewell, OR",45.0972222,-123.0908333
"Hopville, OR",44.8033333,-123.1316667
"Horseheaven, OR",44.7158333,-120.5061111
"Horton, OR",44.2100000,-123.4922222
"Hoskins, OR",44.6769444,-123.4675000
"Hot Lake, OR",45.2447222,-117.9566667
"Hot Springs, OR",42.1152778,-121.2850000
"Hubbard, OR",45.1825000,-122.8066667
"Huber, OR",45.4919444,-122.8502778
"Hugo, OR",42.5847222,-123.4013889
"Hunter Creek, OR",42.3875000,-124.4166667
"Huntington, OR",44.3513889,-117.2655556
"Hutchinson, OR",44.9716667,-117.9766667
"Idanha, OR",44.7027778,-122.0775000
"Idaville, OR",45.5100000,-123.8644444
"Idleyld Park, OR",43.3238889,-123.0227778
"Illahe, OR",42.6288889,-124.0563889
"Imbler, OR",45.4597222,-117.9611111
"Imnaha, OR",45.5594444,-116.8322222
"Imnaha River Woods Development, OR",45.2600000,-116.8008333
"Independence, OR",44.8513889,-123.1855556
"Indian Village, OR",43.5850000,-119.0775000
"Inglis, OR",46.1266667,-123.1638889
"Interlachen, OR",45.5519444,-122.4455556
"Ione, OR",45.5013889,-119.8236111
"Ironside, OR",44.3244444,-117.9436111
"Irrigon, OR",45.8958333,-119.4902778
"Irving, OR",44.1136111,-123.1638889
"Irvington, OR",45.5405556,-122.6508333
"Island City, OR",45.3411111,-118.0436111
"Izee, OR",44.0672222,-119.3850000
"Jacksonville, OR",42.3136111,-122.9658333
"Jamieson, OR",44.1822222,-117.4369444
"Jasper, OR",43.9966667,-122.9050000
"Jean, OR",45.3983333,-122.7386111
"Jeffers Garden, OR",46.1500000,-123.8569444
"Jefferson, OR",44.7197222,-123.0091667
"Jennings Lodge, OR",45.3913889,-122.6113889
"Jewell, OR",45.9347222,-123.5027778
"Jimtown, OR",44.9055556,-117.1438889
"John Day, OR",44.4161111,-118.9519444
"Johns Landing, OR",45.3997222,-122.6736111
"Johnson City, OR",45.4047222,-122.5777778
"Jordan, OR",44.7272222,-122.6986111
"Jordan Creek, OR",45.5486111,-123.6005556
"Jordan Valley, OR",42.9741667,-117.0533333
"Joseph, OR",45.3544444,-117.2286111
"Junction City, OR",44.2194444,-123.2044444
"Juntura, OR",43.7447222,-118.0786111
"Keasey, OR",45.8616667,-123.3283333
"Keating, OR",44.8741667,-117.5894444
"Keizer, OR",44.9902778,-123.0250000
"Kellogg, OR",43.5552778,-123.5538889
"Kellogg Park, OR",45.4544444,-122.6363889
"Kelso, OR",45.4186111,-122.3069444
"Keno, OR",42.1266667,-121.9288889
"Kent, OR",45.1952778,-120.6930556
"Kenton, OR",45.5819444,-122.6802778
"Kerby, OR",42.1944444,-123.6505556
"Kernville, OR",44.8994444,-124.0033333
"Kerry, OR",46.1211111,-123.3505556
"Kilts, OR",44.7388889,-120.5944444
"Kimberly, OR",44.7594444,-119.6433333
"King City, OR",45.4027778,-122.8027778
"Kings Heights, OR",45.5294444,-122.7066667
"Kings Valley, OR",44.7069444,-123.4333333
"Kingsley, OR",45.3413889,-121.1994444
"Kingston, OR",44.7838889,-122.7730556
"Kinton, OR",45.4233333,-122.8766667
"Kirk, OR",42.7475000,-121.8283333
"Klamath Agency, OR",42.6183333,-121.9327778
"Klamath Falls, OR",42.2250000,-121.7805556
"Klondike, OR",45.5827778,-120.6125000
"Knappa, OR",46.1852778,-123.5847222
"La Grande, OR",45.3247222,-118.0866667
"La Pine, OR",43.6705556,-121.5025000
"Labish Center, OR",45.0319444,-122.9125000
"Labish Village, OR",45.0194444,-122.9711111
"Lacomb, OR",44.5852778,-122.7422222
"Ladd Hill, OR",45.2744444,-122.8550000
"Lafayette, OR",45.2444444,-123.1136111
"Lake Oswego, OR",45.4208333,-122.6694444
"Lake of the Woods, OR",42.3788889,-122.2111111
"Lakebrook, OR",45.0283333,-123.0491667
"Lakecreek, OR",42.4225000,-122.6250000
"Lakeside, OR",43.5758333,-124.1738889
"Lakeview, OR",42.1888889,-120.3447222
"Lakewood, OR",45.4130556,-122.6650000
"Lancaster, OR",44.2530556,-123.1944444
"Langell Valley, OR",42.0097222,-121.2277778
"Langlois, OR",42.9236111,-124.4497222
"Latham, OR",43.7755556,-123.0611111
"Latourell, OR",45.5408333,-122.2200000
"Laurel, OR",45.4186111,-122.9905556
"Laurel Grove, OR",43.0258333,-124.4136111
"Laurelhurst, OR",45.5263889,-122.6216667
"Laurelwood, OR",45.4230556,-123.0797222
"Lawen, OR",43.4430556,-118.8000000
"Leaburg, OR",44.1075000,-122.6758333
"Lebanon, OR",44.5366667,-122.9058333
"Lehman Springs, OR",45.1530556,-118.6608333
"Leland, OR",42.6386111,-123.4397222
"Lena, OR",45.4000000,-119.2808333
"Leneve, OR",43.2063889,-124.2725000
"Lents, OR",45.4800000,-122.5661111
"Lenz, OR",45.6297222,-121.5230556
"Leona, OR",43.6952778,-123.2880556
"Lewis, OR",45.6908333,-117.0936111
"Lewisburg, OR",44.6291667,-123.2402778
"Lewisville, OR",44.7883333,-123.3441667
"Lexington, OR",45.4452778,-119.6833333
"Libby, OR",43.3377778,-124.2327778
"Liberal, OR",45.1930556,-122.5844444
"Liberty, OR",44.4333333,-122.7902778
"Lime, OR",44.4066667,-117.3102778
"Lincoln, OR",42.1088889,-122.4019444
"Lincoln Beach, OR",44.8505556,-124.0455556
"Lincoln City, OR",44.9583333,-124.0166667
"Lindbergh, OR",46.0750000,-122.9050000
"Linnton, OR",45.5988889,-122.7858333
"Linslaw, OR",44.0005556,-123.6827778
"Little Albany, OR",44.4033333,-123.9130556
"Little Alps, OR",44.9658333,-118.1819444
"Little Switzerland, OR",44.4000000,-123.9013889
"Locust Grove, OR",45.5988889,-120.7877778
"Logan, OR",45.3436111,-122.4216667
"Logsden, OR",44.7433333,-123.7930556
"London, OR",43.6347222,-123.0916667
"London Springs, OR",43.6319444,-123.0900000
"Lone Elder, OR",45.2305556,-122.6797222
"Lonerock, OR",45.0891667,-119.8819444
"Long Creek, OR",44.7141667,-119.1030556
"Lonoley, OR",45.0083333,-118.9888889
"Lookingglass, OR",43.1786111,-123.4850000
"Lorane, OR",43.8377778,-123.2377778
"Lorella, OR",42.1372222,-121.2713889
"Lost Lake Resort, OR",45.4977778,-121.8175000
"Lostine, OR",45.4875000,-117.4286111
"Low Pass, OR",44.1888889,-123.4527778
"Lowell, OR",43.9186111,-122.7825000
"Lukarilla, OR",45.8275000,-123.6005556
"Lunnville, OR",45.3505556,-123.1736111
"Lyons, OR",44.7747222,-122.6138889
"Mabel, OR",44.2147222,-122.8258333
"Macksburg, OR",45.2138889,-122.6600000
"Macleay, OR",44.9080556,-122.8861111
"Madras, OR",44.6336111,-121.1283333
"Malin, OR",42.0127778,-121.4075000
"Malone, OR",42.0197222,-121.5583333
"Manhattan Beach, OR",45.6305556,-123.9402778
"Manning, OR",45.6650000,-123.1625000
"Manzanita, OR",45.7186111,-123.9338889
"Mapleton, OR",44.0313889,-123.8569444
"Maplewood, OR",45.4700000,-122.7288889
"Marcola, OR",44.1725000,-122.8594444
"Marial, OR",42.7125000,-123.8877778
"Marion, OR",44.7491667,-122.9411111
"Marion Forks, OR",44.6155556,-121.9469444
"Marlene Village, OR",45.5169444,-122.8177778
"Marmot, OR",45.3966667,-122.1144444
"Marquam, OR",45.0733333,-122.6858333
"Marquam Hill, OR",45.4991667,-122.6883333
"Marshland, OR",46.1113889,-123.2844444
"Marylhurst, OR",45.4013889,-122.6500000
"Maupin, OR",45.1752778,-121.0802778
"Maxville, OR",45.7461111,-117.5558333
"Mayger, OR",46.1636111,-123.1069444
"Mayville, OR",45.0825000,-120.1911111
"Maywood Park, OR",45.5530556,-122.5591667
"McCoy, OR",45.0422222,-123.2152778
"McCredie Springs, OR",43.7100000,-122.2877778
"McDonald, OR",45.5888889,-120.4088889
"McEwen, OR",44.7008333,-118.1036111
"McKay, OR",45.4997222,-118.6147222
"McKee, OR",45.1000000,-122.8069444
"McKee Bridge, OR",42.1277778,-123.0750000
"McKenzie Bridge, OR",44.1752778,-122.1627778
"McKinley, OR",43.1888889,-124.0250000
"McLeod, OR",42.6625000,-122.6866667
"McMinnville, OR",45.2102778,-123.1975000
"McNary, OR",45.9194444,-119.2880556
"McNulty, OR",45.8405556,-122.8405556
"Meacham, OR",45.5066667,-118.4202778
"Meda, OR",45.1466667,-123.9147222
"Medford, OR",42.3266667,-122.8744444
"Medical Springs, OR",45.0172222,-117.6275000
"Mehama, OR",44.7902778,-122.6180556
"Melrose, OR",43.2477778,-123.4577778
"Melville, OR",46.0602778,-123.8422222
"Merlin, OR",42.5175000,-123.4186111
"Merrill, OR",42.0252778,-121.5994444
"Metolius, OR",44.5866667,-121.1772222
"Metzger, OR",45.4466667,-122.7577778
"Middle Grove, OR",44.9700000,-122.9641667
"Middleton, OR",45.3438889,-122.8633333
"Midland, OR",42.1308333,-121.8191667
"Midway, OR",45.4113889,-122.9591667
"Mikkalo, OR",45.4711111,-120.2336111
"Miles Crossing, OR",46.1525000,-123.8383333
"Mill Camp, OR",43.7958333,-123.2263889
"Mill City, OR",44.7541667,-122.4769444
"Millersburg, OR",44.6811111,-123.0602778
"Millican, OR",43.8791667,-120.9188889
"Millington, OR",43.3325000,-124.1963889
"Millwood, OR",43.3852778,-123.5450000
"Milo, OR",42.9308333,-123.0486111
"Milton-Freewater, OR",45.9327778,-118.3866667
"Milwaukie, OR",45.4463889,-122.6380556
"Milwaukie Heights, OR",45.4302778,-122.6333333
"Minam, OR",45.6219444,-117.7222222
"Minerva, OR",44.0708333,-123.9591667
"Mishawaka, OR",45.8633333,-123.5672222
"Mission, OR",45.6705556,-118.6825000
"Mist, OR",45.9963889,-123.2552778
"Mitchell, OR",44.5666667,-120.1522222
"Modeville, OR",44.7911111,-123.1319444
"Modoc Point, OR",42.4450000,-121.8672222
"Mohawk, OR",44.1425000,-122.9150000
"Mohler, OR",45.7075000,-123.8616667
"Molalla, OR",45.1475000,-122.5758333
"Monitor, OR",45.1016667,-122.7469444
"Monkland, OR",45.4858333,-120.6255556
"Monmouth, OR",44.8486111,-123.2327778
"Monroe, OR",44.3141667,-123.2955556
"Montavilla, OR",45.5191667,-122.5777778
"Monument, OR",44.8194444,-119.4200000
"Morgan, OR",45.5527778,-119.9194444
"Moro, OR",45.4841667,-120.7300000
"Mosier, OR",45.6836111,-121.3961111
"Mount Angel, OR",45.0680556,-122.7988889
"Mount Hood, OR",45.5380556,-121.5672222
"Mount Hood Village, OR",45.3555556,-121.9794444
"Mount Pleasant, OR",45.3391667,-122.6052778
"Mount Vernon, OR",44.4177778,-119.1125000
"Mountain Air Park, OR",45.3591667,-121.9894444
"Mountain View, OR",42.1122222,-122.3830556
"Mountaindale, OR",45.6250000,-123.0377778
"Mulino, OR",45.2216667,-122.5808333
"Mulloy, OR",45.3338889,-122.7891667
"Multnomah, OR",45.4697222,-122.7061111
"Murphy, OR",42.3477778,-123.3322222
"Myrtle Creek, OR",43.0202778,-123.2919444
"Myrtle Point, OR",43.0650000,-124.1377778
"Nansene, OR",45.4044444,-121.0555556
"Narrows, OR",43.2791667,-118.9611111
"Nashville, OR",44.6536111,-123.6072222
"Navy Heights, OR",46.1900000,-123.7780556
"Neahkahnie Beach, OR",45.7294444,-123.9394444
"Nedonna Beach, OR",45.6441667,-123.9388889
"Needy, OR",45.1727778,-122.7013889
"Nehalem, OR",45.7202778,-123.8927778
"Neotsu, OR",45.0013889,-123.9800000
"Nesika Beach, OR",42.5063889,-124.4122222
"Neskowin, OR",45.1069444,-123.9830556
"Netarts, OR",45.4350000,-123.9447222
"Neverstill, OR",45.9761111,-123.3433333
"New Bridge, OR",44.8005556,-117.1888889
"New Era, OR",45.3008333,-122.6577778
"New Hope, OR",42.3625000,-123.3666667
"New Idanha, OR",44.6977778,-122.0727778
"New Pine Creek, OR",41.9941667,-120.2961111
"New Princeton, OR",43.2830556,-118.5816667
"Newberg, OR",45.3002778,-122.9719444
"Newport, OR",44.6369444,-124.0522222
"Newport Heights, OR",44.6444444,-124.0233333
"Niagara, OR",44.7580556,-122.3350000
"Nimrod, OR",44.1138889,-122.4225000
"Nolin, OR",45.6833333,-119.0994444
"Noon, OR",44.5455556,-123.3969444
"North Albany, OR",44.6530556,-123.1005556
"North Beach, OR",43.8936111,-124.1088889
"North Bend, OR",43.4066667,-124.2230556
"North Fork, OR",43.7888889,-123.9222222
"North Highland, OR",45.2541667,-122.4083333
"North Howell, OR",45.0313889,-122.8722222
"North Plains, OR",45.5972222,-122.9922222
"North Portland, OR",45.6105556,-122.7022222
"North Powder, OR",45.0286111,-117.9188889
"North Springfield, OR",44.0750000,-123.0019444
"North Umpqua Village, OR",43.3027778,-122.9500000
"Nortons, OR",44.6638889,-123.7008333
"Norway, OR",43.1011111,-124.1555556
"Norwood, OR",45.3594444,-122.7527778
"Noti, OR",44.0591667,-123.4475000
"Nye, OR",45.4605556,-118.9788889
"Nyssa, OR",43.8769444,-116.9938889
"Nyssa Heights, OR",43.8944444,-117.0250000
"O'Brien, OR",42.0675000,-123.7019444
"O'Neil Corners, OR",45.2708333,-122.6605556
"Oak Grove, OR",45.4169444,-122.6388889
"Oak Hills, OR",45.5413889,-122.8400000
"Oak Park, OR",44.9644444,-122.9825000
"Oakdale, OR",44.9055556,-123.3791667
"Oakland, OR",43.4222222,-123.2972222
"Oaklawn, OR",45.1194444,-122.7283333
"Oakridge, OR",43.7466667,-122.4605556
"Oaks, OR",43.1875000,-123.3608333
"Ocean Park, OR",44.7255556,-124.0538889
"Oceanside, OR",45.4611111,-123.9666667
"Odell, OR",45.6272222,-121.5419444
"Odell Lake, OR",43.5491667,-121.9636111
"Oklahoma Hill, OR",46.1433333,-123.4047222
"Olalla, OR",43.0672222,-123.5533333
"Old Colton, OR",45.1722222,-122.4136111
"Old Town, OR",43.4330556,-123.2944444
"Olene, OR",42.1719444,-121.6297222
"Olex, OR",45.4972222,-120.1677778
"Olney, OR",46.1002778,-123.7563889
"Ona, OR",44.5041667,-124.0211111
"Ontario, OR",44.0266667,-116.9619444
"Ontario Heights, OR",44.0705556,-117.0225000
"Opal City, OR",44.4447222,-121.2125000
"Ophir, OR",42.5633333,-124.3816667
"Oregon City, OR",45.3575000,-122.6055556
"Orenco, OR",45.5277778,-122.9108333
"Oretown, OR",45.1538889,-123.9541667
"Orient, OR",45.4675000,-122.3513889
"Ortley, OR",45.6561111,-121.2869444
"Otis, OR",45.0244444,-123.9452778
"Otter Rock, OR",44.7472222,-124.0602778
"Owyhee, OR",43.7950000,-117.0541667
"Oxbow, OR",44.9750000,-116.8619444
"Oysterville, OR",44.5780556,-124.0008333
"Pacific City, OR",45.2025000,-123.9616667
"Pacific Palisades, OR",44.8444444,-124.0494444
"Paisley, OR",42.6938889,-120.5450000
"Paradise, OR",45.9383333,-117.2208333
"Paradise Park, OR",45.3161111,-122.3836111
"Paris, OR",44.2527778,-123.7694444
"Park Place, OR",45.3761111,-122.5813889
"Parkdale, OR",45.5200000,-121.5955556
"Parker, OR",44.7725000,-123.2036111
"Parkersburg, OR",43.1430556,-124.3411111
"Parkrose, OR",45.5597222,-122.5591667
"Patton, OR",45.4472222,-123.1411111
"Paulina, OR",44.1338889,-119.9616667
"Pedee, OR",44.7536111,-123.4127778
"Peel, OR",43.2588889,-123.0319444
"Pelican City, OR",42.2533333,-121.7961111
"Pendair Heights, OR",45.6875000,-118.8427778
"Pendleton, OR",45.6722222,-118.7875000
"Peoria, OR",44.4488889,-123.2061111
"Perry, OR",45.3486111,-118.1655556
"Perrydale, OR",45.0427778,-123.2544444
"Petersburg, OR",45.6111111,-121.0769444
"Philomath, OR",44.5402778,-123.3663889
"Phoenix, OR",42.2755556,-122.8169444
"Piedmont, OR",45.5652778,-122.6669444
"Pilot Rock, OR",45.4833333,-118.8288889
"Pine, OR",44.8613889,-117.0880556
"Pine City, OR",45.5813889,-119.4158333
"Pine Grove, OR",45.1088889,-121.3625000
"Pine Hollow, OR",45.2430556,-121.2933333
"Pinehurst, OR",42.1177778,-122.3650000
"Pioneer, OR",44.6480556,-123.8688889
"Pistol River, OR",42.2772222,-124.3936111
"Pittsburg, OR",45.9008333,-123.1511111
"Placer, OR",42.6322222,-123.3141667
"Pleasant Hill, OR",43.9661111,-122.9305556
"Pleasant Home, OR",45.4641667,-122.3352778
"Pleasant Valley, OR",44.6744444,-117.6294444
"Plum Trees, OR",42.8141667,-124.3555556
"Plush, OR",42.4116667,-119.9027778
"Point Terrace, OR",44.0113889,-123.9100000
"Pondosa, OR",45.0080556,-117.6416667
"Port Orford, OR",42.7458333,-124.4961111
"Porter Creek, OR",43.1111111,-123.5208333
"Portland, OR",45.5236111,-122.6750000
"Portland Heights, OR",45.5058333,-122.7019444
"Post, OR",44.1625000,-120.4888889
"Powell Butte, OR",44.2477778,-121.0163889
"Powell Valley, OR",45.4866667,-122.3922222
"Powellhurst, OR",45.5041667,-122.5363889
"Power City, OR",45.9119444,-119.3027778
"Powers, OR",42.8836111,-124.0719444
"Prairie City, OR",44.4633333,-118.7088889
"Pratum, OR",44.9591667,-122.8775000
"Prescott, OR",46.0491667,-122.8861111
"Prineville, OR",44.3000000,-120.8333333
"Progress, OR",45.4572222,-122.7808333
"Promise, OR",45.8416667,-117.5430556
"Prospect, OR",42.7511111,-122.4877778
"Prosper, OR",43.1475000,-124.3725000
"Provolt, OR",42.2875000,-123.2291667
"Quartz Mountain, OR",42.3225000,-120.8144444
"Quincy, OR",46.1438889,-123.1588889
"Quines Creek, OR",42.7791667,-123.2705556
"Rainbow, OR",44.1669444,-122.2355556
"Rainier, OR",46.0891667,-122.9347222
"Rainrock, OR",44.0738889,-123.8513889
"Raleigh Hills, OR",45.4808333,-122.7608333
"Rand, OR",42.5963889,-123.5850000
"Randolph, OR",43.1680556,-124.3552778
"Range, OR",44.8930556,-118.9675000
"Redland, OR",45.3436111,-122.4916667
"Redmond, OR",44.2727778,-121.1727778
"Redwood, OR",42.4222222,-123.3861111
"Reed, OR",44.1780556,-123.8430556
"Reedsport, OR",43.7025000,-124.0955556
"Reedville, OR",45.4977778,-122.9011111
"Remote, OR",43.0061111,-123.8913889
"Reston, OR",43.1302778,-123.6188889
"Reuben, OR",46.0088889,-122.8761111
"Rhododendron, OR",45.3297222,-121.9100000
"Rice Hill, OR",43.5388889,-123.2888889
"Richland, OR",44.7691667,-117.1675000
"Richmond, OR",44.7311111,-119.9911111
"Rickreall, OR",44.9308333,-123.2272222
"Riddle, OR",42.9511111,-123.3630556
"Rieth, OR",45.6611111,-118.8702778
"Riley, OR",43.5416667,-119.5027778
"Ripplebrook, OR",45.0825000,-122.0422222
"Ritter, OR",44.8925000,-119.1425000
"River Road, OR",44.0841667,-123.1325000
"Riverdale, OR",45.4508333,-122.6600000
"Rivergrove, OR",45.3913889,-122.7322222
"Riversdale, OR",43.2655556,-123.4202778
"Riverside, OR",43.5416667,-118.1580556
"Riverton, OR",43.1575000,-124.2733333
"Riverwood, OR",45.4441667,-122.6625000
"Roads End, OR",45.0063889,-124.0058333
"Roberts, OR",44.0813889,-120.6836111
"Robinette, OR",44.7527778,-117.0294444
"Robinsonville, OR",44.7138889,-118.4836111
"Robinwood, OR",45.3927778,-122.6458333
"Rock Creek, OR",45.5727778,-120.2961111
"Rockaway Beach, OR",45.6136111,-123.9416667
"Rockcreek, OR",45.5502778,-122.8758333
"Rockford, OR",45.6791667,-121.5533333
"Rockwood, OR",45.5191667,-122.4758333
"Rocky Point, OR",42.4808333,-122.0830556
"Rogue Elk, OR",42.6625000,-122.7583333
"Rogue River, OR",42.4361111,-123.1708333
"Rome, OR",42.8391667,-117.6272222
"Rose Lodge, OR",45.0105556,-123.8791667
"Roseburg, OR",43.2166667,-123.3405556
"Rosedale, OR",44.8547222,-123.0602778
"Rosemont, OR",45.3694444,-122.6452778
"Rosewood, OR",45.3980556,-122.7319444
"Round Prairie, OR",43.0883333,-123.3683333
"Rowena, OR",45.6725000,-121.2672222
"Royal, OR",43.8250000,-123.1297222
"Ruch, OR",42.2366667,-123.0411111
"Rufus, OR",45.6950000,-120.7347222
"Ruggs, OR",45.2636111,-119.6855556
"Rural Dell, OR",45.1491667,-122.6500000
"Russellville, OR",45.5191667,-122.5566667
"Rutledge, OR",45.3380556,-120.6461111
"Rye Valley, OR",44.4638889,-117.4763889
"Saginaw, OR",43.8327778,-123.0441667
"Saint Helens, OR",45.8641667,-122.8052778
"Saint Johns, OR",45.5902778,-122.7533333
"Saint Joseph, OR",45.2383333,-123.1436111
"Saint Louis, OR",45.1227778,-122.9411111
"Saint Paul, OR",45.2113889,-122.9755556
"Salem, OR",44.9430556,-123.0338889
"Salemtowne, OR",44.9777778,-123.0722222
"Salishan, OR",44.8916667,-124.0325000
"Salishan Beach, OR",44.9166667,-124.0277778
"Sams Valley, OR",42.4916667,-122.9741667
"San Marine, OR",44.3538889,-124.0927778
"Sandlake, OR",45.3033333,-123.9222222
"Sandy, OR",45.3975000,-122.2602778
"Santa Clara, OR",44.1036111,-123.1300000
"Santiam Terrace, OR",44.4430556,-122.8100000
"Saunders Lake, OR",43.5250000,-124.2152778
"Scappoose, OR",45.7544444,-122.8763889
"Scholls, OR",45.4083333,-122.9211111
"Scio, OR",44.7050000,-122.8480556
"Scotts Mills, OR",45.0430556,-122.6672222
"Scottsburg, OR",43.6541667,-123.8155556
"Seal Rock, OR",44.4991667,-124.0827778
"Searose Beach, OR",44.2325000,-124.1072222
"Seaside, OR",45.9933333,-123.9213889
"Sellwood, OR",45.4647222,-122.6513889
"Selma, OR",42.2791667,-123.6147222
"Seneca, OR",44.1347222,-118.9705556
"Service Creek, OR",44.7977778,-120.0072222
"Seven Oaks, OR",42.3925000,-122.9369444
"Shadowood, OR",45.3788889,-122.6933333
"Shady Cove, OR",42.6108333,-122.8113889
"Shady Dell, OR",45.1433333,-122.5377778
"Shady Pine, OR",42.3083333,-121.8025000
"Shaniko, OR",45.0038889,-120.7511111
"Shaw, OR",44.8730556,-122.8708333
"Sheaville, OR",43.1272222,-117.0497222
"Shedd, OR",44.4616667,-123.1091667
"Shelburn, OR",44.7361111,-122.8694444
"Sheridan, OR",45.0994444,-123.3936111
"Sherwood, OR",45.3566667,-122.8388889
"Shorewood, OR",43.4541667,-124.2169444
"Sidney, OR",44.7833333,-123.1083333
"Siletz, OR",44.7219444,-123.9188889
"Siltcoos, OR",43.8891667,-124.0625000
"Silver Lake, OR",43.1280556,-121.0450000
"Silverton, OR",45.0052778,-122.7819444
"Silvies, OR",44.0330556,-118.9341667
"Simnasho, OR",44.9730556,-121.3488889
"Sisters, OR",44.2911111,-121.5480556
"Sitkum, OR",43.1483333,-123.8600000
"Six Corners, OR",45.3677778,-122.8458333
"Sixes, OR",42.8202778,-124.4819444
"Sodaville, OR",44.4847222,-122.8705556
"Somerset West, OR",45.5472222,-122.8666667
"South Beach, OR",44.6127778,-124.0475000
"South Lake Oswego, OR",45.4080556,-122.6722222
"South Lebanon, OR",44.5063889,-122.9019444
"South Scappoose, OR",45.7430556,-122.8783333
"Sparta, OR",44.8711111,-117.3230556
"Speaker, OR",42.7166667,-123.2927778
"Spitzenberg, OR",45.8258333,-122.9450000
"Spoos Mill, OR",44.5183333,-119.9750000
"Sprague River, OR",42.4555556,-121.5030556
"Spray, OR",44.8344444,-119.7933333
"Springbrook, OR",45.3177778,-122.9444444
"Springdale, OR",45.5191667,-122.3286111
"Springfield, OR",44.0463889,-123.0208333
"Springwater, OR",45.2508333,-122.3383333
"Stafford, OR",45.3575000,-122.7213889
"Stanfield, OR",45.7805556,-119.2161111
"Stapleton, OR",44.8277778,-123.2041667
"Starkey, OR",45.2216667,-118.4247222
"Starvation Heights, OR",42.4855556,-123.1669444
"Stayton, OR",44.8008333,-122.7933333
"Steamboat, OR",43.3455556,-122.7344444
"Stephens, OR",43.3836111,-123.3911111
"Stewart Lenox, OR",42.1916667,-121.8083333
"Sublimity, OR",44.8297222,-122.7933333
"Summer Lake, OR",42.9730556,-120.7763889
"Summerville, OR",45.4886111,-118.0019444
"Summit, OR",44.6380556,-123.5775000
"Sumner, OR",43.2819444,-124.1497222
"Sumpter, OR",44.7458333,-118.2011111
"Sunny Valley, OR",42.6391667,-123.3744444
"Sunnycrest, OR",45.3019444,-123.0166667
"Sunnydale, OR",43.6541667,-123.4041667
"Sunnyridge, OR",44.5936111,-123.9208333
"Sunnyside, OR",45.4269444,-122.5263889
"Sunriver, OR",43.8841667,-121.4375000
"Sunset, OR",44.8952778,-117.0427778
"Sunset Beach, OR",46.1013889,-123.9291667
"Suntex, OR",43.5908333,-119.6291667
"Suplee, OR",44.0694444,-119.6755556
"Surf Pines, OR",46.0583333,-123.9222222
"Surprise Valley, OR",42.9541667,-123.3083333
"Susanville, OR",44.7133333,-118.7827778
"Sutherlin, OR",43.3902778,-123.3113889
"Suver, OR",44.7430556,-123.2061111
"Svensen, OR",46.1708333,-123.6580556
"Svensen Junction, OR",46.1655556,-123.6586111
"Sweet Home, OR",44.3977778,-122.7350000
"Swisshome, OR",44.0580556,-123.7980556
"Sylvan, OR",45.5091667,-122.7344444
"Table Rock, OR",42.4513889,-122.9116667
"Takilma, OR",42.0516667,-123.6183333
"Talbot, OR",44.7611111,-123.0950000
"Talent, OR",42.2458333,-122.7875000
"Tanasbourne, OR",45.5388889,-122.8638889
"Tangent, OR",44.5413889,-123.1069444
"Taylorville, OR",46.1413889,-123.3980556
"Telocaset, OR",45.1011111,-117.8252778
"Templeton, OR",43.5458333,-124.0986111
"Tenmile, OR",43.0963889,-123.5630556
"Terminal City, OR",42.2666667,-121.8100000
"Terrebonne, OR",44.3530556,-121.1766667
"The Dalles, OR",45.5947222,-121.1775000
"Thirtymile, OR",45.1694444,-120.1575000
"Three Forks, OR",44.2833333,-119.6277778
"Three Lynx, OR",45.1263889,-122.0702778
"Three Pines, OR",42.5658333,-123.3975000
"Three Rivers, OR",43.8202778,-121.4680556
"Three Rocks, OR",45.0447222,-123.9980556
"Thurston, OR",44.0533333,-122.9152778
"Tidewater, OR",44.4113889,-123.8991667
"Tiernan, OR",44.0161111,-123.9388889
"Tierra Del Mar, OR",45.2522222,-123.9633333
"Tigard, OR",45.4313889,-122.7702778
"Tillamook, OR",45.4563889,-123.8427778
"Tiller, OR",42.9286111,-122.9500000
"Tillicum Beach, OR",44.3630556,-124.0916667
"Timber, OR",45.7200000,-123.2933333
"Timber Grove, OR",45.2008333,-122.4450000
"Tobias, OR",45.4955556,-122.8800000
"Toketee Falls, OR",43.2758333,-122.4497222
"Toledo, OR",44.6216667,-123.9372222
"Tollgate, OR",45.7805556,-118.0916667
"Tolo, OR",42.4244444,-122.9702778
"Tolovana Park, OR",45.8722222,-123.9586111
"Tongue Point Village, OR",46.1969444,-123.7705556
"Tracy, OR",45.3027778,-122.2900000
"Trail, OR",42.6486111,-122.8094444
"Treharne, OR",45.8419444,-123.2186111
"Trenholm, OR",45.8955556,-122.9641667
"Trent, OR",43.9430556,-122.8594444
"Tri City, OR",42.9808333,-123.3219444
"Tri-City, OR",42.9847222,-123.3105556
"Triangle Lake, OR",44.1708333,-123.5777778
"Trout Creek, OR",43.9272222,-118.9388889
"Troutdale, OR",45.5394444,-122.3861111
"Troy, OR",45.9469444,-117.4505556
"Tualatin, OR",45.3841667,-122.7627778
"Tumalo, OR",44.1500000,-121.3297222
"Turner, OR",44.8433333,-122.9516667
"Tutuilla, OR",45.6233333,-118.6977778
"Twelvemile Corner, OR",45.5191667,-122.4330556
"Twin Rocks, OR",45.5977778,-123.9447222
"Tyee, OR",43.4436111,-123.5500000
"Tygh Valley, OR",45.2475000,-121.1719444
"Ukiah, OR",45.1341667,-118.9313889
"Umapine, OR",45.9766667,-118.4952778
"Umatilla, OR",45.9175000,-119.3413889
"Umpqua, OR",43.3655556,-123.4672222
"Union, OR",45.2086111,-117.8641667
"Union Creek, OR",42.9072222,-122.4444444
"Union Gap, OR",43.4066667,-123.3127778
"Union Mills, OR",45.1997222,-122.5575000
"Uniontown, OR",46.1861111,-123.8527778
"Unionvale, OR",45.1433333,-123.0594444
"Unity, OR",44.4375000,-118.1916667
"University Park, OR",45.5763889,-122.7275000
"Upper Highland, OR",45.2358333,-122.4288889
"Upper Soda, OR",44.4063889,-122.2816667
"Valby, OR",45.3166667,-119.8402778
"Vale, OR",43.9822222,-117.2372222
"Valley Falls, OR",42.4841667,-120.2808333
"Valley Junction, OR",45.0622222,-123.5708333
"Van, OR",43.9900000,-118.6872222
"Vaughn, OR",44.0238889,-123.4358333
"Veatch, OR",43.7561111,-123.1019444
"Venator, OR",43.3480556,-118.3041667
"Veneta, OR",44.0488889,-123.3497222
"Verboort, OR",45.5497222,-123.0855556
"Vermont Hills, OR",45.4775000,-122.7266667
"Vernonia, OR",45.8588889,-123.1916667
"Vida, OR",44.1461111,-122.5686111
"Villa Ridge, OR",45.4430556,-122.7411111
"Vinemaple, OR",45.8886111,-123.5430556
"Viola, OR",45.2983333,-122.4091667
"Voltage, OR",43.2613889,-118.8061111
"Wagontire, OR",43.2497222,-119.8747222
"Wakonda Beach, OR",44.3880556,-124.0875000
"Walden, OR",43.7763889,-123.0041667
"Waldport, OR",44.4269444,-124.0675000
"Walker, OR",43.8541667,-123.0386111
"Wallowa, OR",45.5702778,-117.5272222
"Walterville, OR",44.0688889,-122.8027778
"Walton, OR",44.0308333,-123.5841667
"Wamic, OR",45.2283333,-121.2680556
"Wapinitia, OR",45.1144444,-121.2552778
"Warm Springs, OR",44.7636111,-121.2650000
"Warren, OR",45.8191667,-122.8477778
"Warrendale, OR",45.6127778,-122.0144444
"Warrenton, OR",46.1652778,-123.9225000
"Wasco, OR",45.5919444,-120.6969444
"Waterloo, OR",44.4941667,-122.8241667
"Waterman, OR",45.8883333,-118.5408333
"Watts, OR",45.5416667,-123.1672222
"Wauna, OR",46.1572222,-123.4050000
"Waverly Heights, OR",45.4500000,-122.6472222
"Weatherby, OR",44.4986111,-117.3702778
"Weaver, OR",43.0077778,-123.3094444
"Wecoma Beach, OR",44.9888889,-124.0063889
"Wedderburn, OR",42.4297222,-124.4138889
"Welches, OR",45.3283333,-121.9597222
"Wemme, OR",45.3488889,-121.9647222
"Wendling, OR",44.1905556,-122.7972222
"West Haven, OR",45.5177778,-122.7683333
"West Linn, OR",45.3658333,-122.6111111
"West Portland, OR",45.4550000,-122.7313889
"West Portland Park, OR",45.4469444,-122.7244444
"West Saint Helens, OR",45.8577778,-122.8261111
"West Scio, OR",44.7111111,-122.8816667
"West Side, OR",42.1133333,-120.4925000
"West Slope, OR",45.4988889,-122.7633333
"West Stayton, OR",44.7866667,-122.8655556
"West Union, OR",45.5666667,-122.8927778
"West Woodburn, OR",45.1550000,-122.8947222
"Westfall, OR",43.9919444,-117.7080556
"Westfir, OR",43.7575000,-122.4952778
"Westmoreland, OR",45.4763889,-122.6458333
"Weston, OR",45.8138889,-118.4236111
"Westport, OR",46.1327778,-123.3736111
"Westwood Village, OR",44.3966667,-123.9327778
"Wheatland, OR",45.0927778,-123.0488889
"Wheeler, OR",45.6891667,-123.8794444
"Wheeler Heights, OR",45.6850000,-123.8894444
"Whitaker, OR",44.5586111,-122.8719444
"White City, OR",42.4375000,-122.8577778
"Whiteson, OR",45.1516667,-123.1955556
"Whitford, OR",45.4722222,-122.7722222
"Whitwood Court, OR",45.5855556,-122.7708333
"Wilbur, OR",43.3211111,-123.3394444
"Wilderville, OR",42.3825000,-123.4658333
"Wildwood, OR",45.3544444,-121.9800000
"Wilhoit, OR",45.0527778,-122.5666667
"Wilkesboro, OR",45.6088889,-123.0947222
"Willamette, OR",45.3444444,-122.6658333
"Willamette City, OR",43.7463889,-122.4836111
"Willamette Heights, OR",45.5352778,-122.7163889
"Willamina, OR",45.0788889,-123.4847222
"Williams, OR",42.2188889,-123.2727778
"Willowcreek, OR",44.1147222,-117.3633333
"Willowdale, OR",44.8055556,-120.9419444
"Wilsonville, OR",45.3000000,-122.7725000
"Wimer, OR",42.5388889,-123.1477778
"Winberry, OR",43.9536111,-122.7113889
"Winchester, OR",43.2802778,-123.3525000
"Winchester Bay, OR",43.6772222,-124.1736111
"Wingville, OR",44.8397222,-117.9205556
"Winston, OR",43.1225000,-123.4113889
"Winterville, OR",43.1247222,-124.3675000
"Witch Hazel, OR",45.5005556,-122.9300000
"Wolf Creek, OR",42.6955556,-123.3941667
"Wonder, OR",42.3644444,-123.5344444
"Wood Village, OR",45.5344444,-122.4175000
"Woodburn, OR",45.1438889,-122.8541667
"Woods, OR",45.2141667,-123.9536111
"Woodson, OR",46.1147222,-123.3230556
"Woodstock, OR",45.4791667,-122.6072222
"Worden, OR",42.0455556,-121.8652778
"Wren, OR",44.5877778,-123.4272222
"Yachats, OR",44.3113889,-124.1036111
"Yamhill, OR",45.3416667,-123.1861111
"Yankton, OR",45.8669444,-122.8855556
"Yaquina, OR",44.6022222,-124.0075000
"Yoder, OR",45.1383333,-122.6805556
"Yoncalla, OR",43.5986111,-123.2822222
"Yonna, OR",42.2680556,-121.4663889
"Young, OR",44.8247222,-122.8641667
"Zena, OR",45.0088889,-123.1283333
"Zigzag, OR",45.3441667,-121.9419444
"Zumwalt, OR",45.6308333,-116.9691667
