name,lat,lon
"Abbotsford, WI",44.9463889,-90.3158333
"Abells Corners, WI",42.7261111,-88.5425000
"Abrams, WI",44.7791667,-88.0597222
"Ackerville, WI",43.3100000,-88.2580556
"Ada, WI",43.8769444,-87.8955556
"Adams, WI",43.9561111,-89.8180556
"Adams Beach, WI",44.6861111,-88.6680556
"Addison, WI",43.4227778,-88.3744444
"Adell, WI",43.6191667,-87.9519444
"Adella Beach, WI",44.1422222,-88.4616667
"Advance, WI",44.7877778,-88.3322222
"Afton, WI",42.6038889,-89.0711111
"Alaska, WI",44.5405556,-87.5011111
"Alban, WI",44.6277778,-89.2847222
"Albany, WI",42.7077778,-89.4369444
"Albertville, WI",44.9600000,-91.6002778
"Albion, WI",42.8794444,-89.0697222
"Aldens Corners, WI",43.2213889,-89.6400000
"Alderley, WI",43.2175000,-88.4497222
"Algoma, WI",44.6088889,-87.4325000
"Allen, WI",44.6613889,-91.3666667
"Allens Grove, WI",42.5802778,-88.7625000
"Allenton, WI",43.4205556,-88.3408333
"Allenville, WI",44.1330556,-88.6188889
"Allouez, WI",44.4775000,-88.0161111
"Alma, WI",44.3200000,-91.9147222
"Alma Center, WI",44.4372222,-90.9111111
"Almena, WI",45.4169444,-92.0327778
"Almon, WI",44.9063889,-88.9916667
"Almond, WI",44.2588889,-89.4069444
"Alpha, WI",45.7725000,-92.5794444
"Alto, WI",43.6766667,-88.7950000
"Altoona, WI",44.8047222,-91.4430556
"Alverno, WI",44.0850000,-87.7397222
"Alvin, WI",45.9850000,-88.8291667
"Amberg, WI",45.5030556,-87.9936111
"Ambridge, WI",46.6366667,-92.0702778
"Amery, WI",45.3069444,-92.3619444
"Amherst, WI",44.4508333,-89.2847222
"Amherst Junction, WI",44.4688889,-89.3125000
"Amnicon Falls, WI",46.6038889,-91.8897222
"Anacker, WI",43.6255556,-89.4436111
"Anderson, WI",42.7169444,-89.0166667
"Anderson Trailer Court, WI",45.4691667,-91.7058333
"Angelica, WI",44.6738889,-88.3136111
"Angelo, WI",43.9708333,-90.7777778
"Angus, WI",45.6477778,-91.6016667
"Aniwa, WI",45.0086111,-89.2141667
"Annaton, WI",42.9113889,-90.5375000
"Anson, WI",44.9808333,-91.2866667
"Anston, WI",44.6172222,-88.1602778
"Antigo, WI",45.1402778,-89.1522222
"Anton, WI",46.6191667,-92.2352778
"Apollonia, WI",45.4500000,-91.3013889
"Apple Creek, WI",44.3255556,-88.3744444
"Appleton, WI",44.2619444,-88.4152778
"Arbor Vitae, WI",45.9205556,-89.6633333
"Arcade Acres, WI",43.8586111,-88.8708333
"Arcadia, WI",44.2527778,-91.5013889
"Arena, WI",43.1655556,-89.9127778
"Argonne, WI",45.6597222,-88.8791667
"Argyle, WI",42.7011111,-89.8669444
"Arkansaw, WI",44.6338889,-92.0311111
"Arkdale, WI",44.0272222,-89.8877778
"Arland, WI",45.3383333,-92.0227778
"Arlington, WI",43.3380556,-89.3802778
"Armstrong, WI",43.7102778,-88.1947222
"Armstrong Creek, WI",45.6583333,-88.4461111
"Arnold, WI",45.2488889,-91.0041667
"Arnott, WI",44.4572222,-89.4466667
"Arpin, WI",44.5405556,-90.0350000
"Artesia Beach, WI",43.9347222,-88.3150000
"Arthur, WI",42.8466667,-90.4463889
"Ashford, WI",43.5869444,-88.3705556
"Ashippun, WI",43.2119444,-88.5161111
"Ashland, WI",46.5925000,-90.8836111
"Ashland Junction, WI",46.5738889,-90.9711111
"Ashley, WI",44.6927778,-89.6080556
"Ashton, WI",43.1405556,-89.5413889
"Ashton Corners, WI",43.1402778,-89.5205556
"Ashwaubenon, WI",44.4822222,-88.0700000
"Askeaton, WI",44.2700000,-88.1108333
"Astico, WI",43.3330556,-88.9397222
"Athelstane, WI",45.4238889,-88.0952778
"Athens, WI",45.0330556,-90.0738889
"Atkins, WI",45.6652778,-89.0230556
"Atlas, WI",45.6355556,-92.5905556
"Attica, WI",42.7700000,-89.4805556
"Atwater, WI",43.5608333,-88.7344444
"Atwood, WI",44.8861111,-90.4816667
"Aubrey, WI",43.3147222,-90.2933333
"Auburndale, WI",44.6269444,-90.0075000
"Augusta, WI",44.6802778,-91.1197222
"Aurora, WI",45.7855556,-88.1008333
"Auroraville, WI",44.0519444,-88.9925000
"Avalanche, WI",43.6022222,-90.7802778
"Avalon, WI",42.6327778,-88.8675000
"Avoca, WI",43.1819444,-90.3244444
"Avon, WI",42.6677778,-90.1261111
"Aztalan, WI",43.0727778,-88.8622222
"Babcock, WI",44.3016667,-90.1111111
"Bagley, WI",42.9055556,-91.1011111
"Bagley Junction, WI",45.1383333,-87.7511111
"Baileys Harbor, WI",45.0650000,-87.1241667
"Bakers Corners, WI",43.2677778,-89.1869444
"Bakerville, WI",44.6272222,-90.2180556
"Baldwin, WI",44.9666667,-92.3741667
"Baldwins Mill, WI",44.3880556,-88.9608333
"Ballou, WI",46.3175000,-90.5844444
"Balmoral, WI",43.2258333,-90.4638889
"Balsam Lake, WI",45.4522222,-92.4544444
"Bancroft, WI",44.3097222,-89.5136111
"Bangor, WI",43.8930556,-90.9902778
"Banner, WI",43.7730556,-88.2094444
"Bannerman, WI",43.9966667,-89.2250000
"Baraboo, WI",43.4711111,-89.7441667
"Bardwell, WI",42.5869444,-88.7505556
"Bark Point, WI",46.8875000,-91.1833333
"Barksdale, WI",46.6213889,-90.9319444
"Barneveld, WI",43.0155556,-89.8952778
"Barnum, WI",43.2188889,-90.8394444
"Barre Mills, WI",43.8413889,-91.1138889
"Barron, WI",45.4013889,-91.8488889
"Barronett, WI",45.6369444,-91.9927778
"Barry Corner, WI",44.5180556,-92.1794444
"Barton, WI",43.4436111,-88.1805556
"Basco, WI",42.9119444,-89.5147222
"Bashaw, WI",45.7691667,-92.0630556
"Bassett, WI",42.5405556,-88.2277778
"Basswood, WI",43.2625000,-90.4991667
"Batavia, WI",43.5944444,-88.0508333
"Bateman, WI",44.9311111,-91.2677778
"Bavaria, WI",45.3141667,-89.3638889
"Baxter, WI",45.1072222,-91.9458333
"Bay City, WI",44.5855556,-92.4502778
"Bay Settlement, WI",44.5530556,-87.8905556
"Bay View, WI",44.6327778,-87.7441667
"Bayfield, WI",46.8108333,-90.8180556
"Bayside, WI",43.1805556,-87.9005556
"Beachs Corners, WI",44.2013889,-91.2372222
"Bear Creek, WI",44.5313889,-88.7263889
"Bear Creek Corners, WI",44.5313889,-88.7469444
"Bear Valley, WI",43.3080556,-90.1950000
"Beaumont, WI",42.7422222,-88.1102778
"Beaver, WI",45.1375000,-88.0177778
"Beaver Brook, WI",45.7533333,-91.8388889
"Beaver Dam, WI",43.4577778,-88.8372222
"Beaver Edge, WI",43.4847222,-88.8347222
"Beebe, WI",46.4072222,-91.8391667
"Beecher, WI",45.5883333,-87.9947222
"Beecher Lake, WI",45.5691667,-87.9975000
"Beechwood, WI",43.5927778,-88.1202778
"Beetown, WI",42.7950000,-90.8852778
"Belcrest, WI",42.5413889,-89.0961111
"Beldenville, WI",44.7738889,-92.5075000
"Belgium, WI",43.4997222,-87.8502778
"Bell Center, WI",43.2916667,-90.8266667
"Bell Heights, WI",44.2805556,-88.4158333
"Belle Fountain, WI",43.6144444,-89.2633333
"Belle Plaine, WI",44.7152778,-88.6661111
"Belleville, WI",42.8597222,-89.5380556
"Bellevue, WI",44.4441667,-87.9200000
"Bellinger, WI",45.0752778,-90.8000000
"Bellwood, WI",46.5719444,-91.6375000
"Belmont, WI",42.7361111,-90.3341667
"Beloit, WI",42.5083333,-89.0316667
"Benderville, WI",44.6113889,-87.8550000
"Benet Lake, WI",42.4980556,-88.0816667
"Bennett, WI",46.4486111,-91.8533333
"Benoit, WI",46.5019444,-91.0766667
"Benson, WI",45.7172222,-92.8555556
"Benton, WI",42.5697222,-90.3805556
"Bergen, WI",42.4938889,-88.8652778
"Bergen Beach, WI",43.8605556,-88.3708333
"Berlin, WI",43.9680556,-88.9433333
"Bethel, WI",44.5405556,-90.0897222
"Bethesda, WI",42.9877778,-88.3183333
"Bevent, WI",44.7705556,-89.3894444
"Big Bend, WI",42.8813889,-88.2066667
"Big Falls, WI",44.6155556,-89.0161111
"Big Flats, WI",44.1119444,-89.8077778
"Big Spring, WI",43.6694444,-89.6436111
"Bigpatch, WI",42.6666667,-90.4761111
"Billings Park, WI",46.7183333,-92.1241667
"Binghamton, WI",44.4269444,-88.4738889
"Birch, WI",46.5383333,-90.5752778
"Birchwood, WI",45.6663889,-91.5558333
"Birnamwood, WI",44.9333333,-89.2094444
"Biron, WI",44.4238889,-89.7802778
"Black Creek, WI",44.4775000,-88.4505556
"Black Earth, WI",43.1372222,-89.7466667
"Black Hawk, WI",43.2691667,-89.9272222
"Black River, WI",46.5622222,-92.1472222
"Black River Falls, WI",44.2947222,-90.8513889
"Black Wolf, WI",43.9377778,-88.5236111
"Black Wolf Point, WI",43.9275000,-88.4713889
"Blackhawk Island, WI",42.8983333,-88.8922222
"Blackwell, WI",45.5141667,-88.6125000
"Blackwell Junction, WI",45.5316667,-88.6541667
"Blaine, WI",44.3091667,-89.3155556
"Blair, WI",44.2944444,-91.2350000
"Blanchardville, WI",42.8102778,-89.8619444
"Blenker, WI",44.6133333,-89.9150000
"Bloom City, WI",43.4944444,-90.4647222
"Bloomer, WI",45.1002778,-91.4886111
"Bloomingdale, WI",43.6430556,-90.7775000
"Bloomington, WI",42.8852778,-90.9233333
"Bloomville, WI",45.2933333,-89.5275000
"Blue Mounds, WI",43.0175000,-89.8322222
"Blue River, WI",43.1883333,-90.5666667
"Blueberry, WI",46.5802778,-91.6686111
"Bluff Siding, WI",44.0713889,-91.6177778
"Bluffview, WI",43.3711111,-89.7730556
"Boardman, WI",45.0655556,-92.5997222
"Boaz, WI",43.3313889,-90.5258333
"Bohners Lake, WI",42.6230556,-88.2802778
"Bolt, WI",44.3419444,-87.7052778
"Boltonville, WI",43.5272222,-88.1005556
"Bonduel, WI",44.7402778,-88.4447222
"Bonita, WI",45.1197222,-88.4586111
"Bonneval, WI",45.6505556,-88.5386111
"Borea, WI",46.5855556,-92.1822222
"Borth, WI",44.0911111,-88.8958333
"Boscobel, WI",43.1344444,-90.7052778
"Bosstown, WI",43.3902778,-90.6100000
"Boulder Junction, WI",46.1133333,-89.6444444
"Bowers, WI",42.6913889,-88.4444444
"Bowler, WI",44.8630556,-88.9819444
"Boyceville, WI",45.0436111,-92.0408333
"Boyd, WI",44.9519444,-91.0347222
"Boydtown, WI",43.1105556,-90.8036111
"Boylston, WI",46.5975000,-92.1286111
"Boylston Junction, WI",46.6141667,-92.1194444
"Brackett, WI",44.7013889,-91.3508333
"Bradley, WI",45.5394444,-89.7550000
"Branch, WI",44.1458333,-87.7611111
"Brandon, WI",43.7352778,-88.7811111
"Branstad, WI",45.7375000,-92.6827778
"Brant, WI",44.0733333,-88.2036111
"Brantwood, WI",45.5627778,-90.1150000
"Breed, WI",45.0730556,-88.4241667
"Briarton, WI",44.6033333,-88.4263889
"Brice Prairie, WI",43.9386111,-91.2997222
"Bridgeport, WI",43.0091667,-91.0577778
"Briggsville, WI",43.6550000,-89.5852778
"Bright, WI",44.8861111,-90.5319444
"Brighton, WI",42.6291667,-88.0997222
"Brighton Beach, WI",44.2033333,-88.4205556
"Brill, WI",45.6027778,-91.6719444
"Brillion, WI",44.1772222,-88.0641667
"Bristol, WI",42.5588889,-88.0491667
"British Hollow, WI",42.7058333,-90.6866667
"Brockway, WI",44.2847222,-90.8394444
"Brodhead, WI",42.6183333,-89.3761111
"Brodtville, WI",42.9525000,-91.0463889
"Brokaw, WI",45.0272222,-89.6530556
"Brookfield, WI",43.0605556,-88.1063889
"Brooklyn, WI",42.8536111,-89.3702778
"Brooks, WI",43.8252778,-89.6444444
"Brookside, WI",43.8611111,-89.8166667
"Brothertown, WI",43.9680556,-88.3088889
"Brown Deer, WI",43.1633333,-87.9644444
"Browns Lake, WI",42.6925000,-88.2311111
"Brownsville, WI",43.6163889,-88.4905556
"Browntown, WI",42.5777778,-89.7941667
"Brownville, WI",45.0313889,-90.9336111
"Bruce, WI",45.4569444,-91.2730556
"Bruemmerville, WI",44.6066667,-87.4700000
"Brule, WI",46.5530556,-91.5763889
"Brushville, WI",44.1700000,-88.9958333
"Brussels, WI",44.7361111,-87.6208333
"Bryant, WI",45.2080556,-89.0238889
"Buck Creek, WI",43.4205556,-90.3613889
"Buckbee, WI",44.6488889,-88.8350000
"Buckhorn Corner, WI",43.5083333,-88.8058333
"Buckman, WI",44.4144444,-87.7852778
"Bud, WI",43.5583333,-90.9877778
"Budsin, WI",43.9194444,-89.3119444
"Buena Park, WI",42.7927778,-88.2208333
"Buena Vista, WI",43.0655556,-88.3516667
"Buffalo City, WI",44.2305556,-91.8641667
"Buffalo Shore Estates, WI",43.7408333,-89.4708333
"Bundy, WI",45.4997222,-89.4336111
"Bunker Hill, WI",43.4958333,-90.2569444
"Bunyan, WI",45.4761111,-92.3669444
"Burgess Corners, WI",43.1808333,-89.1869444
"Burke, WI",43.1358333,-89.2761111
"Burkhardt, WI",45.0216667,-92.6669444
"Burkhardt Station, WI",45.0144444,-92.6652778
"Burlington, WI",42.6780556,-88.2761111
"Burnett, WI",43.5047222,-88.7069444
"Burns, WI",43.9450000,-90.9758333
"Burr Oak, WI",44.0572222,-91.0544444
"Burton, WI",42.7177778,-90.8172222
"Buss's Corners, WI",43.1661111,-89.2072222
"Busseyville, WI",42.8986111,-88.9877778
"Butler, WI",43.1058333,-88.0694444
"Butman Corners, WI",44.0780556,-91.2916667
"Butte des Morts, WI",44.0994444,-88.6538889
"Butternut, WI",46.0130556,-90.4902778
"Byrds Creek, WI",43.2200000,-90.5483333
"Byron, WI",43.6522222,-88.4508333
"Cable, WI",46.2080556,-91.2919444
"Cadott, WI",44.9480556,-91.1505556
"Cainville, WI",42.7097222,-89.2519444
"Calamine, WI",42.7425000,-90.1619444
"Caldwell, WI",42.8352778,-88.2763889
"Caledonia, WI",42.8077778,-87.9241667
"Calhoun, WI",43.0133333,-88.1269444
"Callon, WI",44.8977778,-89.5047222
"Calumet Harbor, WI",43.9130556,-88.3322222
"Calumetville, WI",43.9361111,-88.3033333
"Calvary, WI",43.8466667,-88.2438889
"Calvert, WI",43.7541667,-91.2050000
"Cambria, WI",43.5422222,-89.1072222
"Cambridge, WI",43.0036111,-89.0163889
"Cameron, WI",45.4086111,-91.7438889
"Camp Douglas, WI",43.9225000,-90.2713889
"Camp Lake, WI",42.5347222,-88.1436111
"Camp Whitcomb, WI",43.1713889,-88.3269444
"Campbellsport, WI",43.5977778,-88.2788889
"Campia, WI",45.5375000,-91.6655556
"Canton, WI",45.4280556,-91.6597222
"Carcajou, WI",42.8897222,-88.9619444
"Carlsville, WI",44.9516667,-87.3366667
"Carmel, WI",44.4458333,-88.7980556
"Carnegie, WI",46.6333333,-92.1925000
"Carnot, WI",44.7050000,-87.4186111
"Carol Beach, WI",42.5122222,-87.8091667
"Caroline, WI",44.7208333,-88.8913889
"Carrollville, WI",42.8800000,-87.8547222
"Carter, WI",45.3908333,-88.6277778
"Caryville, WI",44.7513889,-91.6744444
"Cascade, WI",43.6583333,-88.0069444
"Casco, WI",44.5577778,-87.6180556
"Casco Junction, WI",44.5305556,-87.6505556
"Cashton, WI",43.7419444,-90.7791667
"Casimir, WI",44.5700000,-89.6075000
"Cassell, WI",43.2066667,-89.8750000
"Cassville, WI",42.7144444,-90.9905556
"Cataract, WI",44.0877778,-90.8422222
"Catawba, WI",45.5363889,-90.5297222
"Cato, WI",44.1427778,-87.8611111
"Cavour, WI",45.6522222,-88.6294444
"Cayuga, WI",46.2444444,-90.6822222
"Cazenovia, WI",43.5230556,-90.1961111
"Cecil, WI",44.8100000,-88.4522222
"Cedar, WI",46.5072222,-90.4980556
"Cedar Creek, WI",43.3397222,-88.2227778
"Cedar Falls, WI",44.9358333,-91.8838889
"Cedar Grove, WI",43.5697222,-87.8233333
"Cedar Lake, WI",43.3538889,-88.2925000
"Cedar Park, WI",42.6888889,-88.2305556
"Cedarburg, WI",43.2966667,-87.9875000
"Cedarville, WI",45.4536111,-87.9827778
"Center Valley, WI",44.4022222,-88.4597222
"Centerville, WI",44.0700000,-91.4511111
"Centuria, WI",45.4513889,-92.5538889
"Chaffey, WI",46.3983333,-92.1633333
"Champion, WI",44.5891667,-87.7941667
"Chapel Ridge, WI",44.5316667,-87.9044444
"Chapultepee, WI",44.2230556,-91.2811111
"Charlesburg, WI",43.9697222,-88.1700000
"Charlie Bluff, WI",42.8402778,-88.9780556
"Charme, WI",43.1677778,-91.1377778
"Chase, WI",44.7180556,-88.1566667
"Chaseburg, WI",43.6577778,-91.0963889
"Cheeseville, WI",43.4688889,-88.0805556
"Chelsea, WI",45.2902778,-90.3072222
"Chenequa, WI",43.1116667,-88.3922222
"Cherneyville, WI",44.4288889,-87.7347222
"Cherokee, WI",44.9022222,-90.2177778
"Chetek, WI",45.3141667,-91.6508333
"Chicago, WI",42.5861111,-87.8247222
"Chicago Corners, WI",44.4588889,-88.2508333
"Chicago Junction, WI",45.8033333,-91.8863889
"Chief Lake, WI",45.9266667,-91.3327778
"Chili, WI",44.6269444,-90.3563889
"Chilton, WI",44.0288889,-88.1627778
"Chippewa Falls, WI",44.9369444,-91.3927778
"Chittamo, WI",46.1280556,-91.7163889
"Choate, WI",45.3780556,-88.8222222
"Christie, WI",44.6472222,-90.5963889
"Christilla Heights, WI",42.5288889,-89.0727778
"Cicero, WI",44.5736111,-88.3872222
"City Point, WI",44.3522222,-90.3213889
"City View Heights, WI",43.1802778,-89.1797222
"Clam Falls, WI",45.6886111,-92.2933333
"Clam Lake, WI",46.1638889,-90.9022222
"Clark, WI",45.0291667,-90.6588889
"Clarks Mills, WI",44.0900000,-87.8641667
"Clarks Point, WI",44.1508333,-88.7102778
"Clarno, WI",42.5186111,-89.6477778
"Clayton, WI",45.3313889,-92.1711111
"Clear Lake, WI",45.2519444,-92.2711111
"Clearwater Lake, WI",45.8536111,-89.1880556
"Cleghorn, WI",44.6836111,-91.4266667
"Cleveland, WI",43.9150000,-87.7472222
"Clifford, WI",45.5552778,-90.0430556
"Clifton, WI",43.8791667,-90.3566667
"Clinton, WI",42.5577778,-88.8650000
"Clintonville, WI",44.6205556,-88.7622222
"Clover, WI",44.0380556,-87.7016667
"Cloverdale, WI",44.0250000,-90.1788889
"Cloverland, WI",46.6769444,-91.6788889
"Clyde, WI",43.1194444,-90.2113889
"Clyman, WI",43.3113889,-88.7200000
"Clyman Junction, WI",43.3252778,-88.7177778
"Cobb, WI",42.9675000,-90.3294444
"Cobb Town, WI",44.3755556,-89.2152778
"Cobban, WI",45.1030556,-91.2061111
"Cochrane, WI",44.2275000,-91.8350000
"Coddington, WI",44.3702778,-89.5480556
"Colburn, WI",45.0402778,-91.0447222
"Colby, WI",44.9100000,-90.3155556
"Cold Spring, WI",42.8908333,-88.7741667
"Cold Springs, WI",43.8477778,-91.2125000
"Coleman, WI",45.0650000,-88.0341667
"Colfax, WI",44.9975000,-91.7269444
"Colgate, WI",43.1930556,-88.2066667
"Collins, WI",44.0855556,-87.9827778
"Coloma, WI",44.0355556,-89.5213889
"Columbia, WI",44.5163889,-90.7197222
"Columbus, WI",43.3380556,-89.0152778
"Combined Locks, WI",44.2658333,-88.3141667
"Comfort, WI",44.7750000,-92.0352778
"Commonwealth, WI",45.9136111,-88.2400000
"Como, WI",42.6122222,-88.4822222
"Comstock, WI",45.4777778,-92.0750000
"Concord, WI",43.0694444,-88.5986111
"Connorsville, WI",45.1361111,-92.0947222
"Conover, WI",46.0547222,-89.2577778
"Conrath, WI",45.3861111,-91.0380556
"Cooksville, WI",42.8352778,-89.2405556
"Coomer, WI",45.7475000,-92.2569444
"Coon Rock, WI",43.1508333,-89.9894444
"Coon Valley, WI",43.7022222,-91.0130556
"Coopers Shores, WI",42.8325000,-89.0113889
"Cooperstown, WI",44.3127778,-87.7744444
"Coppens Corner, WI",44.4583333,-87.7855556
"Coral City, WI",44.3794444,-91.2772222
"Corinth, WI",45.0027778,-90.1391667
"Cormier, WI",44.5627778,-88.0780556
"Cornelia, WI",42.6894444,-90.5775000
"Cornell, WI",45.1672222,-91.1491667
"Cornucopia, WI",46.8538889,-91.1016667
"Cottage Grove, WI",43.0761111,-89.1994444
"Cottonville, WI",44.0583333,-89.8063889
"Couderay, WI",45.7955556,-91.3066667
"Council Bay, WI",44.0575000,-91.2836111
"County Line, WI",44.9902778,-87.8525000
"Cozy Corner, WI",46.1647222,-92.2377778
"Cranberry Lake, WI",45.6402778,-90.3472222
"Cranberry Marsh, WI",43.5716667,-88.0855556
"Crandon, WI",45.5719444,-88.9027778
"Cranmoor, WI",44.3147222,-90.0327778
"Crawford Crossing, WI",43.4544444,-89.7291667
"Cream, WI",44.3161111,-91.7716667
"Crescent, WI",45.0677778,-91.1466667
"Crescent Corner, WI",45.5700000,-89.4891667
"Crestview, WI",42.8169444,-87.8100000
"Crivitz, WI",45.2325000,-88.0075000
"Cross Plains, WI",43.1144444,-89.6555556
"Cuba City, WI",42.6055556,-90.4297222
"Cudahy, WI",42.9597222,-87.8613889
"Cullen, WI",44.9616667,-87.8530556
"Cumberland, WI",45.5322222,-92.0191667
"Curran, WI",44.3561111,-87.7455556
"Curtiss, WI",44.9552778,-90.4344444
"Cushing, WI",45.5705556,-92.6508333
"Custer, WI",44.5105556,-89.4261111
"Cutler, WI",44.0258333,-90.2366667
"Cutter, WI",46.6330556,-91.9586111
"Cylon, WI",45.1222222,-92.3527778
"Czechville, WI",44.1872222,-91.7733333
"Dacada, WI",43.5433333,-87.9086111
"Dahl, WI",44.9902778,-92.3183333
"Dairyland, WI",46.2161111,-92.1552778
"Dakota, WI",43.9902778,-89.3563889
"Dale, WI",44.2730556,-88.6783333
"Daleyville, WI",42.9150000,-89.8147222
"Dallas, WI",45.2591667,-91.8147222
"Dalton, WI",43.6569444,-89.2063889
"Danbury, WI",46.0066667,-92.3711111
"Dancy, WI",44.6877778,-89.7130556
"Dane, WI",43.2505556,-89.5013889
"Danville, WI",43.3194444,-88.9555556
"Darboy, WI",44.2433333,-88.3238889
"Darien, WI",42.6016667,-88.7075000
"Darlington, WI",42.6830556,-90.1175000
"Dayton, WI",42.8269444,-89.5130556
"De Forest, WI",43.2477778,-89.3436111
"De Pere, WI",44.4488889,-88.0602778
"De Soto, WI",43.4230556,-91.1988889
"Deansville, WI",43.1816667,-89.1033333
"Decker, WI",43.4705556,-87.8625000
"Decker Corner, WI",43.3513889,-88.0450000
"Decorah Beach, WI",43.9227778,-88.4750000
"Dedham, WI",46.5422222,-92.1977778
"Deer Park, WI",45.1880556,-92.3852778
"Deerbrook, WI",45.2336111,-89.1555556
"Deerfield, WI",43.0519444,-89.0755556
"Dekorra, WI",43.4575000,-89.4675000
"Delafield, WI",43.0608333,-88.4036111
"Delavan, WI",42.6330556,-88.6436111
"Delavan Lake, WI",42.5841667,-88.6325000
"Delbern Acres, WI",43.6002778,-88.9138889
"Dellwood, WI",43.9841667,-89.9386111
"Delta, WI",46.4727778,-91.2700000
"Denmark, WI",44.3477778,-87.8272222
"Denzer, WI",43.3441667,-89.8866667
"Deronda, WI",45.3036111,-92.4280556
"Detroit Harbor, WI",45.3566667,-86.9305556
"Devils Corner, WI",44.5108333,-92.1350000
"Dewey, WI",46.5694444,-92.2447222
"Dewey Corners, WI",44.2505556,-91.4733333
"Dexter, WI",43.8425000,-88.4877778
"Dexterville, WI",44.3763889,-90.1105556
"Dheinsville, WI",43.2500000,-88.1427778
"Diamond Bluff, WI",44.6505556,-92.6288889
"Diamond Grove, WI",42.7925000,-90.9194444
"Dickeyville, WI",42.6272222,-90.5919444
"Diefenbach Corners, WI",43.3536111,-88.2605556
"Dilly, WI",43.6422222,-90.4400000
"Disco, WI",44.2622222,-91.0088889
"Dobie, WI",45.5519444,-91.6833333
"Dodge, WI",44.1322222,-91.5519444
"Dodgeville, WI",42.9602778,-90.1300000
"Doering, WI",45.2352778,-89.4580556
"Donald, WI",45.2525000,-90.8969444
"Door Creek, WI",43.0308333,-89.1997222
"Dorchester, WI",45.0030556,-90.3355556
"Dorns Faro Springs Beach, WI",44.1225000,-88.3191667
"Dorns Twilight Beach, WI",44.0394444,-88.3205556
"Dotyville, WI",43.7522222,-88.2608333
"Douglas Center, WI",43.7008333,-89.5552778
"Dousman, WI",43.0141667,-88.4725000
"Dover, WI",45.6716667,-90.1875000
"Downing, WI",45.0463889,-92.1319444
"Downsville, WI",44.7747222,-91.9319444
"Doylestown, WI",43.4277778,-89.1500000
"Draper, WI",45.8863889,-90.8308333
"Dresser, WI",45.3561111,-92.6333333
"Drovers Woods, WI",43.1694444,-89.1313889
"Druecker, WI",43.4400000,-87.8711111
"Drummond, WI",46.3369444,-91.2577778
"Drywood, WI",45.0483333,-91.1680556
"Duck Creek, WI",44.5619444,-88.0691667
"Dudley, WI",45.3355556,-89.4652778
"Dunbar, WI",45.6508333,-88.1713889
"Dunbarton, WI",42.5616667,-90.1330556
"Dundas, WI",44.2341667,-88.1983333
"Dundee, WI",43.6552778,-88.1644444
"Dunkirk, WI",42.8813889,-89.2097222
"Dunnville, WI",44.7186111,-91.9052778
"Duplainville, WI",43.0738889,-88.1980556
"Durand, WI",44.6263889,-91.9655556
"Durham, WI",42.8663889,-88.0705556
"Durwards Glen, WI",43.4386111,-89.5913889
"Dutch Corners, WI",45.2355556,-89.5491667
"Duvall, WI",44.6611111,-87.7133333
"Duveneck, WI",44.0169444,-87.7116667
"Dyckesville, WI",44.6433333,-87.7611111
"Eadsville, WI",45.0097222,-90.8611111
"Eagle, WI",42.8794444,-88.4741667
"Eagle Lake, WI",42.7069444,-88.1280556
"Eagle Lake Manor, WI",42.6983333,-88.1350000
"Eagle Lake Terrace, WI",42.7047222,-88.1388889
"Eagle Point, WI",45.0316667,-91.3958333
"Eagle River, WI",45.9172222,-89.2441667
"Eagleton, WI",45.0602778,-91.3891667
"Eagleville, WI",42.8547222,-88.4327778
"Earl, WI",45.9105556,-91.7602778
"East Bristol, WI",43.2683333,-89.1525000
"East Delavan, WI",42.6088889,-88.5605556
"East Ellsworth, WI",44.7341667,-92.4677778
"East End, WI",46.7088889,-92.0591667
"East Farmington, WI",45.2530556,-92.6972222
"East Friesland, WI",43.6008333,-89.0469444
"East Krok, WI",44.4288889,-87.6022222
"East Troy, WI",42.7852778,-88.4050000
"East Waupun, WI",43.6241667,-88.6905556
"East Winona, WI",44.0477778,-91.5950000
"Easter Rock, WI",43.1511111,-90.7208333
"Eastman, WI",43.1663889,-91.0175000
"Easton, WI",43.8380556,-89.8066667
"Eau Claire, WI",44.8113889,-91.4983333
"Eau Galle, WI",44.6922222,-92.0113889
"Ebenezer, WI",43.1383333,-88.7377778
"Eckers Lakeland, WI",44.0033333,-88.3227778
"Eden, WI",43.6936111,-88.3608333
"Edgar, WI",44.9272222,-89.9633333
"Edgerton, WI",42.8352778,-89.0675000
"Edgerton Beach Park, WI",42.8675000,-89.0211111
"Edgewater, WI",45.7422222,-91.4750000
"Edgewater Beach, WI",44.6236111,-87.8297222
"Edgewood, WI",43.0625000,-88.3016667
"Edmund, WI",42.9675000,-90.2644444
"Edson, WI",44.9300000,-91.0347222
"Egg Harbor, WI",45.0463889,-87.2969444
"Eidsvold, WI",44.9641667,-90.8663889
"Eight Corners, WI",44.4677778,-89.9252778
"El Paso, WI",44.7697222,-92.3438889
"Eland, WI",44.8705556,-89.2150000
"Elcho, WI",45.4358333,-89.1833333
"Elderon, WI",44.7838889,-89.2447222
"Eldorado, WI",43.8247222,-88.6216667
"Eleva, WI",44.5758333,-91.4700000
"Elk Creek, WI",44.4269444,-91.3994444
"Elk Grove, WI",42.6716667,-90.3908333
"Elk Mound, WI",44.8730556,-91.6908333
"Elkhart Lake, WI",43.8333333,-88.0177778
"Elkhorn, WI",42.6727778,-88.5444444
"Ella, WI",44.5366667,-92.0500000
"Ellenboro, WI",42.7833333,-90.6136111
"Ellis, WI",44.5752778,-89.4463889
"Ellison Bay, WI",45.2547222,-87.0713889
"Ellisville, WI",44.4577778,-87.6841667
"Ellsworth, WI",44.7322222,-92.4872222
"Elm Grove, WI",43.0430556,-88.0788889
"Elm Tree Corners, WI",44.5547222,-88.0980556
"Elmhurst, WI",45.0583333,-89.1841667
"Elmo, WI",42.6427778,-90.4358333
"Elmore, WI",43.5750000,-88.3027778
"Elmside, WI",43.0922222,-89.3438889
"Elmwood, WI",44.7811111,-92.1458333
"Elmwood Park, WI",42.6922222,-87.8222222
"Elo, WI",43.9383333,-88.7061111
"Elroy, WI",43.7408333,-90.2722222
"Elton, WI",45.1683333,-88.8863889
"Elvers, WI",43.0697222,-89.7977778
"Embarrass, WI",44.6655556,-88.7072222
"Emerald, WI",45.0830556,-92.2580556
"Emerald Grove, WI",42.6561111,-88.8805556
"Emmerich, WI",45.0908333,-89.8291667
"Endeavor, WI",43.7158333,-89.4661111
"Englewood, WI",43.4286111,-89.0750000
"Enterprise, WI",45.4972222,-89.2583333
"Ephraim, WI",45.1563889,-87.1680556
"Erdman, WI",43.7900000,-87.7594444
"Erin Corner, WI",45.0794444,-92.4369444
"Esdaile, WI",44.6208333,-92.4386111
"Esofea, WI",43.6311111,-90.9630556
"Etna, WI",42.5658333,-90.3275000
"Ettrick, WI",44.1683333,-91.2688889
"Eureka, WI",44.0044444,-88.8416667
"Eureka Center, WI",45.5127778,-92.6513889
"Euren, WI",44.6183333,-87.6022222
"Evansville, WI",42.7802778,-89.2991667
"Evanswood, WI",44.2897222,-88.9313889
"Evergreen, WI",44.8425000,-89.6375000
"Excelsior, WI",43.2516667,-90.6280556
"Exeland, WI",45.6680556,-91.2438889
"Exeter, WI",42.7905556,-89.5830556
"Exile, WI",44.6991667,-92.1655556
"Fair Play, WI",42.5355556,-90.5605556
"Fairburn, WI",43.9711111,-89.0372222
"Fairchild, WI",44.6002778,-90.9627778
"Fairfield, WI",42.6330556,-88.7763889
"Fairview, WI",43.3680556,-90.9427778
"Fairview Beach, WI",44.0850000,-88.5113889
"Fairwater, WI",43.7438889,-88.8669444
"Fall Creek, WI",44.7636111,-91.2769444
"Fall Hall Glen, WI",44.1963889,-90.8397222
"Fall River, WI",43.3844444,-89.0450000
"Falls City, WI",44.7972222,-91.7686111
"Falun, WI",45.7719444,-92.5275000
"Fancher, WI",44.4630556,-89.3855556
"Fargo, WI",43.4558333,-90.9572222
"Farmers Valley, WI",43.8991667,-90.7477778
"Farmersville, WI",43.5583333,-88.5313889
"Farmington, WI",43.0761111,-88.6719444
"Fayette, WI",42.7541667,-90.0352778
"Fence, WI",45.7444444,-88.4241667
"Fennimore, WI",42.9836111,-90.6552778
"Fenwood, WI",44.8661111,-90.0152778
"Fern, WI",45.8361111,-88.3858333
"Ferryville, WI",43.3505556,-91.1019444
"Fifield, WI",45.8797222,-90.4219444
"Fillmore, WI",43.4983333,-88.0605556
"Finley, WI",44.2133333,-90.1361111
"Fish Creek, WI",45.1277778,-87.2469444
"Fisherville, WI",44.2405556,-87.6800000
"Fisk, WI",43.9558333,-88.6780556
"Fitchburg, WI",42.9608333,-89.4697222
"Fitzgerald, WI",43.9822222,-88.6211111
"Five Corners, WI",44.4147222,-88.3741667
"Five Points, WI",43.0161111,-89.5330556
"Flintville, WI",44.6466667,-88.1177778
"Flora Fountain, WI",42.8319444,-90.8397222
"Florence, WI",45.9222222,-88.2516667
"Folsom, WI",43.4383333,-90.8383333
"Fond du Lac, WI",43.7730556,-88.4469444
"Fontana, WI",42.5513889,-88.5750000
"Fontenoy, WI",44.3711111,-87.7861111
"Footville, WI",42.6708333,-89.2088889
"Forest, WI",45.1366667,-92.2594444
"Forest Glen Beach, WI",43.8169444,-88.9322222
"Forest Junction, WI",44.2125000,-88.1441667
"Forestville, WI",44.6900000,-87.4791667
"Fort Atkinson, WI",42.9288889,-88.8369444
"Forward, WI",42.8969444,-89.7561111
"Foster, WI",44.6430556,-91.3116667
"Foster Junction, WI",46.3136111,-90.7038889
"Fountain City, WI",44.1319444,-91.7186111
"Fountain Valley, WI",44.0908333,-88.9861111
"Four Corners, WI",45.6713889,-92.5905556
"Fox Creek, WI",45.4836111,-92.3452778
"Fox Lake, WI",43.5655556,-88.9063889
"Fox Lake Junction, WI",43.5311111,-88.9025000
"Fox Point, WI",43.1575000,-87.9016667
"Fox River, WI",42.5569444,-88.1844444
"Foxboro, WI",46.4986111,-92.2877778
"Foxhollow, WI",42.5138889,-88.9077778
"Foxmoor Hills, WI",43.1916667,-89.2675000
"Francis Creek, WI",44.1994444,-87.7213889
"Franklin, WI",42.8886111,-88.0383333
"Franksville, WI",42.7600000,-87.9133333
"Frazer Corners, WI",44.6744444,-88.3622222
"Frederic, WI",45.6591667,-92.4669444
"Fredonia, WI",43.4705556,-87.9505556
"Freedom, WI",44.3863889,-88.2886111
"Freeman, WI",45.3497222,-88.8288889
"Freistadt, WI",43.2361111,-88.0425000
"Fremont, WI",44.2597222,-88.8647222
"French Island, WI",43.8583333,-91.2602778
"Frenchville, WI",44.1497222,-91.3227778
"Friendship, WI",43.9705556,-89.8166667
"Friesland, WI",43.5886111,-89.0672222
"Frostville, WI",45.0052778,-88.3250000
"Fulton, WI",42.8080556,-89.1275000
"Fussville, WI",43.1516667,-88.0777778
"Gagen, WI",45.6625000,-89.1380556
"Galesville, WI",44.0816667,-91.3488889
"Galloway, WI",44.7127778,-89.2641667
"Garden Village, WI",42.5547222,-89.0291667
"Garfield, WI",44.5619444,-89.2941667
"Garnet, WI",43.9355556,-88.2627778
"Gays Mills, WI",43.3175000,-90.8447222
"Genesee, WI",42.9527778,-88.3588889
"Genesee Depot, WI",42.9666667,-88.3711111
"Genoa, WI",43.5766667,-91.2241667
"Genoa City, WI",42.4983333,-88.3280556
"Georgetown, WI",42.6241667,-90.4844444
"Germania, WI",46.4383333,-90.2244444
"Germantown, WI",43.2286111,-88.1102778
"Gibbsville, WI",43.6522222,-87.8266667
"Gilbert, WI",45.4313889,-89.6930556
"Gile, WI",46.4283333,-90.2250000
"Gillett, WI",44.8900000,-88.3072222
"Gillingham, WI",43.4263889,-90.4450000
"Gills Landing, WI",44.3027778,-88.8833333
"Gills Rock, WI",45.2900000,-87.0216667
"Gilman, WI",45.1666667,-90.8075000
"Gilmanton, WI",44.4708333,-91.6758333
"Gladstone Beach, WI",43.8655556,-88.3688889
"Glandon, WI",45.0888889,-89.4269444
"Gleason, WI",45.3088889,-89.4963889
"Glen Flora, WI",45.4958333,-90.8938889
"Glen Haven, WI",42.8263889,-91.0708333
"Glen Oak, WI",43.7441667,-89.3613889
"Glenbeulah, WI",43.7972222,-88.0472222
"Glencoe, WI",44.2752778,-91.6116667
"Glendale, WI",43.1352778,-87.9355556
"Glenmore, WI",44.3858333,-87.9272222
"Glenn Oaks Beach, WI",42.8813889,-88.9986111
"Glenwood City, WI",45.0586111,-92.1722222
"Glidden, WI",46.1350000,-90.5783333
"Globe, WI",44.6544444,-90.6591667
"Glover, WI",44.9130556,-92.6802778
"Goerkes Corner, WI",43.0363889,-88.1661111
"Goldenthal, WI",43.2361111,-88.1619444
"Goll, WI",45.2802778,-87.7508333
"Goodman, WI",45.6313889,-88.3533333
"Goodnow, WI",45.6972222,-89.6716667
"Goodrich, WI",45.1494444,-90.0855556
"Gooseville, WI",43.5872222,-88.0211111
"Gordon, WI",46.2469444,-91.7983333
"Gotham, WI",43.2233333,-90.2913889
"Grafton, WI",43.3197222,-87.9533333
"Graham Corners, WI",43.7325000,-88.1750000
"Grand Crossing, WI",43.8452778,-91.2294444
"Grand Marsh, WI",43.8869444,-89.7061111
"Grand View, WI",46.3675000,-91.1080556
"Granite Heights, WI",45.0600000,-89.6394444
"Granton, WI",44.5888889,-90.4611111
"Grantsburg, WI",45.7763889,-92.6825000
"Granville, WI",43.1775000,-88.0438889
"Gratiot, WI",42.5788889,-90.0225000
"Gravesville, WI",44.0363889,-88.1461111
"Graytown, WI",45.1994444,-92.1269444
"Green Bay, WI",44.5191667,-88.0197222
"Green Lake, WI",43.8441667,-88.9600000
"Green Lake Terrace, WI",43.7825000,-89.0644444
"Green Valley, WI",44.7955556,-88.2702778
"Greenbush, WI",43.7766667,-88.0838889
"Greenbush Addition, WI",43.0619444,-89.4027778
"Greendale, WI",42.9405556,-87.9958333
"Greenfield, WI",42.9613889,-88.0125000
"Greenleaf, WI",44.3133333,-88.0961111
"Greenville, WI",44.3002778,-88.5363889
"Greenwood, WI",44.7702778,-90.5991667
"Greenwyck, WI",43.7852778,-89.0236111
"Gregorville, WI",44.6183333,-87.5463889
"Grellton, WI",43.1350000,-88.7883333
"Gresham, WI",44.8530556,-88.7880556
"Grimms, WI",44.1461111,-87.9016667
"Gurney, WI",46.4727778,-90.5080556
"Guthrie, WI",42.9250000,-88.2000000
"Haevers Corners, WI",44.5127778,-87.9777778
"Hager City, WI",44.6016667,-92.5380556
"Halder, WI",44.7991667,-89.8705556
"Hale, WI",44.4658333,-91.2622222
"Hale Corner, WI",44.6616667,-91.2763889
"Hales Corners, WI",42.9375000,-88.0486111
"Hallie, WI",44.8827778,-91.4325000
"Hamburg, WI",45.0905556,-89.8850000
"Hamilton, WI",43.6975000,-88.4586111
"Hammond, WI",44.9788889,-92.4355556
"Hamples Corner, WI",44.3516667,-88.4752778
"Hancock, WI",44.1336111,-89.5230556
"Hanerville, WI",42.8755556,-89.1613889
"Hannibal, WI",45.2525000,-90.7888889
"Hanover, WI",42.6386111,-89.1619444
"Hans Addition, WI",42.8313889,-89.0536111
"Harbor Springs, WI",44.0641667,-88.6855556
"Harmony, WI",45.0991667,-87.8197222
"Harmony Grove, WI",43.3716667,-89.5508333
"Harmony Hill, WI",43.2097222,-90.7113889
"Harrison, WI",45.4775000,-89.5066667
"Harrisville, WI",43.8777778,-89.4052778
"Harshaw, WI",45.6655556,-89.6552778
"Hartford, WI",43.3177778,-88.3788889
"Hartland, WI",43.1050000,-88.3419444
"Hatchville, WI",44.8580556,-92.1361111
"Hatfield, WI",44.4147222,-90.7305556
"Hatley, WI",44.8875000,-89.3386111
"Hauer, WI",45.8027778,-91.4600000
"Haugen, WI",45.6088889,-91.7747222
"Haven, WI",43.8483333,-87.7533333
"Hawkins, WI",45.5150000,-90.7197222
"Hawkins Corner, WI",44.5180556,-92.1652778
"Hawthorne, WI",46.5030556,-91.8605556
"Hay Creek, WI",44.6222222,-91.0747222
"Hay Stack Corner, WI",45.6486111,-90.8755556
"Hayen, WI",43.8491667,-87.7458333
"Hayes, WI",44.9997222,-88.4227778
"Hayton, WI",44.0225000,-88.1161111
"Hayward, WI",46.0130556,-91.4844444
"Hazel Green, WI",42.5327778,-90.4344444
"Hazelhurst, WI",45.8077778,-89.7250000
"Heafford Junction, WI",45.5472222,-89.7152778
"Heart Prairie, WI",42.7655556,-88.6419444
"Heath Mills, WI",42.9838889,-88.5741667
"Hebron, WI",42.9252778,-88.6925000
"Heffron, WI",44.2436111,-89.3061111
"Hegg, WI",44.2091667,-91.1922222
"Helena, WI",43.1713889,-90.0222222
"Helenville, WI",43.0119444,-88.6994444
"Hematite, WI",45.9091667,-88.2094444
"Hemlock, WI",44.8236111,-90.6116667
"Henrysville, WI",44.4438889,-87.7858333
"Herbster, WI",46.8325000,-91.2608333
"Herman Center, WI",43.4138889,-88.4600000
"Herold, WI",44.3055556,-91.8419444
"Herrington, WI",43.7783333,-91.2191667
"Hersey, WI",44.9627778,-92.2113889
"Hertel, WI",45.8086111,-92.1750000
"Hewitt, WI",44.6450000,-90.1000000
"Hickory Corners, WI",45.0047222,-88.2538889
"Hickory Grove, WI",43.1061111,-90.5991667
"Hickory Hills, WI",42.8638889,-89.0216667
"High Bridge, WI",46.3888889,-90.7361111
"Highland, WI",43.0466667,-90.3797222
"Highland Beach, WI",44.1866667,-88.3158333
"Highland Park, WI",43.8941667,-88.3475000
"Highland Shore, WI",44.0508333,-88.6305556
"Highwood, WI",42.8600000,-89.0216667
"Hilbert, WI",44.1402778,-88.1638889
"Hilbert Junction, WI",44.1461111,-88.1594444
"Hilburn, WI",42.7883333,-88.3550000
"Hiles, WI",45.7038889,-88.9772222
"Hill Point, WI",43.4244444,-90.1125000
"Hillcrest, WI",46.5030556,-91.8980556
"Hillsboro, WI",43.6522222,-90.3438889
"Hillsdale, WI",45.3158333,-91.8594444
"Hillside, WI",42.9347222,-89.0427778
"Hilton Estates, WI",43.2230556,-89.2236111
"Hines, WI",46.5430556,-91.9080556
"Hingham, WI",43.6388889,-87.9141667
"Hintz, WI",44.9158333,-88.4100000
"Hixton, WI",44.3858333,-91.0141667
"Hochheim, WI",43.4569444,-88.4691667
"Hoepkers Corners, WI",43.1650000,-89.2850000
"Hofa Park, WI",44.6302778,-88.3327778
"Hoffman Corners, WI",43.0216667,-89.1500000
"Hogarty, WI",45.0297222,-89.3055556
"Holcombe, WI",45.2244444,-91.1172222
"Holiday Heights, WI",43.8652778,-91.2008333
"Holiday Hills, WI",42.5480556,-89.0302778
"Holland, WI",44.2486111,-88.1716667
"Hollandale, WI",42.8758333,-89.9361111
"Hollister, WI",45.2480556,-88.7913889
"Holmen, WI",43.9633333,-91.2561111
"Holt, WI",44.7175000,-89.3252778
"Holts Landing, WI",46.0100000,-90.3713889
"Holy Cross, WI",43.4702778,-87.8955556
"Homer, WI",43.0852778,-90.6166667
"Honey Creek, WI",42.7483333,-88.3077778
"Honey Lake, WI",42.7158333,-88.3058333
"Hoopers Mill, WI",43.0966667,-88.8813889
"Hope, WI",43.0516667,-89.2461111
"Hopokoekau Beach, WI",43.8222222,-88.3877778
"Horicon, WI",43.4513889,-88.6311111
"Horns Corners, WI",43.3413889,-88.0238889
"Horse Creek, WI",45.2575000,-92.5830556
"Horseman, WI",45.4944444,-91.5594444
"Hortonville, WI",44.3347222,-88.6380556
"Houlton, WI",45.0605556,-92.7911111
"Howard, WI",44.5436111,-88.0880556
"Howards Grove, WI",43.8338889,-87.8200000
"Hoyt, WI",46.4105556,-90.2994444
"Hub City, WI",43.4711111,-90.3561111
"Hubbleton, WI",43.1936111,-88.8819444
"Hubertus, WI",43.2366667,-88.2211111
"Hudson, WI",44.9747222,-92.7566667
"Hughey, WI",45.2486111,-90.7000000
"Huilsburg, WI",43.3841667,-88.4605556
"Hulls Crossing, WI",43.8158333,-88.1113889
"Humbird, WI",44.5291667,-90.8891667
"Humboldt, WI",44.5019444,-87.8258333
"Hunting, WI",44.6833333,-88.9713889
"Huntington, WI",45.1919444,-92.5586111
"Hurley, WI",46.4497222,-90.1863889
"Huron, WI",45.1194444,-90.9825000
"Hurricane, WI",42.7847222,-90.7711111
"Husher, WI",42.8141667,-87.8944444
"Hustisford, WI",43.3461111,-88.6005556
"Hustler, WI",43.8800000,-90.2716667
"Hyde, WI",43.0733333,-89.9816667
"Idlewild, WI",44.8883333,-87.4272222
"Idlewood Beach, WI",43.6013889,-87.7652778
"Iduna, WI",44.1986111,-91.3125000
"Imalone, WI",45.5522222,-91.2272222
"Independence, WI",44.3569444,-91.4202778
"Indian Creek, WI",45.7052778,-92.2072222
"Indian Heights, WI",42.8522222,-89.0180556
"Indian Hills, WI",43.8047222,-88.9897222
"Indian Shores, WI",44.1391667,-88.7016667
"Indianford, WI",42.8041667,-89.0911111
"Ingersoll, WI",44.8519444,-89.2597222
"Ingle, WI",43.6244444,-89.1277778
"Ingram, WI",45.5050000,-90.8122222
"Inlet, WI",42.6272222,-88.5850000
"Ino, WI",46.5308333,-91.1786111
"Institute, WI",44.8933333,-87.2869444
"Interwald, WI",45.2238889,-90.1163889
"Iola, WI",44.5080556,-89.1305556
"Ipswich, WI",42.7075000,-90.4102778
"Irma, WI",45.3513889,-89.6663889
"Iron Belt, WI",46.4005556,-90.3241667
"Iron Ridge, WI",43.3997222,-88.5325000
"Iron River, WI",46.5644444,-91.4080556
"Ironton, WI",43.5461111,-90.1411111
"Irvine, WI",44.9255556,-91.4197222
"Irving, WI",44.1900000,-90.9011111
"Irvington, WI",44.8361111,-91.9544444
"Isaar, WI",44.5716667,-88.2844444
"Island Beach, WI",44.0911111,-88.5027778
"Island Lake, WI",45.3188889,-91.3688889
"Island Park, WI",44.0227778,-88.8022222
"Itasca, WI",46.6747222,-92.0063889
"Ithaca, WI",43.3408333,-90.2816667
"Ives, WI",42.7700000,-87.8052778
"Ives Grove, WI",42.7291667,-87.9661111
"Ixonia, WI",43.1438889,-88.5972222
"Jackson, WI",43.3238889,-88.1666667
"Jacksonport, WI",44.9786111,-87.1855556
"Jacksonville, WI",43.9519444,-90.5575000
"Jamestown, WI",42.5877778,-90.5483333
"Janesville, WI",42.6827778,-89.0186111
"Jefferson, WI",43.0055556,-88.8072222
"Jefferson Junction, WI",43.0369444,-88.7900000
"Jeffris, WI",45.5019444,-89.4302778
"Jenkinsville, WI",42.6347222,-90.3697222
"Jennings, WI",45.5075000,-89.0719444
"Jericho, WI",43.9700000,-88.2663889
"Jersey City, WI",45.4852778,-89.7444444
"Jewett, WI",45.1175000,-92.4361111
"Jim Falls, WI",45.0452778,-91.2727778
"Jimtown, WI",43.3533333,-90.6383333
"Joel, WI",45.3605556,-92.2344444
"Johannesburg, WI",45.1652778,-92.5938889
"Johnsburg, WI",43.8772222,-88.2897222
"Johnson, WI",45.0113889,-89.3558333
"Johnson Creek, WI",43.0761111,-88.7741667
"Johnsonville, WI",43.7983333,-87.9094444
"Johnstown, WI",42.7000000,-88.8061111
"Johnstown Center, WI",42.6958333,-88.8394444
"Jonesdale, WI",42.8988889,-90.0133333
"Jordan, WI",44.5747222,-89.5050000
"Juda, WI",42.5897222,-89.5058333
"Jump River, WI",45.3530556,-90.8011111
"Junction, WI",45.0097222,-90.9022222
"Junction City, WI",44.5908333,-89.7672222
"Juneau, WI",43.4055556,-88.7050000
"Kalinke, WI",45.0305556,-89.3969444
"Kansasville, WI",42.6825000,-88.1102778
"Katinka Village, WI",46.2041667,-89.8013889
"Kaukauna, WI",44.2780556,-88.2719444
"Keene, WI",44.3669444,-89.4741667
"Keenville, WI",44.0613889,-88.5252778
"Kegonsa, WI",42.9772222,-89.2002778
"Kekoskee, WI",43.5300000,-88.5608333
"Kellner, WI",44.3588889,-89.7247222
"Kellners Corners, WI",44.1261111,-87.7094444
"Kellnersville, WI",44.2258333,-87.8022222
"Kelly, WI",44.9133333,-89.5625000
"Kelly Brook, WI",44.9602778,-88.2158333
"Kempster, WI",45.2897222,-89.1666667
"Kendall, WI",43.7922222,-90.3683333
"Kennan, WI",45.5313889,-90.5869444
"Kennedy, WI",45.9102778,-90.6572222
"Kenosha, WI",42.5847222,-87.8211111
"Keowns, WI",43.3686111,-88.1361111
"Keshena, WI",44.8838889,-88.6336111
"Keshena Falls, WI",44.8933333,-88.6538889
"Kewaskum, WI",43.5208333,-88.2288889
"Kewaunee, WI",44.4583333,-87.5030556
"Keyeser, WI",43.2966667,-89.2558333
"Keyesville, WI",43.3397222,-90.2186111
"Kiel, WI",43.9125000,-88.0355556
"Kieler, WI",42.5813889,-90.6025000
"Kilbournville, WI",42.8077778,-87.9522222
"Kimball, WI",46.4819444,-90.3058333
"Kimberly, WI",44.2722222,-88.3388889
"King, WI",44.3375000,-89.1416667
"Kingsbridge, WI",44.2113889,-87.6811111
"Kingsley Corners, WI",43.1772222,-89.4963889
"Kingston, WI",43.6955556,-89.1275000
"Kirby, WI",44.0905556,-90.5391667
"Kirchhayn, WI",43.2941667,-88.0950000
"Klevenville, WI",43.0244444,-89.6677778
"Klondike, WI",42.5900000,-88.1194444
"Kloten, WI",44.0352778,-88.2658333
"Knapp, WI",44.9552778,-92.0752778
"Kneeland, WI",42.8266667,-88.0083333
"Knellsville, WI",43.4141667,-87.8708333
"Knowles, WI",43.5727778,-88.5041667
"Knowlton, WI",44.7163889,-89.6825000
"Kodan, WI",44.6611111,-87.4977778
"Koepenick, WI",45.3366667,-89.1666667
"Kohler, WI",43.7391667,-87.7816667
"Kohlsville, WI",43.4711111,-88.3219444
"Kolb, WI",44.4227778,-87.9630556
"Kolberg, WI",44.7191667,-87.5488889
"Koro, WI",43.9680556,-88.8444444
"Koshkonong, WI",42.8461111,-88.9191667
"Koshkonong Manor, WI",42.9013889,-88.9600000
"Koshkonong Mounds, WI",42.8741667,-88.9119444
"Krakow, WI",44.7616667,-88.2513889
"Kremlin, WI",45.6508333,-87.8447222
"Kroghville, WI",43.0616667,-89.0080556
"Krok, WI",44.4288889,-87.6330556
"Kunesh, WI",44.6155556,-88.1902778
"La Crosse, WI",43.8013889,-91.2394444
"La Farge, WI",43.5747222,-90.6402778
"La Grange, WI",42.7997222,-88.6022222
"La Pointe, WI",46.7791667,-90.7863889
"La Valle, WI",43.5822222,-90.1280556
"LaRue, WI",43.4361111,-89.8894444
"Lac La Belle, WI",43.1441667,-88.5305556
"Lac du Flambeau, WI",45.9697222,-89.8919444
"Ladoga, WI",43.7200000,-88.6741667
"Ladysmith, WI",45.4630556,-91.1038889
"Lake Beulah, WI",42.8213889,-88.3208333
"Lake Church, WI",43.4997222,-87.8205556
"Lake Como, WI",42.5902778,-88.5019444
"Lake Delton, WI",43.6011111,-89.7936111
"Lake Five, WI",43.1925000,-88.2708333
"Lake Geneva, WI",42.5916667,-88.4333333
"Lake Hallie, WI",44.8758333,-91.4405556
"Lake Koshkonong, WI",42.9097222,-88.9194444
"Lake Lac La Belle, WI",43.1308333,-88.5444444
"Lake Lawn, WI",42.6258333,-88.5941667
"Lake Mills, WI",43.0813889,-88.9116667
"Lake Nebagamon, WI",46.5150000,-91.6997222
"Lake Owen, WI",46.2680556,-91.2583333
"Lake Ripley, WI",43.0058333,-88.9861111
"Lake Shangrila, WI",42.5052778,-88.0705556
"Lake Tomahawk, WI",45.8141667,-89.5936111
"Lake Waubesa, WI",43.0255556,-89.3052778
"Lake Wazeecha, WI",44.3711111,-89.7563889
"Lake Windsor, WI",43.2041667,-89.3477778
"Lake Wisconsin, WI",43.3736111,-89.5755556
"Lake Wissota, WI",44.9263889,-91.3008333
"Lakefield, WI",43.2950000,-87.9255556
"Lakeport, WI",44.4486111,-92.1797222
"Lakeview, WI",42.9752778,-89.3719444
"Lakewood, WI",45.3008333,-88.5233333
"Lakewood Estates, WI",43.7886111,-89.0141667
"Lamar, WI",45.4258333,-92.5700000
"Lamartine, WI",43.7333333,-88.5686111
"Lamont, WI",42.7047222,-89.9852778
"Lampson, WI",45.9830556,-91.8161111
"Lancaster, WI",42.8475000,-90.7105556
"Lancaster Junction, WI",42.9769444,-90.6138889
"Land O' Lakes, WI",46.1613889,-89.2186111
"Landstad, WI",44.6605556,-88.4436111
"Laneville, WI",44.6230556,-91.9566667
"Laney, WI",44.6444444,-88.2891667
"Langes Corners, WI",44.3855556,-87.8608333
"Langlade, WI",45.1900000,-88.7322222
"Lannon, WI",43.1461111,-88.1661111
"Laona, WI",45.5647222,-88.6738889
"Laona Junction, WI",45.6561111,-88.6938889
"Lapham Junction, WI",44.2975000,-90.4780556
"Lark, WI",44.3141667,-87.9497222
"Larrabee, WI",44.2680556,-87.7150000
"Larsen, WI",44.1916667,-88.6238889
"Lasleys Point, WI",44.1269444,-88.7063889
"Lauderdale, WI",42.7652778,-88.5555556
"Laudolff Beach, WI",43.8777778,-88.3572222
"Lawrence, WI",43.8836111,-89.5444444
"Lawton, WI",44.7758333,-92.4155556
"LeRoy, WI",43.5736111,-88.5605556
"Lead Mine, WI",42.5708333,-90.3452778
"Lebanon, WI",43.2552778,-88.6266667
"Leeds, WI",43.3105556,-89.3244444
"Leeman, WI",44.5741667,-88.5563889
"Lehigh, WI",45.4411111,-91.5508333
"Leipsig, WI",43.4008333,-88.8641667
"Leland, WI",43.3355556,-89.9475000
"Lemington, WI",45.7591667,-91.3527778
"Lemonweir, WI",43.7844444,-90.0169444
"Lena, WI",44.9511111,-88.0466667
"Lennox, WI",45.5119444,-89.0716667
"Leon, WI",43.8775000,-90.8300000
"Leonards, WI",46.1697222,-91.3211111
"Leonards Point, WI",44.0466667,-88.6225000
"Leopolis, WI",44.7680556,-88.8447222
"Leslie, WI",42.7705556,-90.3663889
"Levis, WI",44.5386111,-91.1044444
"Lewis, WI",45.7108333,-92.4022222
"Lewiston, WI",43.5805556,-89.6355556
"Leyden, WI",42.7308333,-89.1288889
"Liberty, WI",43.5163889,-90.7338889
"Liberty Corners, WI",42.5208333,-88.0991667
"Liberty Pole, WI",43.4900000,-90.9086111
"Lily, WI",45.3069444,-88.8538889
"Lima, WI",44.6338889,-91.8727778
"Lima Center, WI",42.7894444,-88.8272222
"Lime Ridge, WI",43.4677778,-90.1547222
"Lincoln, WI",44.6180556,-87.6419444
"Lind, WI",45.7400000,-92.7952778
"Linden, WI",42.9177778,-90.2733333
"Linden Beach, WI",43.8541667,-88.3733333
"Lindina, WI",43.7600000,-90.1469444
"Lindsey, WI",44.5558333,-90.3000000
"Linton, WI",42.5344444,-88.5016667
"Little Black, WI",45.1061111,-90.3294444
"Little Chicago, WI",45.0472222,-89.8441667
"Little Chute, WI",44.2800000,-88.3183333
"Little Eau Claire, WI",44.7863889,-89.4475000
"Little Falls, WI",45.2738889,-92.4186111
"Little Hope, WI",44.3183333,-89.1088889
"Little Norway, WI",43.0269444,-89.7894444
"Little Point, WI",43.9188889,-88.4686111
"Little Prairie, WI",42.8388889,-88.5388889
"Little Rapids, WI",44.3802778,-88.1272222
"Little Rose, WI",44.8008333,-90.1702778
"Little Round Lake, WI",45.9650000,-91.3677778
"Little Sturgeon, WI",44.8388889,-87.5625000
"Little Suamico, WI",44.7175000,-88.0091667
"Little Waupon, WI",44.5938889,-89.3944444
"Livingston, WI",42.9000000,-90.4308333
"Loddes Mill, WI",43.2638889,-89.8005556
"Lodi, WI",43.3138889,-89.5263889
"Logan, WI",45.0866667,-88.3997222
"Loganville, WI",43.4402778,-90.0358333
"Lohrville, WI",44.0372222,-89.1169444
"Lombard, WI",44.9591667,-90.7391667
"Lomira, WI",43.5913889,-88.4436111
"London, WI",43.0477778,-89.0127778
"Lone Rock, WI",43.1833333,-90.1977778
"Long Lake, WI",45.8427778,-88.6677778
"Longwood, WI",44.8869444,-90.5980556
"Lookout, WI",44.4583333,-91.5791667
"Loomis, WI",45.1925000,-87.8991667
"Loreta, WI",43.3455556,-90.1072222
"Loretta, WI",45.8855556,-90.8527778
"Lorimar Estates, WI",42.7113889,-88.1272222
"Lost Lake, WI",43.4588889,-88.9888889
"Louis Corners, WI",43.9352778,-87.9519444
"Louisburg, WI",42.5791667,-90.5555556
"Lowell, WI",43.3402778,-88.8169444
"Lowville, WI",43.3825000,-89.3269444
"Loyal, WI",44.7369444,-90.4958333
"Loyd, WI",43.4230556,-90.2427778
"Lublin, WI",45.0772222,-90.7244444
"Luck, WI",45.5761111,-92.4825000
"Luco, WI",43.8013889,-88.4191667
"Ludington, WI",44.8291667,-91.1272222
"Lufkin, WI",44.7511111,-91.6105556
"Lugerville, WI",45.7755556,-90.5061111
"Lund, WI",44.5397222,-92.2058333
"Lunds, WI",44.6994444,-88.5452778
"Lutheran Hill, WI",43.2083333,-89.6005556
"Luxemburg, WI",44.5386111,-87.7038889
"Lykens, WI",45.4244444,-92.4688889
"Lymantown, WI",45.9341667,-90.4525000
"Lyndhurst, WI",44.8419444,-88.8125000
"Lyndon Dale, WI",43.5772222,-88.9305556
"Lyndon Station, WI",43.7122222,-89.8994444
"Lynn, WI",44.5825000,-90.4097222
"Lynxville, WI",43.2463889,-91.0561111
"Lyons, WI",42.6511111,-88.3583333
"Mackville, WI",44.3436111,-88.4150000
"Madge, WI",45.7458333,-91.7236111
"Madison, WI",43.0730556,-89.4011111
"Madsen, WI",44.0811111,-87.8219444
"Magnolia, WI",42.7158333,-89.2886111
"Maiden Rock, WI",44.5608333,-92.3094444
"Mallwood, WI",42.8366667,-89.0041667
"Malone, WI",43.8602778,-88.2813889
"Malvern, WI",45.6077778,-89.2850000
"Manawa, WI",44.4644444,-88.9197222
"Manchester, WI",43.6905556,-89.0483333
"Manitowish, WI",46.1330556,-90.0133333
"Manitowish Waters, WI",46.1350000,-89.8875000
"Manitowoc, WI",44.0886111,-87.6575000
"Manitowoc Rapids, WI",44.0991667,-87.7008333
"Mann, WI",44.7002778,-90.2169444
"Maple, WI",46.5897222,-91.7205556
"Maple Beach, WI",42.8419444,-89.0036111
"Maple Bluff, WI",43.1183333,-89.3794444
"Maple Grove, WI",43.7494444,-91.1986111
"Maple Heights, WI",43.9563889,-88.3175000
"Maple Hill, WI",45.0169444,-90.9836111
"Maplehurst, WI",45.0608333,-90.6386111
"Mapleton, WI",43.1788889,-88.4600000
"Maplewood, WI",44.7475000,-87.4791667
"Marathon, WI",44.9291667,-89.8402778
"Marblehead, WI",43.7041667,-88.3836111
"Marcellon, WI",43.5686111,-89.2655556
"March Rapids, WI",44.8444444,-90.1500000
"Marcy, WI",43.1075000,-88.1327778
"Marengo, WI",46.4225000,-90.8166667
"Maribel, WI",44.2763889,-87.8072222
"Marinette, WI",45.1000000,-87.6305556
"Marion, WI",44.6708333,-88.8891667
"Markesan, WI",43.7072222,-88.9900000
"Markton, WI",45.1219444,-88.6647222
"Marlands, WI",45.9561111,-89.8161111
"Marquette, WI",43.7475000,-89.1386111
"Marshall, WI",43.1683333,-89.0666667
"Marshfield, WI",44.6688889,-90.1716667
"Marshland, WI",44.0736111,-91.5547222
"Martell, WI",44.8297222,-92.3975000
"Martinsville, WI",43.1802778,-89.5900000
"Martintown, WI",42.5083333,-89.8005556
"Marxville, WI",43.1911111,-89.6597222
"Marytown, WI",43.9136111,-88.2022222
"Mason, WI",46.4352778,-91.0597222
"Mather, WI",44.1427778,-90.3086111
"Mattoon, WI",45.0041667,-89.0419444
"Mauston, WI",43.7972222,-90.0772222
"Maxville, WI",44.5316667,-92.0086111
"May Corner, WI",45.0491667,-87.8505556
"Mayfield, WI",43.3291667,-88.1966667
"Mayville, WI",43.4941667,-88.5447222
"Mazomanie, WI",43.1766667,-89.7947222
"McAllister, WI",45.3272222,-87.7211111
"McCartney, WI",42.6833333,-90.8508333
"McCord, WI",45.5552778,-89.8994444
"McFarland, WI",43.0125000,-89.2897222
"McKinley, WI",45.5713889,-92.1763889
"McMillan, WI",44.7422222,-90.1633333
"McNaughton, WI",45.7325000,-89.5441667
"Meadow Valley, WI",44.2152778,-90.2211111
"Mecan, WI",43.7961111,-89.2150000
"Medary, WI",43.8552778,-91.2094444
"Medford, WI",45.1386111,-90.3400000
"Medina, WI",44.2727778,-88.6377778
"Medina Junction, WI",44.2330556,-88.6216667
"Meehan, WI",44.4361111,-89.6472222
"Meeker, WI",43.2216667,-88.1730556
"Meekers Grove, WI",42.6455556,-90.3694444
"Meeme, WI",43.9205556,-87.8313889
"Meggers, WI",43.9722222,-88.0413889
"Mellen, WI",46.3255556,-90.6608333
"Melnik, WI",44.2475000,-87.7458333
"Melrose, WI",44.1305556,-90.9980556
"Melrose Park, WI",44.0327778,-88.5947222
"Melvina, WI",43.8055556,-90.7719444
"Menasha, WI",44.2022222,-88.4463889
"Menchalville, WI",44.2258333,-87.8822222
"Mendota Beach, WI",43.0863889,-89.4750000
"Menomonee Falls, WI",43.1788889,-88.1172222
"Menomonie, WI",44.8755556,-91.9191667
"Menomonie Junction, WI",44.9141667,-91.9247222
"Mequon, WI",43.2363889,-87.9844444
"Mercer, WI",46.1655556,-90.0625000
"Meridean, WI",44.7380556,-91.7908333
"Merrill, WI",45.1805556,-89.6833333
"Merrillan, WI",44.4511111,-90.8411111
"Merrimac, WI",43.3733333,-89.6233333
"Merton, WI",43.1466667,-88.3066667
"Meteor, WI",45.6894444,-91.3647222
"Metz, WI",44.2136111,-88.8863889
"Middle Inlet, WI",45.2916667,-87.9922222
"Middle Ridge, WI",43.8008333,-90.9466667
"Middle Village, WI",44.9338889,-88.7394444
"Middleport, WI",46.7711111,-90.7819444
"Middleton, WI",43.0972222,-89.5041667
"Middleton Junction, WI",43.0602778,-89.5277778
"Midway, WI",43.9291667,-91.2577778
"Mifflin, WI",42.8711111,-90.3538889
"Mikana, WI",45.5919444,-91.6011111
"Milan, WI",44.9811111,-90.1794444
"Miles, WI",45.2272222,-87.7288889
"Milford, WI",43.1008333,-88.8466667
"Mill Center, WI",44.5880556,-88.1605556
"Mill Creek Community, WI",44.5402778,-89.6775000
"Milladore, WI",44.6041667,-89.8547222
"Millard, WI",42.7344444,-88.6213889
"Millhome, WI",43.8950000,-87.9622222
"Millston, WI",44.1930556,-90.6475000
"Milltown, WI",45.5261111,-92.5083333
"Millville, WI",43.0333333,-90.9300000
"Milton, WI",42.7755556,-88.9438889
"Milton Junction, WI",42.7825000,-88.9627778
"Milwaukee, WI",43.0388889,-87.9063889
"Minawa Beach, WI",43.8463889,-88.3813889
"Mindoro, WI",44.0211111,-91.1016667
"Mineral Point, WI",42.8600000,-90.1797222
"Minersville, WI",46.4069444,-90.7972222
"Minnesota Junction, WI",43.4525000,-88.6969444
"Minocqua, WI",45.8713889,-89.7108333
"Minong, WI",46.0994444,-91.8247222
"Misha Mokwa, WI",44.4972222,-92.0102778
"Mishicot, WI",44.2391667,-87.6411111
"Modena, WI",44.4575000,-91.7963889
"Moeville, WI",44.6886111,-92.5272222
"Mole Lake, WI",45.4797222,-88.9830556
"Monches, WI",43.1911111,-88.3436111
"Mondovi, WI",44.5677778,-91.6708333
"Monico, WI",45.5763889,-89.1550000
"Monona, WI",43.0622222,-89.3338889
"Monroe, WI",42.6011111,-89.6383333
"Monroe Center, WI",44.1119444,-89.9394444
"Montana, WI",44.3413889,-91.6647222
"Montello, WI",43.7913889,-89.3197222
"Monterey, WI",43.1711111,-88.4994444
"Montfort, WI",42.9716667,-90.4330556
"Montgomeryville, WI",43.3563889,-90.7397222
"Monticello, WI",42.7455556,-89.5947222
"Montreal, WI",46.4280556,-90.2458333
"Montrose, WI",42.8827778,-89.5772222
"Moon, WI",44.7716667,-89.7877778
"Moon Valley, WI",43.3702778,-89.6725000
"Moose Junction, WI",46.2875000,-92.1547222
"Moquah, WI",46.5705556,-91.0830556
"Morgan, WI",44.7938889,-88.1900000
"Morrison, WI",44.2991667,-87.9888889
"Morrisonville, WI",43.2772222,-89.3594444
"Morse, WI",46.2222222,-90.6275000
"Morton Corner, WI",44.7905556,-92.4719444
"Moscow, WI",42.8333333,-89.8550000
"Mosel, WI",43.8055556,-87.7402778
"Mosinee, WI",44.7930556,-89.7030556
"Mosling, WI",44.8688889,-88.3694444
"Mount Calvary, WI",43.8263889,-88.2461111
"Mount Hope, WI",42.9672222,-90.8588889
"Mount Hope Corners, WI",44.7344444,-91.5686111
"Mount Horeb, WI",43.0086111,-89.7383333
"Mount Ida, WI",42.9719444,-90.7608333
"Mount Morris, WI",44.1144444,-89.1905556
"Mount Sterling, WI",43.3152778,-90.9286111
"Mount Tabor, WI",43.7005556,-90.4541667
"Mount Vernon, WI",42.9469444,-89.6558333
"Mount View, WI",44.9516667,-89.7266667
"Mount Zion, WI",43.2566667,-90.7336111
"Mountain, WI",45.1847222,-88.4736111
"Mukwonago, WI",42.8666667,-88.3333333
"Murat, WI",45.1894444,-90.4455556
"Murphy Corner, WI",44.3863889,-88.3347222
"Murry, WI",45.6005556,-91.2005556
"Muscoda, WI",43.1850000,-90.4430556
"Muskeg, WI",46.5705556,-91.4905556
"Muskego, WI",42.9058333,-88.1388889
"Myra, WI",43.4158333,-88.0955556
"Nabob, WI",43.4202778,-88.2708333
"Namekagon, WI",46.2127778,-91.0452778
"Namur, WI",44.7347222,-87.6700000
"Nasbro, WI",43.5947222,-88.5047222
"Nashotah, WI",43.0977778,-88.4022222
"Nashville, WI",45.5227778,-89.0247222
"Nasonville, WI",44.5988889,-90.2583333
"Naugart, WI",45.0761111,-89.7883333
"Navarino, WI",44.6111111,-88.4919444
"Necedah, WI",44.0261111,-90.0738889
"Neda, WI",43.4213889,-88.5375000
"Neenah, WI",44.1858333,-88.4625000
"Neillsville, WI",44.5600000,-90.5961111
"Nekoosa, WI",44.3125000,-89.9041667
"Nekoosa Junction, WI",44.3377778,-89.8891667
"Nelma, WI",46.0197222,-88.8177778
"Nelson, WI",44.4202778,-92.0080556
"Nelsonville, WI",44.4950000,-89.3097222
"Nenno, WI",43.4461111,-88.3913889
"Neopit, WI",44.9808333,-88.8308333
"Neosho, WI",43.3102778,-88.5180556
"Neptune, WI",43.3730556,-90.2672222
"Nerike, WI",44.5505556,-92.1655556
"Neshkoro, WI",43.9658333,-89.2175000
"Neuern, WI",44.5019444,-87.7247222
"Neva, WI",45.2394444,-89.1130556
"Neva Corners, WI",45.2200000,-89.1444444
"Nevins, WI",44.4963889,-90.3650000
"New Amsterdam, WI",43.9827778,-91.3163889
"New Auburn, WI",45.2041667,-91.5580556
"New Berlin, WI",42.9763889,-88.1083333
"New Diggings, WI",42.5352778,-90.3352778
"New Fane, WI",43.5550000,-88.1858333
"New Franken, WI",44.5308333,-87.8258333
"New Glarus, WI",42.8144444,-89.6350000
"New Holstein, WI",43.9500000,-88.0841667
"New Hope, WI",44.5036111,-89.2636111
"New Lisbon, WI",43.8791667,-90.1652778
"New London, WI",44.3927778,-88.7397222
"New Miner, WI",44.1697222,-90.0361111
"New Munster, WI",42.5794444,-88.2277778
"New Paris, WI",43.7330556,-87.9719444
"New Post, WI",45.8958333,-91.1858333
"New Prospect, WI",43.6158333,-88.1786111
"New Richmond, WI",45.1230556,-92.5363889
"New Rome, WI",44.2194444,-89.8808333
"Newald, WI",45.7386111,-88.7052778
"Newark, WI",42.5422222,-89.2275000
"Newbold, WI",45.6980556,-89.5100000
"Newburg, WI",43.4316667,-88.0463889
"Newry, WI",43.7116667,-90.8172222
"Newton, WI",43.9938889,-87.7263889
"Newtonburg, WI",44.0516667,-87.7616667
"Newville, WI",42.8288889,-89.0213889
"Niagara, WI",45.7713889,-87.9947222
"Nichols, WI",44.5630556,-88.4633333
"Nichols Shore Acres, WI",44.0972222,-88.6397222
"Nicholson, WI",44.5319444,-88.8186111
"Nix Corner, WI",44.6466667,-91.3469444
"Nobleton, WI",45.6791667,-91.7025000
"Nora, WI",43.0308333,-89.1500000
"Norma, WI",44.9516667,-91.3694444
"Norman, WI",44.3708333,-87.6033333
"Norrie, WI",44.8855556,-89.2541667
"Norske, WI",44.6525000,-89.2083333
"North Andover, WI",42.8155556,-90.9658333
"North Bay, WI",45.1461111,-87.0827778
"North Bend, WI",44.0913889,-91.1166667
"North Bloomfield, WI",42.5744444,-88.3550000
"North Branch, WI",44.4475000,-90.9988889
"North Bristol, WI",43.2666667,-89.2122222
"North Cape, WI",42.7786111,-88.0708333
"North Clayton, WI",43.3808333,-90.7094444
"North Creek, WI",44.2708333,-91.4319444
"North Fond du Lac, WI",43.8113889,-88.4833333
"North Freedom, WI",43.4597222,-89.8683333
"North Grimms, WI",44.1533333,-87.9022222
"North Hudson, WI",44.9930556,-92.7566667
"North La Crosse, WI",43.8463889,-91.2480556
"North Lake, WI",43.1561111,-88.3705556
"North Leeds, WI",43.3319444,-89.3252778
"North Lowell, WI",43.3702778,-88.7961111
"North Menomonie, WI",44.8977778,-91.9316667
"North Prairie, WI",42.9344444,-88.4052778
"North Readfield, WI",44.2866667,-88.7694444
"North Red Wing, WI",44.5772222,-92.5475000
"North Shore, WI",42.9111111,-88.9202778
"North Star, WI",44.6175000,-89.4225000
"North Tomah, WI",44.0116667,-90.5150000
"North York, WI",46.3927778,-90.7775000
"Northeim, WI",43.9941667,-87.6986111
"Northfield, WI",44.4591667,-91.0994444
"Northland, WI",44.5950000,-89.2077778
"Northline, WI",44.9891667,-92.7150000
"Northport, WI",45.2919444,-86.9800000
"Northwoods Beach, WI",45.9141667,-91.4033333
"Norton, WI",45.0163889,-91.8341667
"Norwalk, WI",43.8305556,-90.6213889
"Norway Grove, WI",43.2486111,-89.4025000
"Norway Ridge, WI",44.1247222,-90.3291667
"Nutterville, WI",45.0038889,-89.5272222
"Nye, WI",45.3144444,-92.5802778
"Oak Center, WI",43.6608333,-88.6000000
"Oak Creek, WI",42.8858333,-87.8630556
"Oak Grove, WI",43.3861111,-88.7455556
"Oak Hall, WI",42.9505556,-89.4369444
"Oak Hill, WI",42.9358333,-88.5866667
"Oak Knoll, WI",42.9427778,-89.2186111
"Oak Orchard, WI",44.7813889,-87.9258333
"Oakdale, WI",43.9597222,-90.3816667
"Oakfield, WI",43.6861111,-88.5463889
"Oakland, WI",45.9375000,-92.3686111
"Oakland Heights, WI",43.0661111,-89.4119444
"Oakley, WI",42.5269444,-89.4677778
"Oakridge, WI",44.5883333,-92.3952778
"Oakwood, WI",42.8580556,-87.9244444
"Oconomowoc, WI",43.1116667,-88.4991667
"Oconomowoc Lake, WI",43.1044444,-88.4591667
"Oconto, WI",44.8872222,-87.8644444
"Oconto Falls, WI",44.8738889,-88.1427778
"Odanah, WI",46.6083333,-90.6966667
"Ogdensburg, WI",44.4519444,-89.0316667
"Ogema, WI",45.4436111,-90.2980556
"Oil City, WI",43.7505556,-90.5866667
"Ojibwa, WI",45.7980556,-91.1166667
"Okauchee, WI",43.1136111,-88.4358333
"Okauchee Lake, WI",43.1233333,-88.4405556
"Okee, WI",43.3577778,-89.5800000
"Old Albertville, WI",44.9366667,-91.6000000
"Old Ashippun, WI",43.2247222,-88.5197222
"Old Deerfield, WI",43.0830556,-89.0755556
"Old Fort, WI",46.7547222,-90.7822222
"Old Lebanon, WI",43.2261111,-88.6302778
"Oliver, WI",46.6575000,-92.1950000
"Olivet, WI",44.7863889,-92.2569444
"Omro, WI",44.0394444,-88.7441667
"Onalaska, WI",43.8844444,-91.2350000
"Oneida, WI",44.4986111,-88.1827778
"Ono, WI",44.6555556,-92.2561111
"Ontario, WI",43.7258333,-90.5913889
"Oostburg, WI",43.6227778,-87.7944444
"Orange Mill, WI",43.9016667,-90.2322222
"Orchard Grove, WI",43.4983333,-88.1408333
"Oregon, WI",42.9261111,-89.3844444
"Orfordville, WI",42.6275000,-89.2530556
"Orihula, WI",44.2091667,-88.8327778
"Orion, WI",43.2030556,-90.4277778
"Ormsby, WI",45.2561111,-89.2525000
"Orva, WI",46.4519444,-90.2313889
"Osceola, WI",45.3205556,-92.7047222
"Oshkosh, WI",44.0247222,-88.5425000
"Osman, WI",43.9686111,-87.8208333
"Osseo, WI",44.5722222,-91.2272222
"Ostrander, WI",44.3927778,-88.8377778
"Otis, WI",45.2688889,-89.6933333
"Otsego, WI",43.4022222,-89.1661111
"Ottawa, WI",42.9761111,-88.4497222
"Ottman Corners, WI",44.7033333,-92.5169444
"Oulu, WI",46.6330556,-91.5316667
"Ourtown, WI",43.6972222,-87.8211111
"Owen, WI",44.9486111,-90.5641667
"Oxbo, WI",45.8627778,-90.7041667
"Oxford, WI",43.7813889,-89.5725000
"Packard, WI",45.3547222,-87.6941667
"Packwaukee, WI",43.7633333,-89.4583333
"Paddock Lake, WI",42.5775000,-88.1050000
"Padus, WI",45.4930556,-88.6641667
"Palmer, WI",44.9055556,-92.3947222
"Palmyra, WI",42.8777778,-88.5861111
"Paoli, WI",42.9294444,-89.5236111
"Pardeeville, WI",43.5377778,-89.3000000
"Parfreyville, WI",44.3127778,-89.1311111
"Paris, WI",42.6336111,-88.0513889
"Park Falls, WI",45.9344444,-90.4413889
"Park Place Homes, WI",46.7302778,-92.0955556
"Park Ridge, WI",44.5194444,-89.5458333
"Parkland, WI",46.6477778,-91.9975000
"Parrish, WI",45.4197222,-89.4025000
"Patch Grove, WI",42.9402778,-90.9719444
"Patzau, WI",46.4913889,-92.2205556
"Paukotuk, WI",43.9680556,-88.5208333
"Pearson, WI",45.3641667,-89.0163889
"Pebble Valley, WI",43.2258333,-89.2286111
"Peebles, WI",43.8163889,-88.3763889
"Peeksville, WI",46.0980556,-90.5300000
"Pelican Lake, WI",45.4994444,-89.1666667
"Pell Lake, WI",42.5380556,-88.3508333
"Pella, WI",44.7425000,-88.8033333
"Pembine, WI",45.6352778,-87.9908333
"Pence, WI",46.4152778,-90.2713889
"Pennington, WI",45.5319444,-90.3922222
"Pensaukee, WI",44.8230556,-87.9130556
"Pepin, WI",44.4411111,-92.1477778
"Peplin, WI",44.7861111,-89.6188889
"Perkinstown, WI",45.2041667,-90.6147222
"Peru, WI",44.5700000,-89.2433333
"Peshtigo, WI",45.0544444,-87.7491667
"Petersburg, WI",43.2722222,-90.8375000
"Petes Landing, WI",46.0497222,-90.3272222
"Petty Acres, WI",42.9461111,-89.2188889
"Pewaukee, WI",43.0805556,-88.2611111
"Pewaukee West, WI",43.0747222,-88.3308333
"Peyton, WI",46.6502778,-92.0211111
"Pheasant Branch, WI",43.1041667,-89.4838889
"Phelps, WI",46.0644444,-89.0875000
"Phillips, WI",45.6966667,-90.4002778
"Phipps, WI",46.0627778,-91.4133333
"Phlox, WI",45.0511111,-89.0141667
"Piacenza, WI",44.1463889,-88.7072222
"Pickerel, WI",45.3594444,-88.9108333
"Pickett, WI",43.9113889,-88.7297222
"Pierceville, WI",43.1358333,-89.1530556
"Pigeon Falls, WI",44.4263889,-91.2102778
"Pike Lake, WI",44.8216667,-89.3516667
"Pike River, WI",46.4600000,-91.2397222
"Pikeville, WI",42.4961111,-88.0244444
"Pilsen, WI",44.4436111,-87.7250000
"Pine Bluff, WI",43.0608333,-89.6555556
"Pine Creek, WI",44.1344444,-91.5266667
"Pine Grove, WI",44.4163889,-87.8886111
"Pine Knob, WI",43.4019444,-90.8375000
"Pine Lake, WI",46.2561111,-90.1405556
"Pine River, WI",44.1522222,-89.0769444
"Pinehurst, WI",44.8583333,-91.4625000
"Pipe, WI",43.9141667,-88.3125000
"Pipersville, WI",43.1422222,-88.6500000
"Pittsfield, WI",44.5994444,-88.2450000
"Pittsville, WI",44.4391667,-90.1244444
"Plain, WI",43.2788889,-90.0436111
"Plainfield, WI",44.2138889,-89.4922222
"Plainville, WI",43.7088889,-89.8125000
"Plat, WI",43.2077778,-88.2808333
"Platteville, WI",42.7341667,-90.4783333
"Pleasant Point, WI",43.8372222,-88.9361111
"Pleasant Prairie, WI",42.5530556,-87.9333333
"Pleasant Ridge, WI",43.0547222,-90.0733333
"Pleasant Valley, WI",43.7211111,-91.1733333
"Pleasantville, WI",44.4536111,-91.3047222
"Plover, WI",44.4563889,-89.5438889
"Plugtown, WI",43.2225000,-90.7483333
"Plum City, WI",44.6291667,-92.1922222
"Plummer Point, WI",44.0875000,-88.6291667
"Plymouth, WI",43.7486111,-87.9769444
"Point Comfort, WI",43.9336111,-88.4738889
"Pokegama, WI",46.6469444,-92.1461111
"Poland, WI",44.4436111,-87.8261111
"Polar, WI",45.1686111,-88.9900000
"Pole Cat Crossing, WI",45.6419444,-92.5288889
"Polley, WI",45.1411111,-90.8069444
"Polonia, WI",44.5700000,-89.4130556
"Poniatowski, WI",44.9950000,-89.9933333
"Poplar, WI",46.5838889,-91.7988889
"Popple River, WI",45.7913889,-88.6850000
"Porcupine, WI",44.5838889,-92.0955556
"Port Andrew, WI",43.2072222,-90.5672222
"Port Arthur, WI",45.4291667,-91.1619444
"Port Edwards, WI",44.3508333,-89.8652778
"Port Washington, WI",43.3872222,-87.8755556
"Port Wing, WI",46.7747222,-91.3863889
"Portage, WI",43.5391667,-89.4625000
"Porterfield, WI",45.1544444,-87.7944444
"Porters, WI",42.5286111,-88.9591667
"Portland, WI",43.1988889,-88.9747222
"Poskin, WI",45.4091667,-91.9613889
"Post Lake, WI",45.4408333,-89.0802778
"Postville, WI",42.7991667,-89.7527778
"Potosi, WI",42.6894444,-90.7119444
"Potter, WI",44.1205556,-88.0991667
"Potter Lake, WI",42.8216667,-88.3488889
"Pound, WI",45.0941667,-88.0338889
"Powell, WI",46.0886111,-89.9583333
"Powers Lake, WI",42.5536111,-88.2944444
"Poy Sippi, WI",44.1372222,-88.9952778
"Poynette, WI",43.3902778,-89.4027778
"Poysippi, WI",44.1000000,-89.9000000
"Praag, WI",44.3780556,-91.7505556
"Prairie Corners, WI",42.5358333,-90.5333333
"Prairie Farm, WI",45.2372222,-91.9813889
"Prairie View Heights, WI",43.2175000,-89.2130556
"Prairie du Chien, WI",43.0516667,-91.1411111
"Prairie du Sac, WI",43.2869444,-89.7238889
"Pratt Junction, WI",45.4825000,-89.1644444
"Pray, WI",44.3733333,-90.4972222
"Preble, WI",44.4975000,-87.9697222
"Prentice, WI",45.5461111,-90.2863889
"Prescott, WI",44.7488889,-92.8019444
"Presque Isle, WI",46.2472222,-89.7291667
"Preston, WI",42.9750000,-90.5469444
"Price, WI",44.5816667,-91.0544444
"Primrose, WI",42.9013889,-89.6622222
"Princeton, WI",43.8508333,-89.1216667
"Prospect, WI",42.9444444,-88.1588889
"Pucketville, WI",44.5694444,-92.5391667
"Pukwana Beach, WI",43.9277778,-88.3169444
"Pulaski, WI",44.6722222,-88.2425000
"Pulcifer, WI",44.8441667,-88.3600000
"Pulp, WI",45.8730556,-88.1055556
"Purdy, WI",43.5169444,-91.0480556
"Pureair, WI",46.7902778,-90.8472222
"Queenstown, WI",45.3519444,-90.2880556
"Quinney, WI",44.0144444,-88.3072222
"Racine, WI",42.7261111,-87.7827778
"Radisson, WI",45.7688889,-91.2211111
"Radspur, WI",46.1786111,-91.3166667
"Rainbow Beach, WI",44.1566667,-88.4450000
"Raintree, WI",43.1966667,-89.2877778
"Randall, WI",45.6958333,-92.8350000
"Randolph, WI",43.5391667,-89.0066667
"Random Lake, WI",43.5522222,-87.9616667
"Range, WI",45.3955556,-92.2844444
"Rangeline, WI",44.7436111,-89.9638889
"Rankin, WI",44.5961111,-87.5033333
"Rantz, WI",45.8316667,-89.7294444
"Raymond, WI",42.8008333,-88.0125000
"Raymore, WI",43.9975000,-90.6191667
"Readfield, WI",44.2725000,-88.7697222
"Readstown, WI",43.4494444,-90.7591667
"Red Banks, WI",44.6111111,-87.8630556
"Red Cedar, WI",44.6891667,-91.8841667
"Red Cliff, WI",46.8555556,-90.7877778
"Red Mound, WI",43.4725000,-91.1447222
"Red River, WI",44.8250000,-88.7044444
"Red Rock, WI",42.6425000,-90.0475000
"Redgranite, WI",44.0419444,-89.0983333
"Reed, WI",43.3761111,-91.0388889
"Reedsburg, WI",43.5325000,-90.0025000
"Reedsville, WI",44.1536111,-87.9566667
"Reeseville, WI",43.3050000,-88.8447222
"Reeve, WI",45.2386111,-92.1258333
"Regina, WI",44.8947222,-89.0216667
"Reich Mobile Home Park, WI",43.8125000,-88.9480556
"Reifs Mills, WI",44.1822222,-87.7991667
"Reighmoor, WI",44.0575000,-88.6736111
"Requa, WI",44.5866667,-91.1447222
"Reseburg, WI",44.9152778,-90.7600000
"Reserve, WI",45.8813889,-91.3863889
"Retreat, WI",43.4455556,-91.0805556
"Rewey, WI",42.8427778,-90.3952778
"Rhine, WI",43.8627778,-87.9566667
"Rhinelander, WI",45.6366667,-89.4119444
"Rib Falls, WI",44.9711111,-89.9036111
"Rib Lake, WI",45.3175000,-90.2083333
"Rib Mountain, WI",44.9127778,-89.6752778
"Rice Lake, WI",45.5061111,-91.7380556
"Richardson, WI",45.3191667,-92.1997222
"Richfield, WI",43.2561111,-88.1938889
"Richford, WI",44.0236111,-89.4352778
"Richland Center, WI",43.3347222,-90.3866667
"Richmond, WI",42.7147222,-88.7491667
"Richwood, WI",43.2413889,-88.7830556
"Ricker Bay, WI",44.1311111,-88.4705556
"Ridgeland, WI",45.2036111,-91.8952778
"Ridgetop, WI",45.9297222,-88.2700000
"Ridgeway, WI",43.0022222,-89.9902778
"Riley, WI",43.0233333,-89.6225000
"Ring, WI",43.9091667,-88.6402778
"Ringle, WI",44.8911111,-89.4255556
"Rio, WI",43.4477778,-89.2397222
"Rio Creek, WI",44.5891667,-87.5411111
"Riplinger, WI",44.8250000,-90.4030556
"Ripon, WI",43.8422222,-88.8358333
"Rising Sun, WI",43.4180556,-90.9580556
"River Falls, WI",44.8613889,-92.6236111
"River Hills, WI",43.1741667,-87.9241667
"Rivermoor, WI",44.0727778,-88.6861111
"Riverside, WI",46.0763889,-92.2475000
"Riverview, WI",46.6763889,-92.1850000
"Riverwood Estates, WI",42.9005556,-89.2150000
"Roberts, WI",44.9838889,-92.5558333
"Rochester, WI",42.7413889,-88.2241667
"Rock Elm, WI",44.7366667,-92.2163889
"Rock Falls, WI",44.7186111,-91.6897222
"Rock Springs, WI",43.4925000,-89.9188889
"Rockaway Beach, WI",44.0977778,-88.3269444
"Rockbridge, WI",43.4483333,-90.3638889
"Rockdale, WI",42.9719444,-89.0308333
"Rockfield, WI",43.2575000,-88.1261111
"Rockland, WI",43.9063889,-90.9191667
"Rockmont, WI",46.5858333,-91.9086111
"Rockton, WI",43.6411111,-90.6016667
"Rockville, WI",42.7272222,-90.6819444
"Rockwood, WI",44.1680556,-87.7055556
"Rocky Corners, WI",44.7141667,-89.6077778
"Rocky Run, WI",44.5444444,-89.6402778
"Rodell, WI",44.7200000,-91.1880556
"Rogersville, WI",43.7491667,-88.6322222
"Rolling Acres, WI",42.9002778,-89.2186111
"Rolling Ground, WI",43.3294444,-90.7402778
"Rolling Prairie, WI",43.4591667,-88.7341667
"Romance, WI",43.5522222,-91.1447222
"Rome, WI",42.9802778,-88.6311111
"Roosevelt, WI",45.6719444,-89.3147222
"Rose Lawn, WI",44.6013889,-88.3250000
"Rosecrans, WI",44.2766667,-87.8269444
"Rosendale, WI",43.8077778,-88.6747222
"Rosendale Center, WI",43.8516667,-88.7202778
"Rosewood, WI",42.6758333,-88.1686111
"Rosholt, WI",44.6277778,-89.3086111
"Rosiere, WI",44.6755556,-87.6119444
"Ross, WI",43.5411111,-90.7530556
"Ross Crossing, WI",42.8291667,-89.5522222
"Rostok, WI",44.5016667,-87.5013889
"Rothschild, WI",44.8872222,-89.6200000
"Rouse, WI",46.3563889,-90.4655556
"Rowleys Bay, WI",45.2197222,-87.0352778
"Roxbury, WI",43.2494444,-89.6752778
"Royalton, WI",44.4127778,-88.8627778
"Rozellville, WI",44.7433333,-90.0244444
"Rube, WI",44.0516667,-87.8013889
"Rubicon, WI",43.3402778,-88.4575000
"Ruby, WI",45.1772222,-90.9880556
"Rubys Corner, WI",45.1788889,-87.7397222
"Rudolph, WI",44.4961111,-89.8075000
"Rugby Junction, WI",43.2919444,-88.2186111
"Rural, WI",44.3130556,-89.1530556
"Rush Lake, WI",43.9238889,-88.8391667
"Rusk, WI",44.9077778,-91.8338889
"Russell, WI",44.4280556,-91.4783333
"Rutland, WI",42.8788889,-89.3500000
"Rutledge, WI",42.5547222,-90.6336111
"Ryans Corner, WI",44.5133333,-87.6077778
"Sabin, WI",43.4302778,-90.5686111
"Saint Anna, WI",43.8933333,-88.1213889
"Saint Anthony, WI",43.4425000,-88.3416667
"Saint Catherines Bay, WI",44.0833333,-88.3244444
"Saint Cloud, WI",43.8227778,-88.1669444
"Saint Croix Falls, WI",45.4100000,-92.6394444
"Saint Francis, WI",42.9675000,-87.8775000
"Saint Germain, WI",45.9016667,-89.4872222
"Saint John, WI",44.1688889,-88.2038889
"Saint Joseph, WI",43.7855556,-91.0416667
"Saint Kilian, WI",43.5430556,-88.3613889
"Saint Lawrence, WI",43.3697222,-88.3327778
"Saint Martins, WI",42.9022222,-88.0563889
"Saint Marys, WI",43.7980556,-90.6872222
"Saint Michaels, WI",43.5133333,-88.1605556
"Saint Nazianz, WI",44.0080556,-87.9222222
"Saint Peter, WI",43.8363889,-88.3413889
"Saint Rose, WI",42.6238889,-90.4344444
"Salem, WI",42.5547222,-88.1108333
"Salem Oaks, WI",42.5586111,-88.0922222
"Salmo, WI",46.7813889,-90.8650000
"Salona, WI",44.7455556,-87.3563889
"Sampson, WI",44.7650000,-88.1861111
"Sanborn, WI",46.4330556,-90.9086111
"Sand Bay, WI",46.9458333,-90.8908333
"Sand Creek, WI",45.1669444,-91.6861111
"Sand Lake, WI",45.3683333,-92.5583333
"Sand Prairie, WI",43.2052778,-90.6113889
"Sandstone Bluff, WI",43.8172222,-88.9669444
"Sandusky, WI",43.3952778,-90.1519444
"Sandy Hook, WI",42.5433333,-90.6100000
"Sarona, WI",45.7111111,-91.8063889
"Sauk City, WI",43.2708333,-89.7219444
"Sauk Trail Beach, WI",43.5286111,-87.7944444
"Saukville, WI",43.3816667,-87.9405556
"Saunders, WI",46.6386111,-92.1088889
"Sauntry, WI",46.3744444,-91.8225000
"Saxeville, WI",44.1761111,-89.1144444
"Saxon, WI",46.4933333,-90.4141667
"Saylesville, WI",43.3002778,-88.4391667
"Sayner, WI",45.9861111,-89.5325000
"Scandinavia, WI",44.4616667,-89.1491667
"Schey Acres, WI",43.1411111,-89.2041667
"Schmidt Corner, WI",44.6030556,-89.1225000
"Schnappsville, WI",44.9733333,-90.0250000
"Schneyville, WI",42.5169444,-89.6394444
"Schofield, WI",44.9097222,-89.6044444
"School Hill, WI",43.9500000,-87.8938889
"Schultz, WI",42.6900000,-89.6025000
"Scotts Junction, WI",43.9647222,-90.6691667
"Sechlerville, WI",44.3727778,-91.0308333
"Sedgwick, WI",46.4669444,-90.6052778
"Seeley, WI",46.1211111,-91.3611111
"Seminary Springs, WI",43.1086111,-89.2486111
"Seneca, WI",43.2650000,-90.9583333
"Sextonville, WI",43.2783333,-90.2908333
"Seymour, WI",44.5150000,-88.3302778
"Shady Dell, WI",42.9588889,-90.7911111
"Shamrock, WI",44.1741667,-90.8044444
"Shanagolden, WI",46.1175000,-90.6358333
"Shangri La Point, WI",44.0663889,-88.6075000
"Shantytown, WI",44.6877778,-89.4238889
"Sharon, WI",42.5025000,-88.7288889
"Shaw Landing, WI",44.3663889,-88.8091667
"Shawano, WI",44.7822222,-88.6088889
"Shawtown, WI",44.7950000,-91.5369444
"Sheboygan, WI",43.7508333,-87.7144444
"Sheboygan Falls, WI",43.7291667,-87.8105556
"Shelby, WI",43.7691667,-91.1608333
"Sheldon, WI",45.3105556,-90.9558333
"Shell Lake, WI",45.7394444,-91.9252778
"Shennington, WI",44.0258333,-90.3175000
"Shepley, WI",44.8622222,-89.1027778
"Sheppard, WI",44.2608333,-90.7805556
"Sheridan, WI",44.3958333,-89.1980556
"Sherry, WI",44.5841667,-89.9155556
"Sherry Junction, WI",45.2191667,-88.9877778
"Sherwood, WI",44.1736111,-88.2597222
"Sherwood Forest, WI",43.8316667,-88.9783333
"Sherwood Forest Heights, WI",43.2333333,-89.2383333
"Sherwood Glen, WI",43.1661111,-89.2916667
"Shiocton, WI",44.4447222,-88.5788889
"Shirley, WI",44.3569444,-87.9475000
"Shoemaker Point, WI",44.7205556,-87.7205556
"Shopiere, WI",42.5725000,-88.9383333
"Shorewood, WI",43.0891667,-87.8875000
"Shorewood Hills, WI",43.0775000,-89.4455556
"Shortville, WI",44.4950000,-90.5163889
"Shoto, WI",44.1752778,-87.6491667
"Shullsburg, WI",42.5733333,-90.2308333
"Sidney, WI",44.5527778,-90.6386111
"Silica, WI",43.8502778,-88.3416667
"Silver Creek, WI",43.5569444,-88.0250000
"Silver Lake, WI",42.5461111,-88.1655556
"Sinsinawa, WI",42.5236111,-90.5391667
"Sioux, WI",46.7372222,-90.8800000
"Siren, WI",45.7858333,-92.3808333
"Sister Bay, WI",45.1872222,-87.1208333
"Slab City, WI",44.7202778,-88.4455556
"Slabtown, WI",42.9669444,-88.6350000
"Slades Corners, WI",42.5819444,-88.2938889
"Slateford, WI",42.7855556,-90.1933333
"Slinger, WI",43.3336111,-88.2861111
"Slovan, WI",44.5308333,-87.5830556
"Smith Landing, WI",44.6891667,-92.6916667
"Snell, WI",45.0586111,-89.2850000
"Snells, WI",44.1416667,-88.4905556
"Sniderville, WI",44.3516667,-88.1911111
"Snows Corner, WI",44.6738889,-92.4966667
"Sobieski, WI",44.7208333,-88.0719444
"Sobieski Corners, WI",44.7211111,-88.0522222
"Soldiers Grove, WI",43.3952778,-90.7741667
"Solon Springs, WI",46.3533333,-91.8222222
"Somers, WI",42.6402778,-87.9102778
"Somerset, WI",45.1244444,-92.6733333
"Sono Junction, WI",44.9894444,-92.6786111
"Soperton, WI",45.4383333,-88.6361111
"South Beaver Dam, WI",43.4408333,-88.8861111
"South Byron, WI",43.6388889,-88.4863889
"South Chase, WI",44.6900000,-88.1511111
"South Itasca, WI",46.6616667,-92.0050000
"South Kenosha, WI",42.5402778,-87.8341667
"South Madison, WI",43.0558333,-89.3855556
"South Milwaukee, WI",42.9105556,-87.8605556
"South Randolph, WI",43.5111111,-88.9988889
"South Range, WI",46.6080556,-91.9833333
"South Superior, WI",46.6694444,-92.0950000
"South Wayne, WI",42.5688889,-89.8797222
"Sparta, WI",43.9441667,-90.8127778
"Spaulding, WI",44.3558333,-90.4155556
"Speck Oaks, WI",44.3002778,-90.5705556
"Spencer, WI",44.7577778,-90.2966667
"Spirit, WI",45.4541667,-90.1141667
"Spirit Falls, WI",45.4530556,-89.9805556
"Split Rock, WI",44.7050000,-89.0258333
"Spokeville, WI",44.7125000,-90.4341667
"Spooner, WI",45.8225000,-91.8891667
"Sprague, WI",44.1477778,-90.1313889
"Spread Eagle, WI",45.8819444,-88.1397222
"Spring Bank Park, WI",44.0066667,-90.6208333
"Spring Green, WI",43.1752778,-90.0677778
"Spring Grove, WI",43.8150000,-88.9413889
"Spring Lake, WI",44.0233333,-89.1586111
"Spring Prairie, WI",42.6913889,-88.4041667
"Spring Valley, WI",44.8452778,-92.2386111
"Springbrook, WI",45.9486111,-91.6880556
"Springfield, WI",42.6416667,-88.4119444
"Springfield Corners, WI",43.1919444,-89.5663889
"Springstead, WI",46.0252778,-90.1366667
"Springville, WI",43.5836111,-90.9397222
"Spruce, WI",44.9525000,-88.1647222
"Stanberry, WI",46.0072222,-91.6261111
"Stangelville, WI",44.4002778,-87.6844444
"Stanley, WI",44.9600000,-90.9369444
"Stanton, WI",45.1730556,-92.4669444
"Star Lake, WI",46.0383333,-89.4722222
"Star Prairie, WI",45.1969444,-92.5305556
"Starks, WI",45.6630556,-89.2216667
"State Line, WI",42.4944444,-87.8208333
"Stearns, WI",42.6563889,-89.6072222
"Stebbinsville, WI",42.8444444,-89.1730556
"Steinthal, WI",43.9825000,-88.0022222
"Stephensville, WI",44.3733333,-88.5841667
"Stetsonville, WI",45.0769444,-90.3150000
"Steuben, WI",43.1811111,-90.8586111
"Stevens Hill, WI",44.8402778,-87.3694444
"Stevens Point, WI",44.5236111,-89.5744444
"Stevenstown, WI",44.0363889,-91.1713889
"Stiles, WI",44.8611111,-88.0483333
"Stiles Junction, WI",44.8833333,-88.0466667
"Stitzer, WI",42.9266667,-90.6230556
"Stockbridge, WI",44.0716667,-88.2988889
"Stockholm, WI",44.4833333,-92.2619444
"Stockton, WI",44.5113889,-89.4669444
"Stoddard, WI",43.6619444,-91.2183333
"Stone, WI",42.8747222,-89.3100000
"Stone Lake, WI",45.8455556,-91.5402778
"Stonebank, WI",43.1425000,-88.4105556
"Stony Beach, WI",43.9880556,-88.5277778
"Stoughton, WI",42.9169444,-89.2177778
"Stratford, WI",44.8011111,-90.0791667
"Strawbridge, WI",42.5327778,-90.3786111
"Strickland, WI",45.4366667,-91.5211111
"Strongs Prairie, WI",44.0613889,-89.9758333
"Strum, WI",44.5497222,-91.3925000
"Sturgeon Bay, WI",44.8341667,-87.3769444
"Sturtevant, WI",42.6980556,-87.8944444
"Suamico, WI",44.6319444,-88.0391667
"Sugar Bush, WI",44.5016667,-87.7855556
"Sugar Camp, WI",45.7944444,-89.3138889
"Sugar Grove, WI",43.4258333,-90.6836111
"Sugar Island, WI",43.2258333,-88.5797222
"Sullivan, WI",43.0127778,-88.5880556
"Summit Corners, WI",43.0766667,-88.4700000
"Summit Lake, WI",45.3777778,-89.1947222
"Sumner, WI",45.3863889,-91.6522222
"Sun Prairie, WI",43.1836111,-89.2136111
"Sunburst, WI",43.1777778,-89.2902778
"Sunflower, WI",45.8033333,-89.6422222
"Sunnyside, WI",46.6041667,-92.0563889
"Sunrise Bay, WI",44.1636111,-88.4386111
"Sunset, WI",45.0033333,-89.4919444
"Sunset Beach, WI",44.0641667,-88.3263889
"Sunset Point, WI",44.0555556,-88.5875000
"Superior, WI",46.7208333,-92.1038889
"Superior Village, WI",46.6569444,-92.1041667
"Suring, WI",44.9991667,-88.3719444
"Sussex, WI",43.1338889,-88.2219444
"Sutherland, WI",46.4375000,-91.1763889
"Swan, WI",44.9311111,-90.1188889
"Sweetheart City, WI",45.3091667,-87.9761111
"Sylvan, WI",43.4225000,-90.6280556
"Sylvan Mounds, WI",42.9991667,-88.9783333
"Sylvan Shores, WI",43.8069444,-89.0380556
"Sylvania, WI",42.6986111,-87.9583333
"Symco, WI",44.5133333,-88.9038889
"Tabor, WI",42.8155556,-87.8350000
"Taegesville, WI",45.0466667,-89.7263889
"Tainter Lake, WI",44.9891667,-91.8475000
"Tamarack, WI",44.1750000,-91.4477778
"Tannery Town, WI",46.3191667,-90.6536111
"Tarrant, WI",44.5966667,-91.8430556
"Taus, WI",44.1891667,-87.8619444
"Tavera, WI",43.2841667,-90.6455556
"Taycheedah, WI",43.8088889,-88.3950000
"Taylor, WI",44.3211111,-91.1197222
"Taylors Corners, WI",43.0869444,-89.1994444
"Tell, WI",44.3805556,-91.8661111
"Tennyson, WI",42.6900000,-90.6850000
"Tess Corners, WI",42.9222222,-88.0994444
"Theresa, WI",43.5172222,-88.4511111
"Theresa Station, WI",43.5266667,-88.4277778
"Thiensville, WI",43.2375000,-87.9786111
"Thiry Daems, WI",44.6030556,-87.6930556
"Thompson, WI",43.2586111,-88.3705556
"Thompsonville, WI",42.7786111,-87.9527778
"Thornapple, WI",45.4097222,-91.2194444
"Thornton, WI",44.7966667,-88.6911111
"Thorp, WI",44.9611111,-90.7997222
"Three Lakes, WI",45.7983333,-89.1627778
"Tibbets, WI",42.7347222,-88.5813889
"Tichigan, WI",42.8288889,-88.1975000
"Tiffany, WI",42.5825000,-88.9269444
"Tigerton, WI",44.7408333,-89.0630556
"Tilden, WI",45.0066667,-91.4375000
"Tilleda, WI",44.8155556,-88.9111111
"Timberland, WI",45.6761111,-92.1058333
"Tioga, WI",44.6841667,-90.7930556
"Tipler, WI",45.9250000,-88.6347222
"Tisch Mills, WI",44.3272222,-87.6236111
"Tobin, WI",42.5075000,-87.8405556
"Token Creek, WI",43.1944444,-89.2936111
"Tomah, WI",43.9786111,-90.5038889
"Tomahawk, WI",45.4711111,-89.7297222
"Tonet, WI",44.5891667,-87.7336111
"Tony, WI",45.4830556,-90.9925000
"Topside, WI",46.5591667,-91.3225000
"Torun, WI",44.6136111,-89.5094444
"Towerville, WI",43.4075000,-90.8891667
"Townsend, WI",45.3280556,-88.5894444
"Trade Lake, WI",45.6897222,-92.5927778
"Trade River, WI",45.6483333,-92.6725000
"Trego, WI",45.8997222,-91.8208333
"Tremble, WI",44.6380556,-88.0694444
"Trempealeau, WI",44.0055556,-91.4419444
"Trenton, WI",44.6038889,-92.5647222
"Trevino, WI",44.4286111,-92.0677778
"Trevor, WI",42.5125000,-88.1208333
"Trimbelle, WI",44.7316667,-92.5797222
"Tripoli, WI",45.5552778,-89.9938889
"Trippville, WI",43.7091667,-90.4041667
"Troy, WI",42.7788889,-88.4447222
"Troy Center, WI",42.8097222,-88.4650000
"Truax, WI",44.8491667,-91.5691667
"Truesdell, WI",42.5666667,-87.9011111
"Truman, WI",42.7194444,-90.2297222
"Tuleta Hills, WI",43.8086111,-88.9811111
"Tunnel City, WI",44.0072222,-90.5655556
"Tunnelville, WI",43.5530556,-90.6583333
"Turtle Lake, WI",45.3944444,-92.1422222
"Tuscobia, WI",45.5669444,-91.7580556
"Tustin, WI",44.1627778,-88.8922222
"Twelve Corners, WI",44.4016667,-88.4347222
"Twin Bluffs, WI",43.2738889,-90.3127778
"Twin Grove, WI",42.5313889,-89.5430556
"Twin Lakes, WI",42.5311111,-88.2480556
"Twin Town, WI",45.3600000,-92.0322222
"Two Creeks, WI",44.3022222,-87.5630556
"Two Rivers, WI",44.1538889,-87.5691667
"Tyler Forks, WI",46.3358333,-90.5275000
"Tyran, WI",45.9488889,-88.3052778
"Ubet, WI",45.3538889,-92.5291667
"Ulao, WI",43.3205556,-87.9163889
"Underhill, WI",44.8752778,-88.3844444
"Union, WI",44.8433333,-91.5486111
"Union Center, WI",43.6852778,-90.2666667
"Union Church, WI",42.8436111,-88.0691667
"Union Grove, WI",42.6880556,-88.0513889
"Unity, WI",44.8516667,-90.3163889
"Upper French Creek, WI",44.2175000,-91.3247222
"Upson, WI",46.3691667,-90.4066667
"Urne, WI",44.4986111,-91.8922222
"Utica, WI",42.9655556,-89.1219444
"Utley, WI",43.7275000,-88.9061111
"Utowana Beach, WI",44.2050000,-88.3636111
"Valders, WI",44.0661111,-87.8841667
"Valley, WI",43.6416667,-90.5416667
"Valley Junction, WI",44.0533333,-90.4122222
"Valmy, WI",44.9080556,-87.2630556
"Valton, WI",43.5730556,-90.2741667
"Van Buren, WI",42.6763889,-90.7255556
"Van Buskirk, WI",46.3872222,-90.1433333
"Van Dyne, WI",43.8875000,-88.5041667
"Vaudreuil, WI",44.3063889,-90.8097222
"Veedum, WI",44.4097222,-90.1733333
"Veefkind, WI",44.6916667,-90.3733333
"Vermont, WI",43.0722222,-89.7855556
"Vernon, WI",42.9036111,-88.2522222
"Verona, WI",42.9908333,-89.5330556
"Vesper, WI",44.4822222,-89.9638889
"Victory, WI",43.4855556,-91.2125000
"Victory Center, WI",43.2069444,-88.0825000
"Victory Heights, WI",42.5427778,-89.0905556
"Vignes, WI",44.7261111,-87.3775000
"Viking, WI",44.8616667,-92.3588889
"Vilas, WI",43.0897222,-89.2347222
"Vinnie Ha Ha, WI",42.8805556,-88.9047222
"Viola, WI",43.5061111,-90.6680556
"Viroqua, WI",43.5569444,-90.8886111
"Wabeno, WI",45.4386111,-88.6602778
"Wagner, WI",45.3022222,-87.7355556
"Waino, WI",46.6397222,-91.5733333
"Waldo, WI",43.6747222,-87.9486111
"Waldwick, WI",42.8255556,-90.0397222
"Wales, WI",43.0044444,-88.3766667
"Walhain, WI",44.5452778,-87.7541667
"Walker, WI",44.3861111,-89.9786111
"Walsh, WI",45.1794444,-87.7625000
"Walworth, WI",42.5311111,-88.5994444
"Wanderoos, WI",45.3086111,-92.4941667
"Warrens, WI",44.1311111,-90.4997222
"Warrentown, WI",44.5758333,-92.3583333
"Wascott, WI",46.1725000,-91.7980556
"Washburn, WI",46.6733333,-90.8947222
"Washington, WI",45.3947222,-86.9313889
"Waterbury, WI",44.3852778,-90.5983333
"Waterford, WI",42.7630556,-88.2141667
"Waterloo, WI",43.1838889,-88.9883333
"Watertown, WI",43.1947222,-88.7288889
"Waterville, WI",43.0200000,-88.4380556
"Waubeka, WI",43.4750000,-87.9902778
"Waucousta, WI",43.6525000,-88.2602778
"Waukau, WI",43.9891667,-88.7716667
"Waukesha, WI",43.0116667,-88.2313889
"Waumandee, WI",44.3030556,-91.7055556
"Waunakee, WI",43.1919444,-89.4555556
"Waupaca, WI",44.3580556,-89.0858333
"Waupun, WI",43.6333333,-88.7294444
"Wausau, WI",44.9591667,-89.6300000
"Wausau Junction, WI",44.9411111,-89.6086111
"Wausaukee, WI",45.3708333,-87.9522222
"Wautoma, WI",44.0747222,-89.2877778
"Wauwatosa, WI",43.0494444,-88.0075000
"Wauzeka, WI",43.0852778,-90.8830556
"Waverly, WI",44.7286111,-92.2566667
"Waverly Beach, WI",44.2102778,-88.4044444
"Waxdale, WI",42.6980556,-87.8777778
"Wayne, WI",43.5141667,-88.3213889
"Wayside, WI",44.2552778,-87.9525000
"Webb Lake, WI",46.0094444,-92.1325000
"Weber, WI",44.8216667,-90.0902778
"Webster, WI",45.8775000,-92.3672222
"Weedens, WI",43.6877778,-87.7719444
"Weirgor, WI",45.6900000,-91.2677778
"Welling Beach, WI",43.8705556,-88.3638889
"Wells, WI",44.0955556,-88.0433333
"Wentworth, WI",46.6000000,-91.8358333
"Wequiock, WI",44.5675000,-87.8811111
"Werley, WI",43.0194444,-90.7652778
"West Allis, WI",43.0166667,-88.0069444
"West Almond, WI",44.2861111,-89.4608333
"West Bancroft, WI",44.3047222,-89.5308333
"West Baraboo, WI",43.4744444,-89.7702778
"West Bend, WI",43.4252778,-88.1833333
"West Bloomfield, WI",44.2208333,-88.9716667
"West De Pere, WI",44.4455556,-88.0752778
"West Denmark, WI",45.5700000,-92.5094444
"West Granville, WI",43.1405556,-88.0450000
"West Kraft, WI",45.4463889,-89.7491667
"West La Crosse, WI",43.8455556,-91.2622222
"West Lima, WI",43.5463889,-90.5302778
"West Middleton, WI",43.0602778,-89.5716667
"West Milwaukee, WI",43.0125000,-87.9725000
"West Prairie, WI",44.0641667,-91.5155556
"West Rosendale, WI",43.8225000,-88.7250000
"West Salem, WI",43.8991667,-91.0811111
"West Sweden, WI",45.7058333,-92.4966667
"Westboro, WI",45.3552778,-90.2958333
"Westby, WI",43.6569444,-90.8541667
"Westfield, WI",43.8836111,-89.4933333
"Weston, WI",44.8908333,-89.5475000
"Westport, WI",43.2050000,-90.6411111
"Weyauwega, WI",44.3213889,-88.9336111
"Weyerhaeuser, WI",45.4236111,-91.4083333
"Wheatland, WI",42.5938889,-88.2083333
"Wheeler, WI",45.0444444,-91.9086111
"Whispering Pines, WI",44.2802778,-88.3841667
"Whitcomb, WI",44.7833333,-89.1186111
"White City, WI",46.3283333,-90.6522222
"White Corners, WI",43.0675000,-91.0777778
"White Creek, WI",43.8258333,-89.8547222
"White Lake, WI",45.1572222,-88.7644444
"White Oak, WI",42.5183333,-90.2769444
"White Pine Haven, WI",45.5636111,-87.7944444
"White River, WI",46.5358333,-90.8505556
"Whitefish Bay, WI",43.1133333,-87.9000000
"Whitehall, WI",44.3675000,-91.3163889
"Whitelaw, WI",44.1447222,-87.8213889
"Whitewater, WI",42.8336111,-88.7322222
"Whiting, WI",44.4936111,-89.5586111
"Whittlesey, WI",45.2230556,-90.3286111
"Wickware, WI",45.3513889,-91.7861111
"Wien, WI",44.9019444,-90.0244444
"Wilcox, WI",44.9977778,-87.8352778
"Wild Rose, WI",44.1786111,-89.2488889
"Wildwood, WI",44.8919444,-92.2991667
"Willard, WI",44.7350000,-90.7191667
"Williams Bay, WI",42.5780556,-88.5408333
"Willow Creek, WI",43.2072222,-88.1583333
"Willow Springs, WI",43.1388889,-88.1841667
"Wills, WI",46.5391667,-91.5391667
"Wilmoore Heights, WI",43.8886111,-88.8083333
"Wilmot, WI",42.5127778,-88.1819444
"Wilson, WI",44.9536111,-92.1733333
"Wilton, WI",43.8136111,-90.5277778
"Winchester, WI",44.1986111,-88.6647222
"Wind Lake, WI",42.8294444,-88.1586111
"Wind Point, WI",42.7844444,-87.7661111
"Windsor, WI",43.2183333,-89.3413889
"Winnebago, WI",44.0758333,-88.5250000
"Winnebago Heights, WI",43.9002778,-88.3425000
"Winnebago Mission, WI",44.3461111,-90.7547222
"Winnebago Park, WI",43.8852778,-88.3525000
"Winneboujou, WI",46.5175000,-91.6008333
"Winneconne, WI",44.1108333,-88.7125000
"Winter, WI",45.8197222,-91.0116667
"Wiota, WI",42.6366667,-89.9525000
"Wisconsin Dells, WI",43.6275000,-89.7708333
"Wisconsin Junction, WI",45.6561111,-88.9111111
"Wisconsin Rapids, WI",44.3836111,-89.8172222
"Withee, WI",44.9563889,-90.5975000
"Wittenberg, WI",44.8272222,-89.1694444
"Witwen, WI",43.2852778,-89.8872222
"Wolf Creek, WI",45.5561111,-92.7225000
"Wonewoc, WI",43.6527778,-90.2233333
"Woodboro, WI",45.6075000,-89.5541667
"Wooddale, WI",45.6850000,-91.4608333
"Woodford, WI",42.6486111,-89.8625000
"Woodhull, WI",43.7775000,-88.5730556
"Woodland, WI",43.3702778,-88.5186111
"Woodland Corner, WI",46.1433333,-92.2383333
"Woodlawn, WI",45.4322222,-88.8213889
"Woodman, WI",43.0900000,-90.8011111
"Woodruff, WI",45.8963889,-89.6988889
"Woodstock, WI",43.4725000,-90.4272222
"Woodville, WI",44.9530556,-92.2911111
"Woodworth, WI",42.5580556,-88.0011111
"Worcester, WI",45.6036111,-90.2919444
"Wrights Corners, WI",44.0700000,-91.4611111
"Wrightstown, WI",44.3258333,-88.1627778
"Wuertsburg, WI",44.9602778,-90.0988889
"Wyalusing, WI",42.9438889,-91.1413889
"Wyeville, WI",44.0283333,-90.3844444
"Wynbrooke, WI",43.1955556,-89.2808333
"Wyocena, WI",43.4958333,-89.3083333
"Wyoming, WI",43.1261111,-90.1116667
"Yarnell, WI",45.7269444,-91.4191667
"Yellow Lake, WI",45.9366667,-92.3900000
"Yellowstone, WI",42.7983333,-89.9702778
"York, WI",44.4500000,-91.1450000
"York Center, WI",43.2391667,-89.0702778
"Yorkville, WI",42.7419444,-88.0266667
"Young America, WI",43.4516667,-88.1858333
"Yuba, WI",43.5388889,-90.4297222
"Zachow, WI",44.7322222,-88.3636111
"Zander, WI",44.3130556,-87.7052778
"Zenda, WI",42.5119444,-88.4816667
"Zion, WI",43.9969444,-88.6619444
"Zittau, WI",44.2166667,-88.7861111
"Zoar, WI",45.0150000,-88.8988889
